stop_id,stop_name,stop_lat,stop_lon,route_short_name,route_id,route_color,route_text_color,stop_sequence
15314,Indiana & 35th Street,41.83131644,-87.62167682,1,1,565a5c,ffffff,1
1560,Indiana & 34th Street,41.832975,-87.621707,1,1,565a5c,ffffff,2
16119,Indiana & 33rd Boulevard,41.8349486,-87.62175239,1,1,565a5c,ffffff,3
1562,Indiana & 32nd Street,41.83643,-87.621758,1,1,565a5c,ffffff,4
1563,Indiana & 31st Street,41.838248,-87.621825,1,1,565a5c,ffffff,5
1564,3000 S Michigan,41.840602,-87.623115,1,1,565a5c,ffffff,6
1565,Michigan & 29th Street,41.841882,-87.62324,1,1,565a5c,ffffff,7
1566,Michigan & 28th Street,41.84363,-87.623248,1,1,565a5c,ffffff,8
1567,Michigan & 26th Street,41.84588766,-87.62332019,1,1,565a5c,ffffff,9
1568,Michigan & 25th Street,41.847313,-87.6235,1,1,565a5c,ffffff,10
15313,Michigan & 24th Street,41.84946141,-87.62360265,1,1,565a5c,ffffff,11
1570,Michigan & 23rd Street,41.85114934,-87.62358591,1,1,565a5c,ffffff,12
15312,Michigan & Cermak,41.85318625,-87.62370873,1,1,565a5c,ffffff,13
1573,Michigan & 21st Street,41.85452045,-87.62374128,1,1,565a5c,ffffff,14
1574,Michigan & Cullerton,41.85571036,-87.62377044,1,1,565a5c,ffffff,15
1575,Michigan & 18th Street,41.85812678,-87.6238274,1,1,565a5c,ffffff,16
14760,Michigan & 16th Street,41.86050195,-87.62388008,1,1,565a5c,ffffff,17
18318,Michigan & 14th Street,41.86450771,-87.62395931,1,1,565a5c,ffffff,18
1579,Michigan & 13th Street,41.86598373,-87.6239989,1,1,565a5c,ffffff,19
1580,Michigan & Roosevelt,41.86789271,-87.6239641,1,1,565a5c,ffffff,20
1581,Michigan & 11th Street,41.86914471,-87.6239645,1,1,565a5c,ffffff,21
1582,Michigan & 9th Street,41.87050264,-87.62400635,1,1,565a5c,ffffff,22
1583,Michigan & 8th Street,41.87178684,-87.624034,1,1,565a5c,ffffff,23
1584,Michigan & Balbo,41.873395,-87.624082,1,1,565a5c,ffffff,24
14485,Michigan & Ida B Wells Drive,41.8755402,-87.6241263,1,1,565a5c,ffffff,25
75,Michigan & Van Buren,41.87669,-87.62416,1,1,565a5c,ffffff,26
77,Adams & Wabash,41.879575,-87.625884,1,1,565a5c,ffffff,27
4732,Adams & State,41.87950874,-87.6281053,1,1,565a5c,ffffff,28
17046,Adams & Clark,41.87947219,-87.6311045,1,1,565a5c,ffffff,29
80,Adams & Wells,41.879426,-87.634024,1,1,565a5c,ffffff,30
1108,Adams & S. Wacker,41.8794,-87.636542,1,1,565a5c,ffffff,31
12713,Adams & Canal,41.879358,-87.639401,1,1,565a5c,ffffff,32
67,Jackson & Canal,41.877997,-87.639776,1,1,565a5c,ffffff,33
12252,Avenue C & 112th Street,41.69191557,-87.52710433,100,100,b71234,ffffff,1
12253,112th Street & Avenue B,41.69170776,-87.52594856,100,100,b71234,ffffff,2
12254,Avenue B & 111th Street,41.69355511,-87.52574875,100,100,b71234,ffffff,3
12255,Avenue B & 110th Street,41.6953105,-87.5257097,100,100,b71234,ffffff,4
12256,Avenue B & 109th Street,41.6971105,-87.52570971,100,100,b71234,ffffff,5
12257,Avenue B & 108th Street,41.6989115,-87.52570872,100,100,b71234,ffffff,6
12258,Avenue B & 107th Street,41.70079426,-87.52569948,100,100,b71234,ffffff,7
12259,106th Street & Avenue B,41.70278753,-87.52661153,100,100,b71234,ffffff,8
12260,106th Street & Avenue D,41.70277166,-87.52829283,100,100,b71234,ffffff,9
12261,106th Street & Avenue F,41.70277418,-87.53035522,100,100,b71234,ffffff,10
12263,106th Street & Avenue H,41.70279301,-87.53277539,100,100,b71234,ffffff,11
15032,106th Street & Ewing,41.70279708,-87.53556637,100,100,b71234,ffffff,12
15240,106th Street & Avenue M,41.70281029,-87.53757092,100,100,b71234,ffffff,13
12267,106th Street & Avenue O,41.70281547,-87.53999099,100,100,b71234,ffffff,14
12269,106th Street & Mackinaw,41.70285059,-87.54242196,100,100,b71234,ffffff,15
12271,3033 E 106th Street,41.70284261,-87.5485546,100,100,b71234,ffffff,16
12272,106th Street & Muskegon,41.70284488,-87.554664,100,100,b71234,ffffff,17
12273,2800 E 106th Street,41.70284888,-87.55613199,100,100,b71234,ffffff,18
12275,106th Street & Torrence,41.70284687,-87.55936199,100,100,b71234,ffffff,19
6989,Torrence & 105th Street,41.70450235,-87.55952355,100,100,b71234,ffffff,20
6990,Torrence & 104th Street,41.70620934,-87.55954514,100,100,b71234,ffffff,21
12121,Pulaski & 104th Street Terminal,41.704159,-87.720625,103,103,565a5c,ffffff,1
4696,Pulaski & 103rd Street,41.70566427,-87.72079879,103,103,565a5c,ffffff,2
12122,103rd Street & Springfield,41.70584578,-87.71856286,103,103,565a5c,ffffff,3
12123,103rd Street & Hamlin,41.70588023,-87.71612188,103,103,565a5c,ffffff,4
12124,103rd Street & Lawndale,41.70591767,-87.71367582,103,103,565a5c,ffffff,5
12125,103rd Street & Central Park,41.70595789,-87.71117097,103,103,565a5c,ffffff,6
12126,103rd Street & St. Louis,41.70599451,-87.70888965,103,103,565a5c,ffffff,7
12127,103rd Street & Homan,41.70602657,-87.7063512,103,103,565a5c,ffffff,8
12128,103rd Street & Spaulding,41.70602715,-87.703875,103,103,565a5c,ffffff,9
12129,103rd Street & Kedzie,41.70606123,-87.70147896,103,103,565a5c,ffffff,10
12130,103rd Street & Albany,41.70610348,-87.69910718,103,103,565a5c,ffffff,11
12131,103rd Street & Sacramento,41.70615889,-87.69683363,103,103,565a5c,ffffff,12
12132,103rd Street & Francisco,41.70619487,-87.69404297,103,103,565a5c,ffffff,13
12133,103rd Street & California,41.70622321,-87.69162431,103,103,565a5c,ffffff,14
12134,103rd Street & Fairfield,41.70624079,-87.68995525,103,103,565a5c,ffffff,15
12135,103rd Street & Talman,41.70627721,-87.68784619,103,103,565a5c,ffffff,16
12136,2600 W 103rd Street,41.70627652,-87.68664367,103,103,565a5c,ffffff,17
12137,103rd Street & Campbell,41.70630382,-87.68422587,103,103,565a5c,ffffff,18
12138,103rd Street & Western,41.70629687,-87.68184459,103,103,565a5c,ffffff,19
12140,103rd Street & Bell,41.70637528,-87.67808432,103,103,565a5c,ffffff,20
12141,103rd Street & Leavitt,41.7064003,-87.67687975,103,103,565a5c,ffffff,21
12142,103rd Street & Hoyne,41.70645216,-87.67445192,103,103,565a5c,ffffff,22
12143,103rd Street & Seeley,41.70647866,-87.67311708,103,103,565a5c,ffffff,23
12144,103rd Street & Longwood,41.70651381,-87.67084195,103,103,565a5c,ffffff,24
12145,103rd Street & Walden,41.706532,-87.668831,103,103,565a5c,ffffff,25
12146,103rd Street & Wood,41.70655428,-87.66722628,103,103,565a5c,ffffff,26
12147,1700 W 103rd Street,41.70660903,-87.66434122,103,103,565a5c,ffffff,27
12148,103rd Street & Prospect,41.70665455,-87.66220164,103,103,565a5c,ffffff,28
12149,103rd Street & Church,41.70666245,-87.66045242,103,103,565a5c,ffffff,29
12150,103rd Street & Charles,41.70668599,-87.65876463,103,103,565a5c,ffffff,30
12152,103rd Street & Vincennes Ave,41.70669321,-87.65625638,103,103,565a5c,ffffff,31
12153,Julian High School,41.7067297,-87.65529068,103,103,565a5c,ffffff,32
12154,103rd Street & Racine,41.7067705,-87.65217929,103,103,565a5c,ffffff,33
12155,103rd Street & Aberdeen,41.70678745,-87.65028729,103,103,565a5c,ffffff,34
12156,103rd Street & Morgan,41.70679756,-87.64775882,103,103,565a5c,ffffff,35
12157,103rd Street & Peoria,41.70682513,-87.6453585,103,103,565a5c,ffffff,36
12158,103rd Street & Halsted,41.70685878,-87.64306392,103,103,565a5c,ffffff,37
12159,103rd Street & Union,41.70688443,-87.64051632,103,103,565a5c,ffffff,38
12160,103rd Street & Wallace,41.70691438,-87.63807319,103,103,565a5c,ffffff,39
12161,103rd Street & Normal,41.7069437,-87.63567555,103,103,565a5c,ffffff,40
12162,103rd Street & Eggleston,41.70697415,-87.63356297,103,103,565a5c,ffffff,41
12163,103rd Street & Princeton,41.70700976,-87.63082053,103,103,565a5c,ffffff,42
12164,103rd Street & Wentworth,41.70703935,-87.62839171,103,103,565a5c,ffffff,43
12165,103rd Street & Perry,41.70707122,-87.62590551,103,103,565a5c,ffffff,44
12166,103rd Street & State,41.70709485,-87.62367105,103,103,565a5c,ffffff,45
7616,Michigan & 103rd Street,41.70748838,-87.62007609,103,103,565a5c,ffffff,46
7617,Michigan & 102nd Street,41.70898175,-87.61985695,103,103,565a5c,ffffff,47
7618,Michigan & 101st Street,41.7107368,-87.61980981,103,103,565a5c,ffffff,48
7619,Michigan & 100th Street,41.71258366,-87.62001096,103,103,565a5c,ffffff,49
7620,Michigan & 99th Street,41.71448952,-87.62025967,103,103,565a5c,ffffff,50
7621,Michigan & 98th Street,41.71628358,-87.62033295,103,103,565a5c,ffffff,51
7622,Michigan & 97th Street,41.71809,-87.620409,103,103,565a5c,ffffff,52
7623,Michigan & 96th Street,41.719888,-87.620446,103,103,565a5c,ffffff,53
2982,95th Street & Michigan,41.72187674,-87.62102781,103,103,565a5c,ffffff,54
14006,95th Red Line Station,41.720868,-87.624612,103,103,565a5c,ffffff,55
17747,103rd Street & Stony Island Garage Terminal,41.70874056,-87.58092719,106,106,565a5c,ffffff,1
7212,Woodlawn & 103rd Street,41.70838543,-87.59398964,106,106,565a5c,ffffff,2
7213,Olive-Harvey College,41.70941598,-87.58920782,106,106,565a5c,ffffff,3
12278,1100 E 103rd Street,41.70767682,-87.59593336,106,106,565a5c,ffffff,4
12279,1000 E 103rd Street,41.70761093,-87.59912626,106,106,565a5c,ffffff,5
12280,900 E 103rd Street,41.70758193,-87.60145626,106,106,565a5c,ffffff,6
12281,103rd Street & Corliss,41.70755393,-87.60395426,106,106,565a5c,ffffff,7
12282,103rd Street & Cottage Grove,41.7075071,-87.60630218,106,106,565a5c,ffffff,8
12283,103rd Street & St. Lawrence,41.70745471,-87.60877689,106,106,565a5c,ffffff,9
12285,103rd Street & Eberhart,41.70741665,-87.61119526,106,106,565a5c,ffffff,10
12287,103rd Street & King Drive,41.70738428,-87.61362194,106,106,565a5c,ffffff,11
12288,103rd Street & Calumet,41.70735929,-87.6148869,106,106,565a5c,ffffff,12
12289,103rd Street & Forest,41.70734106,-87.61608974,106,106,565a5c,ffffff,13
12290,103rd Street & Prairie,41.70732338,-87.61731558,106,106,565a5c,ffffff,14
12291,103rd Street & Indiana,41.70730326,-87.61852819,106,106,565a5c,ffffff,15
12292,103rd Street & Michigan,41.70728631,-87.62004118,106,106,565a5c,ffffff,16
7617,Michigan & 102nd Street,41.70898175,-87.61985695,106,106,565a5c,ffffff,17
7618,Michigan & 101st Street,41.7107368,-87.61980981,106,106,565a5c,ffffff,18
7619,Michigan & 100th Street,41.71258366,-87.62001096,106,106,565a5c,ffffff,19
7620,Michigan & 99th Street,41.71448952,-87.62025967,106,106,565a5c,ffffff,20
7621,Michigan & 98th Street,41.71628358,-87.62033295,106,106,565a5c,ffffff,21
7622,Michigan & 97th Street,41.71809,-87.620409,106,106,565a5c,ffffff,22
7623,Michigan & 96th Street,41.719888,-87.620446,106,106,565a5c,ffffff,23
2982,95th Street & Michigan,41.72187674,-87.62102781,106,106,565a5c,ffffff,24
14006,95th Red Line Station,41.720868,-87.624612,106,106,565a5c,ffffff,25
5992,Vermont & Union,41.662563,-87.639213,108,108,565a5c,ffffff,1
5973,Lowe & 127th Street,41.663145,-87.637737,108,108,565a5c,ffffff,2
5974,127th Street & Emerald,41.663307,-87.640012,108,108,565a5c,ffffff,3
5975,127th Street & Halsted,41.66330401,-87.64133441,108,108,565a5c,ffffff,4
5976,Halsted & 126th Street,41.664935,-87.641385,108,108,565a5c,ffffff,5
5977,Halsted & 125th Street,41.66678284,-87.64141387,108,108,565a5c,ffffff,6
5978,Halsted & 124th Street,41.668578,-87.64149,108,108,565a5c,ffffff,7
17639,Halsted & 123rd Street,41.67075014,-87.64154644,108,108,565a5c,ffffff,8
5980,Halsted & 122nd Street,41.67227473,-87.64160099,108,108,565a5c,ffffff,9
5981,12100 S Halsted,41.67400016,-87.64163022,108,108,565a5c,ffffff,10
17643,Halsted & 120th Street,41.67619858,-87.64174684,108,108,565a5c,ffffff,11
14545,Halsted & 119th Street,41.67799154,-87.64178573,108,108,565a5c,ffffff,12
3638,Halsted & 118th Street,41.67958972,-87.6418314,108,108,565a5c,ffffff,13
3639,Halsted & 117th Street,41.681643,-87.641915,108,108,565a5c,ffffff,14
3640,Halsted & 116th Street,41.68392941,-87.64200253,108,108,565a5c,ffffff,15
15034,Halsted & 115th Street,41.68523466,-87.64202703,108,108,565a5c,ffffff,16
3642,Halsted & 114th Street,41.68677,-87.642092,108,108,565a5c,ffffff,17
3643,Halsted & 113th Street,41.688573,-87.642143,108,108,565a5c,ffffff,18
3644,Halsted & 112th Street,41.690383,-87.642193,108,108,565a5c,ffffff,19
3645,Halsted & 111th Street,41.69223292,-87.64225323,108,108,565a5c,ffffff,20
3646,Halsted & 110th Street,41.694028,-87.642308,108,108,565a5c,ffffff,21
3647,Halsted & 109th Street,41.695807,-87.642362,108,108,565a5c,ffffff,22
3648,Halsted & 108th Street,41.697655,-87.64243,108,108,565a5c,ffffff,23
3649,Halsted & 107th Street,41.69948,-87.642477,108,108,565a5c,ffffff,24
3650,Halsted & 106th Street,41.70128,-87.64254,108,108,565a5c,ffffff,25
3651,Halsted & 105th Street,41.703117,-87.642592,108,108,565a5c,ffffff,26
3652,Halsted & 104th Street,41.704935,-87.642652,108,108,565a5c,ffffff,27
14497,Halsted & 103rd Street,41.70707195,-87.64270871,108,108,565a5c,ffffff,28
3654,Halsted & 102nd Street,41.708593,-87.642778,108,108,565a5c,ffffff,29
3655,Halsted & 101st Street,41.710438,-87.642822,108,108,565a5c,ffffff,30
3656,Halsted & 100th Street,41.712238,-87.642867,108,108,565a5c,ffffff,31
3657,Halsted & 99th Street,41.71453,-87.642883,108,108,565a5c,ffffff,32
17512,Halsted & 98th Place,41.71524457,-87.64287865,108,108,565a5c,ffffff,33
3659,Halsted & 97th Street,41.717688,-87.642985,108,108,565a5c,ffffff,34
3660,Halsted & 96th Street,41.719507,-87.643027,108,108,565a5c,ffffff,35
3661,Halsted & 95th Street,41.72129969,-87.64307859,108,108,565a5c,ffffff,36
3506,95th Street & Union,41.721387,-87.640932,108,108,565a5c,ffffff,37
3507,95th Street & Wallace,41.721417,-87.638507,108,108,565a5c,ffffff,38
3508,95th Street & Normal,41.721458,-87.636098,108,108,565a5c,ffffff,39
3509,95th Street & Eggleston,41.72149,-87.634105,108,108,565a5c,ffffff,40
3510,95th Street & Princeton,41.72151704,-87.63121104,108,108,565a5c,ffffff,41
3511,95th Street & Wentworth,41.72155016,-87.62877168,108,108,565a5c,ffffff,42
14008,95th Red Line Station,41.722043,-87.624018,108,108,565a5c,ffffff,43
1483,Western Brown Line Station,41.96605186,-87.68855157,11,11,565a5c,ffffff,1
14592,Western & Lawrence,41.96885702,-87.68876891,11,11,565a5c,ffffff,2
1486,Ainslie & Western,41.97046143,-87.689449,11,11,565a5c,ffffff,3
1487,Lincoln & Argyle,41.97191767,-87.69054584,11,11,565a5c,ffffff,4
1488,Lincoln & Winnemac,41.972931,-87.691278,11,11,565a5c,ffffff,5
1489,Lincoln & Carmen,41.97394826,-87.69189679,11,11,565a5c,ffffff,6
17585,Lincoln & Foster,41.97617236,-87.69226442,11,11,565a5c,ffffff,7
1491,Lincoln & Berwyn,41.977658,-87.692505,11,11,565a5c,ffffff,8
1492,Lincoln & Balmoral,41.979485,-87.692666,11,11,565a5c,ffffff,9
1493,Lincoln & Catalpa,41.98124037,-87.69273674,11,11,565a5c,ffffff,10
1494,Lincoln & Bryn Mawr,41.98304912,-87.6947361,11,11,565a5c,ffffff,11
1495,Lincoln & Washtenaw,41.98433681,-87.69695023,11,11,565a5c,ffffff,12
15227,Lincoln & California,41.98589397,-87.69961531,11,11,565a5c,ffffff,13
1497,Lincoln & Francisco,41.986924,-87.701378,11,11,565a5c,ffffff,14
1498,Lincoln & Richmond,41.98796,-87.70315,11,11,565a5c,ffffff,15
1499,Lincoln & Sacramento,41.988701,-87.704385,11,11,565a5c,ffffff,16
1500,Lincoln & Whipple,41.98937717,-87.70545115,11,11,565a5c,ffffff,17
1502,Lincoln & Peterson,41.99023575,-87.70687864,11,11,565a5c,ffffff,18
1503,Lincoln & Kedzie,41.99141435,-87.70884994,11,11,565a5c,ffffff,19
1504,Lincoln & Jersey,41.99306426,-87.71141257,11,11,565a5c,ffffff,20
1505,Lincoln & McCormick/Kimball,41.99448334,-87.71366766,11,11,565a5c,ffffff,21
17560,McCormick & Lincoln,41.99520724,-87.71318358,11,11,565a5c,ffffff,22
1507,McCormick & Devon,41.99715788,-87.71150524,11,11,565a5c,ffffff,23
12031,Kedzie & Devon,41.9975768,-87.70925684,11,11,565a5c,ffffff,24
15048,Kedzie & Arthur,41.99913277,-87.70926277,11,11,565a5c,ffffff,25
12032,Kedzie & Albion,42.00125163,-87.70928914,11,11,565a5c,ffffff,26
12033,Kedzie & Pratt,42.00457457,-87.70921769,11,11,565a5c,ffffff,27
12034,6833 N Kedzie,42.00545161,-87.70918978,11,11,565a5c,ffffff,28
12035,6933 N Kedzie,42.00735065,-87.70913691,11,11,565a5c,ffffff,29
12037,7061 N Kedzie,42.01066723,-87.70903024,11,11,565a5c,ffffff,30
15046,Kedzie & Touhy,42.01204969,-87.70896852,11,11,565a5c,ffffff,31
14747,Kedzie & Jarvis,42.01543778,-87.70863852,11,11,565a5c,ffffff,32
14748,Kedzie & Birchwood,42.01723777,-87.70859812,11,11,565a5c,ffffff,33
15534,Howard & Kedzie,42.01919195,-87.70925694,11,11,565a5c,ffffff,34
11859,Howard & McCormick Terminal,42.018948,-87.711018,11,11,565a5c,ffffff,35
17736,Marshfield & 117th Street,41.68039211,-87.66255742,111,111,565a5c,ffffff,1
17737,Ashland & 119th Street,41.67804838,-87.66121664,111,111,565a5c,ffffff,2
17738,Ashland & 117th Street,41.68109832,-87.66122173,111,111,565a5c,ffffff,3
17739,115th Street & Marshfield,41.68486249,-87.66305102,111,111,565a5c,ffffff,4
2864,1700 W 115th Street,41.68483072,-87.6636847,111,111,565a5c,ffffff,5
2865,115th Street & Watkins,41.68479439,-87.6660827,111,111,565a5c,ffffff,6
2866,115th Street & Vincennes,41.68477517,-87.66736845,111,111,565a5c,ffffff,7
2867,Vincennes & Edmaire,41.68661725,-87.66654406,111,111,565a5c,ffffff,8
2868,Vincennes & Montvale,41.6882486,-87.66561518,111,111,565a5c,ffffff,9
2869,Vincennes & Monterey,41.69043987,-87.66435489,111,111,565a5c,ffffff,10
2870,Vincennes & 111th Street,41.69196545,-87.66333712,111,111,565a5c,ffffff,11
2871,111th Street & Ashland,41.692053,-87.661937,111,111,565a5c,ffffff,12
2873,111th Street & Bishop,41.69210132,-87.65868869,111,111,565a5c,ffffff,13
2874,111th Street & Loomis,41.69212004,-87.65708287,111,111,565a5c,ffffff,14
2875,111th Street & Throop,41.69215301,-87.65463149,111,111,565a5c,ffffff,15
2876,111th Street & Racine,41.69220198,-87.6522041,111,111,565a5c,ffffff,16
2877,111th Street & Aberdeen,41.69221598,-87.6497881,111,111,565a5c,ffffff,17
2878,111th Street & Morgan,41.69224697,-87.64733256,111,111,565a5c,ffffff,18
2879,111th Street & Peoria,41.69226797,-87.64504355,111,111,565a5c,ffffff,19
14543,111th Street & Halsted,41.6922982,-87.64212399,111,111,565a5c,ffffff,20
2881,111th Street & Union,41.69232493,-87.64005435,111,111,565a5c,ffffff,21
2882,111th Street & Wallace,41.69235828,-87.63761716,111,111,565a5c,ffffff,22
2883,111th Street & Normal,41.69238578,-87.6352642,111,111,565a5c,ffffff,23
2884,111th Street & Stewart,41.69242203,-87.63308275,111,111,565a5c,ffffff,24
2885,111th Street & Princeton,41.69241002,-87.63044574,111,111,565a5c,ffffff,25
15265,111th Street & Wentworth,41.69247919,-87.62753123,111,111,565a5c,ffffff,26
2887,111th Street & Perry,41.69246626,-87.62590285,111,111,565a5c,ffffff,27
2888,111th Street & State,41.69251798,-87.62322428,111,111,565a5c,ffffff,28
2889,111th Street & Michigan,41.69253952,-87.62122408,111,111,565a5c,ffffff,29
2890,111th Street & Indiana,41.69257126,-87.61840705,111,111,565a5c,ffffff,30
2891,300 E 111th Street,41.692643,-87.615721,111,111,565a5c,ffffff,31
17727,King Drive & 111th Street,41.69301187,-87.61323638,111,111,565a5c,ffffff,32
17728,King Drive & 109th Street,41.69631675,-87.61336997,111,111,565a5c,ffffff,33
17729,King Drive & 107th Street,41.69988137,-87.61351402,111,111,565a5c,ffffff,34
17730,King Drive & 105th Street,41.70359748,-87.61359944,111,111,565a5c,ffffff,35
17731,King Drive & 103rd Street,41.70726471,-87.61362089,111,111,565a5c,ffffff,36
17732,King Drive & 101st Street,41.71084582,-87.61375727,111,111,565a5c,ffffff,37
17733,King Drive & 99th Place,41.71392244,-87.6138256,111,111,565a5c,ffffff,38
17549,King Drive & 97th Street,41.7181645,-87.61396622,111,111,565a5c,ffffff,39
17550,King Drive & 96th Street,41.71999898,-87.61399825,111,111,565a5c,ffffff,40
17754,95th Street & King Drive,41.72198826,-87.61444823,111,111,565a5c,ffffff,41
2980,95th Street & Forest,41.72195589,-87.61645985,111,111,565a5c,ffffff,42
2981,95th Street & Indiana,41.72191694,-87.61881939,111,111,565a5c,ffffff,43
2982,95th Street & Michigan,41.72187674,-87.62102781,111,111,565a5c,ffffff,44
14004,95th Red Line Station,41.721166,-87.623964,111,111,565a5c,ffffff,45
2841,Cottage Grove & 115th Street,41.685588,-87.6115,111A,111A,565a5c,ffffff,1
2842,115th Street & King Drive,41.68550811,-87.61296824,111A,111A,565a5c,ffffff,2
15107,King Drive & 114th Street,41.6871937,-87.61311022,111A,111A,565a5c,ffffff,3
14050,King Drive & 113th Street,41.6890275,-87.61317983,111A,111A,565a5c,ffffff,4
14051,King Drive & 112th Street,41.69086314,-87.61322501,111A,111A,565a5c,ffffff,5
14052,King Drive & 111th Street,41.69263792,-87.61328986,111A,111A,565a5c,ffffff,6
2893,111th Street & Vernon,41.69267046,-87.61226293,111A,111A,565a5c,ffffff,7
2895,111th Street & Cottage Grove,41.69269946,-87.60929577,111A,111A,565a5c,ffffff,8
2896,111th Street & Champlain,41.69275903,-87.60731053,111A,111A,565a5c,ffffff,9
2983,111th Street & Ellis,41.6928,-87.6048,111A,111A,565a5c,ffffff,10
17857,Doty & Walmart,41.69509167,-87.59869833,111A,111A,565a5c,ffffff,11
18433,Pullman Community Center,41.70408527,-87.59402091,111A,111A,565a5c,ffffff,12
17747,103rd Street & Stony Island Garage Terminal,41.70874056,-87.58092719,111A,111A,565a5c,ffffff,13
14156,103rd Street & Stony Island Garage Terminal,41.70835284,-87.58092044,111A,111A,565a5c,ffffff,14
14178,111th Street & Harding Terminal,41.6910758,-87.71925311,112,112,565a5c,ffffff,1
12386,111th Street & Hamlin,41.691277,-87.71546,112,112,565a5c,ffffff,2
12387,111th Street & Lawndale,41.6913119,-87.7132621,112,112,565a5c,ffffff,3
18602,111th Street & Central Park,41.69135742,-87.71037023,112,112,565a5c,ffffff,4
12389,111th Street & St. Louis,41.691391,-87.70826,112,112,565a5c,ffffff,5
12390,111th Street & Homan,41.691431,-87.705829,112,112,565a5c,ffffff,6
12391,111th Street & Spaulding,41.691468,-87.703405,112,112,565a5c,ffffff,7
18600,111th Street & Kedzie,41.69151329,-87.70057158,112,112,565a5c,ffffff,8
12393,111th Street & Albany,41.691535,-87.698479,112,112,565a5c,ffffff,9
12394,111th Street & Sacramento,41.69151353,-87.69613919,112,112,565a5c,ffffff,10
12396,111th Street & California,41.69161184,-87.69098688,112,112,565a5c,ffffff,11
12398,111th Street & Washtenaw,41.691653,-87.688636,112,112,565a5c,ffffff,12
12399,2600 W 111th Street,41.69166741,-87.68615351,112,112,565a5c,ffffff,13
12400,111th Street & Campbell,41.691708,-87.683758,112,112,565a5c,ffffff,14
17309,111th Street & Western,41.69169769,-87.680647,112,112,565a5c,ffffff,15
12402,111th Street & Bell,41.69174656,-87.67768896,112,112,565a5c,ffffff,16
12404,111th Street & Hoyne,41.69183,-87.674243,112,112,565a5c,ffffff,17
12405,111th Street & Hale,41.691854,-87.670796,112,112,565a5c,ffffff,18
15504,Monterey & Homewood,41.69165623,-87.66985822,112,112,565a5c,ffffff,19
15826,Monterey & Hermosa,41.69074909,-87.66703016,112,112,565a5c,ffffff,20
2869,Vincennes & Monterey,41.69043987,-87.66435489,112,112,565a5c,ffffff,21
2870,Vincennes & 111th Street,41.69196545,-87.66333712,112,112,565a5c,ffffff,22
15738,Vincennes & 110th Street,41.69387862,-87.66202559,112,112,565a5c,ffffff,23
12410,Vincennes & 109th Street,41.69567175,-87.66075281,112,112,565a5c,ffffff,24
12411,Vincennes & 108th Place,41.69652191,-87.66015714,112,112,565a5c,ffffff,25
12412,Vincennes & 107th Street,41.69932671,-87.65869381,112,112,565a5c,ffffff,26
12413,10602 S Vincennes,41.70088056,-87.65812803,112,112,565a5c,ffffff,27
12414,Vincennes & 105th Street,41.70304153,-87.65733175,112,112,565a5c,ffffff,28
12415,Vincennes & 104th Street,41.70486187,-87.65666036,112,112,565a5c,ffffff,29
6413,Vincennes & 103rd Street,41.70666856,-87.65596017,112,112,565a5c,ffffff,30
6414,Vincennes & Winston (10200 South),41.70855126,-87.65528733,112,112,565a5c,ffffff,31
6415,Vincennes & 100th Place,41.71133274,-87.6542534,112,112,565a5c,ffffff,32
6416,Vincennes & 99th Street,41.71398635,-87.65325493,112,112,565a5c,ffffff,33
6417,Vincennes & 98th Street,41.71573502,-87.65261825,112,112,565a5c,ffffff,34
6418,Vincennes & 97th Street,41.71744457,-87.65198458,112,112,565a5c,ffffff,35
6419,Vincennes & 96th Street,41.71916135,-87.65136595,112,112,565a5c,ffffff,36
6420,Vincennes & 95th Street,41.72118294,-87.65059757,112,112,565a5c,ffffff,37
3503,95th Street & Morgan,41.72130231,-87.64811279,112,112,565a5c,ffffff,38
3504,95th Street & Peoria,41.7213214,-87.64574306,112,112,565a5c,ffffff,39
15026,95th Street & Halsted,41.72135508,-87.64280117,112,112,565a5c,ffffff,40
3506,95th Street & Union,41.721387,-87.640932,112,112,565a5c,ffffff,41
3507,95th Street & Wallace,41.721417,-87.638507,112,112,565a5c,ffffff,42
3508,95th Street & Normal,41.721458,-87.636098,112,112,565a5c,ffffff,43
3509,95th Street & Eggleston,41.72149,-87.634105,112,112,565a5c,ffffff,44
3510,95th Street & Princeton,41.72151704,-87.63121104,112,112,565a5c,ffffff,45
3511,95th Street & Wentworth,41.72155016,-87.62877168,112,112,565a5c,ffffff,46
14010,95th Red Line Station,41.722512,-87.624019,112,112,565a5c,ffffff,47
17736,Marshfield & 117th Street,41.68039211,-87.66255742,115,115,565a5c,ffffff,1
17737,Ashland & 119th Street,41.67804838,-87.66121664,115,115,565a5c,ffffff,2
17738,Ashland & 117th Street,41.68109832,-87.66122173,115,115,565a5c,ffffff,3
17659,115th Street & Ashland,41.68476068,-87.66117078,115,115,565a5c,ffffff,4
2936,115th Street & Laflin,41.68479409,-87.65925073,115,115,565a5c,ffffff,5
2937,115th Street & Loomis,41.68480983,-87.65676935,115,115,565a5c,ffffff,6
2938,115th Street & Throop,41.68483883,-87.65435135,115,115,565a5c,ffffff,7
2939,115th Street & Racine,41.68489116,-87.65196366,115,115,565a5c,ffffff,8
2940,115th Street & Aberdeen,41.68493495,-87.64950931,115,115,565a5c,ffffff,9
2941,115th Street & Morgan,41.68495795,-87.64707531,115,115,565a5c,ffffff,10
17779,115th Street & Halsted,41.685027,-87.64173078,115,115,565a5c,ffffff,11
2944,115th Street & Union,41.68504356,-87.64050686,115,115,565a5c,ffffff,12
2945,115th Street & Wallace,41.68509776,-87.63750516,115,115,565a5c,ffffff,13
2946,115th Street & Normal,41.68514276,-87.63512216,115,115,565a5c,ffffff,14
2947,115th Street & Stewart,41.68514468,-87.63262417,115,115,565a5c,ffffff,15
2948,115th Street & Princeton,41.6851686,-87.63023608,115,115,565a5c,ffffff,16
2949,115th Street & Wentworth,41.68517096,-87.62776623,115,115,565a5c,ffffff,17
2950,115th Street & Perry,41.68523219,-87.62557885,115,115,565a5c,ffffff,18
2951,115th Street & State,41.68523305,-87.62301942,115,115,565a5c,ffffff,19
18513,115th Street & Michigan,41.68528213,-87.62045131,115,115,565a5c,ffffff,20
2953,115th Street & Indiana,41.6852873,-87.61816629,115,115,565a5c,ffffff,21
2955,115th Street & Forest,41.68534483,-87.61569771,115,115,565a5c,ffffff,22
14049,King Drive & 115th Street,41.68559438,-87.61308308,115,115,565a5c,ffffff,23
15107,King Drive & 114th Street,41.6871937,-87.61311022,115,115,565a5c,ffffff,24
14050,King Drive & 113th Street,41.6890275,-87.61317983,115,115,565a5c,ffffff,25
14051,King Drive & 112th Street,41.69086314,-87.61322501,115,115,565a5c,ffffff,26
14052,King Drive & 111th Street,41.69263792,-87.61328986,115,115,565a5c,ffffff,27
2893,111th Street & Vernon,41.69267046,-87.61226293,115,115,565a5c,ffffff,28
17676,Cottage Grove & 111th Street,41.69310103,-87.60966564,115,115,565a5c,ffffff,29
2962,11000 S Cottage Grove,41.694642,-87.609317,115,115,565a5c,ffffff,30
15157,Cottage Grove & 109th Street,41.69650804,-87.60889938,115,115,565a5c,ffffff,31
2964,Cottage Grove & 108th Street,41.69807138,-87.60851835,115,115,565a5c,ffffff,32
14553,Cottage Grove & 107th Street,41.70020367,-87.60805277,115,115,565a5c,ffffff,33
2966,Cottage Grove & 106th Street,41.70187686,-87.60768673,115,115,565a5c,ffffff,34
2967,Cottage Grove & 105th Street,41.70369159,-87.60724793,115,115,565a5c,ffffff,35
2968,Cottage Grove & 104th Street,41.70552793,-87.60683823,115,115,565a5c,ffffff,36
15033,Cottage Grove & 103rd Street,41.70781796,-87.60633662,115,115,565a5c,ffffff,37
2970,10200 S Cottage Grove,41.70919436,-87.60602576,115,115,565a5c,ffffff,38
2971,Cottage Grove & 101st Street,41.71118024,-87.60558607,115,115,565a5c,ffffff,39
2972,Cottage Grove & 100th Street,41.71274894,-87.60521175,115,115,565a5c,ffffff,40
2973,Cottage Grove & 99th Street,41.71463028,-87.60475957,115,115,565a5c,ffffff,41
2974,Cottage Grove & 98th Street,41.71654592,-87.60435845,115,115,565a5c,ffffff,42
2975,9700 S Cottage Grove,41.71834278,-87.6039536,115,115,565a5c,ffffff,43
2976,9600 S Cottage Grove,41.720194,-87.60351594,115,115,565a5c,ffffff,44
2977,Cottage Grove & 95th Street,41.72151969,-87.60321173,115,115,565a5c,ffffff,45
2978,95th Street & Cottage Grove,41.72214901,-87.60505341,115,115,565a5c,ffffff,46
2600,95th Street & Langley,41.72212421,-87.60679713,115,115,565a5c,ffffff,47
2979,95th Street & St. Lawrence,41.72207767,-87.60922056,115,115,565a5c,ffffff,48
2104,95th Street & Eberhart,41.722053,-87.611537,115,115,565a5c,ffffff,49
2105,95th Street & King Drive,41.721997,-87.613967,115,115,565a5c,ffffff,50
2980,95th Street & Forest,41.72195589,-87.61645985,115,115,565a5c,ffffff,51
2981,95th Street & Indiana,41.72191694,-87.61881939,115,115,565a5c,ffffff,52
2982,95th Street & Michigan,41.72187674,-87.62102781,115,115,565a5c,ffffff,53
18384,95th Red Line Station,41.720925,-87.62396,115,115,565a5c,ffffff,54
14180,Western & 119th Street Terminal,41.67754909,-87.67990266,119,119,565a5c,ffffff,1
15819,119th Street & Western,41.6771407,-87.68030669,119,119,565a5c,ffffff,2
12437,119th Street & Bell,41.67720645,-87.67705627,119,119,565a5c,ffffff,3
12440,119th Street & Vincennes,41.6772714,-87.67214378,119,119,565a5c,ffffff,4
17094,119th & Division,41.67733926,-87.66899253,119,119,565a5c,ffffff,5
12441,119th Street & Page,41.67739872,-87.66524231,119,119,565a5c,ffffff,6
12442,119th Street & Marshfield,41.67741681,-87.66266599,119,119,565a5c,ffffff,7
12443,119th Street & Justine,41.67749204,-87.66048782,119,119,565a5c,ffffff,8
12444,119th Street & Laflin,41.67751829,-87.65907441,119,119,565a5c,ffffff,9
12445,119th Street & Loomis,41.67754029,-87.65658841,119,119,565a5c,ffffff,10
12446,119th Street & Elizabeth,41.67759318,-87.65271415,119,119,565a5c,ffffff,11
12447,119th Street & Morgan,41.6776699,-87.64687981,119,119,565a5c,ffffff,12
12449,119th Street & Peoria,41.67770858,-87.64442308,119,119,565a5c,ffffff,13
12453,119th Street & Halsted,41.67774285,-87.64214226,119,119,565a5c,ffffff,14
12454,119th Street & Union,41.67778466,-87.63961646,119,119,565a5c,ffffff,15
12455,119th Street & Wallace,41.677811,-87.637201,119,119,565a5c,ffffff,16
12456,119th Street & Normal,41.677836,-87.634789,119,119,565a5c,ffffff,17
12457,119th Street & Stewart,41.6778639,-87.63239489,119,119,565a5c,ffffff,18
12458,119th Street & Princeton,41.67789034,-87.62998448,119,119,565a5c,ffffff,19
12459,119th Street & Wentworth,41.67791639,-87.62756892,119,119,565a5c,ffffff,20
12460,119th Street & Perry,41.67794172,-87.62524002,119,119,565a5c,ffffff,21
12461,119th Street & State,41.67796617,-87.6227765,119,119,565a5c,ffffff,22
7599,Michigan & 119th Street,41.67822749,-87.62044096,119,119,565a5c,ffffff,23
7600,Michigan & 118th Street,41.67980005,-87.62049041,119,119,565a5c,ffffff,24
7601,Michigan & 117th Street,41.68146215,-87.6205488,119,119,565a5c,ffffff,25
7602,Michigan & 116th Street,41.68246047,-87.62056363,119,119,565a5c,ffffff,26
7603,Michigan & Kensington,41.68385281,-87.6206188,119,119,565a5c,ffffff,27
7604,Michigan & 115th Street,41.68520125,-87.6207225,119,119,565a5c,ffffff,28
7605,Michigan & 114th Street,41.687125,-87.620814,119,119,565a5c,ffffff,29
15079,Michigan & 113th Street,41.68917118,-87.62093363,119,119,565a5c,ffffff,30
17232,Michigan & 112th Street,41.69103116,-87.62094794,119,119,565a5c,ffffff,31
14950,Michigan & 111th Street,41.69274676,-87.62097107,119,119,565a5c,ffffff,32
7609,Michigan & 110th Street,41.69467446,-87.62069596,119,119,565a5c,ffffff,33
15080,Michigan & 109th Street,41.69647817,-87.62074028,119,119,565a5c,ffffff,34
7611,Michigan & 108th Street,41.69800968,-87.62079536,119,119,565a5c,ffffff,35
7612,Michigan & 107th Street,41.69980337,-87.6208522,119,119,565a5c,ffffff,36
7613,10600 S Michigan,41.70167544,-87.62065628,119,119,565a5c,ffffff,37
7614,Michigan & 105th Street,41.70336914,-87.6205465,119,119,565a5c,ffffff,38
7615,Michigan & 104th Street,41.70527265,-87.62043576,119,119,565a5c,ffffff,39
7616,Michigan & 103rd Street,41.70748838,-87.62007609,119,119,565a5c,ffffff,40
7617,Michigan & 102nd Street,41.70898175,-87.61985695,119,119,565a5c,ffffff,41
7618,Michigan & 101st Street,41.7107368,-87.61980981,119,119,565a5c,ffffff,42
7619,Michigan & 100th Street,41.71258366,-87.62001096,119,119,565a5c,ffffff,43
7620,Michigan & 99th Street,41.71448952,-87.62025967,119,119,565a5c,ffffff,44
7621,Michigan & 98th Street,41.71628358,-87.62033295,119,119,565a5c,ffffff,45
7622,Michigan & 97th Street,41.71809,-87.620409,119,119,565a5c,ffffff,46
7623,Michigan & 96th Street,41.719888,-87.620446,119,119,565a5c,ffffff,47
2982,95th Street & Michigan,41.72187674,-87.62102781,119,119,565a5c,ffffff,48
14011,95th Red Line Station,41.722663,-87.624856,119,119,565a5c,ffffff,49
15278,Indiana & 15th Place,41.86125036,-87.6225413,12,12,565a5c,ffffff,1
12805,Indiana & 16th Street,41.86040604,-87.6225279,12,12,565a5c,ffffff,2
14760,Michigan & 16th Street,41.86050195,-87.62388008,12,12,565a5c,ffffff,3
18318,Michigan & 14th Street,41.86450771,-87.62395931,12,12,565a5c,ffffff,4
1579,Michigan & 13th Street,41.86598373,-87.6239989,12,12,565a5c,ffffff,5
17084,Roosevelt & Michigan,41.86759322,-87.62450326,12,12,565a5c,ffffff,6
16140,Roosevelt Orange/Red/Green Line Station,41.86755162,-87.62666395,12,12,565a5c,ffffff,7
16139,Roosevelt & State,41.86753563,-87.62782765,12,12,565a5c,ffffff,8
15377,Roosevelt & Clark,41.86748977,-87.63083778,12,12,565a5c,ffffff,9
17517,Roosevelt & Delano,41.86750234,-87.63287698,12,12,565a5c,ffffff,10
326,327 W Roosevelt,41.86741626,-87.6355436,12,12,565a5c,ffffff,11
327,Roosevelt & Canal,41.86740019,-87.63905542,12,12,565a5c,ffffff,12
18174,Roosevelt & Jefferson,41.867322,-87.64253291,12,12,565a5c,ffffff,13
17396,Roosevelt & Halsted,41.86725068,-87.64745425,12,12,565a5c,ffffff,14
332,900 W Roosevelt,41.86721921,-87.64943144,12,12,565a5c,ffffff,15
333,Roosevelt & Morgan,41.86718872,-87.65089349,12,12,565a5c,ffffff,16
334,Roosevelt & Blue Island,41.8671672,-87.65307965,12,12,565a5c,ffffff,17
335,Roosevelt & May,41.86711341,-87.65499111,12,12,565a5c,ffffff,18
336,Roosevelt & Racine,41.86710533,-87.65651505,12,12,565a5c,ffffff,19
337,Roosevelt & Throop,41.86706609,-87.65903469,12,12,565a5c,ffffff,20
16104,Roosevelt & Loomis,41.86701749,-87.66188434,12,12,565a5c,ffffff,21
18395,Roosevelt & Ashland,41.86696079,-87.66672245,12,12,565a5c,ffffff,22
341,Roosevelt & Paulina,41.86702876,-87.66879274,12,12,565a5c,ffffff,23
342,Roosevelt & Wood,41.86700369,-87.67112322,12,12,565a5c,ffffff,24
343,Roosevelt & Wolcott,41.86695936,-87.67353822,12,12,565a5c,ffffff,25
344,Roosevelt & Damen,41.86693534,-87.67595278,12,12,565a5c,ffffff,26
14205,Taylor & Damen,41.86916072,-87.67683282,12,12,565a5c,ffffff,27
15415,V.A. Medical Center,41.86912414,-87.67924837,12,12,565a5c,ffffff,28
14206,Ogden & Taylor,41.86867479,-87.68146889,12,12,565a5c,ffffff,29
14207,Ogden & Roosevelt,41.86702812,-87.68344147,12,12,565a5c,ffffff,30
348,Roosevelt & Western,41.86671595,-87.68585449,12,12,565a5c,ffffff,31
349,Roosevelt & Campbell,41.86668409,-87.68877572,12,12,565a5c,ffffff,32
350,Roosevelt & Talman,41.86659701,-87.692167,12,12,565a5c,ffffff,33
351,Roosevelt & Washtenaw,41.86663483,-87.6933021,12,12,565a5c,ffffff,34
14981,Roosevelt & California,41.86660599,-87.69620946,12,12,565a5c,ffffff,35
353,Roosevelt & Francisco,41.86656508,-87.69825112,12,12,565a5c,ffffff,36
354,Roosevelt & Sacramento,41.86653975,-87.70064598,12,12,565a5c,ffffff,37
355,Roosevelt & Albany,41.86651191,-87.70314478,12,12,565a5c,ffffff,38
356,Roosevelt & Kedzie,41.86650058,-87.70540269,12,12,565a5c,ffffff,39
6579,Canal & Randolph/Washington,41.883542,-87.639864,120,120,b71234,ffffff,1
14567,S. Water (Lower) & Michigan,41.88673704,-87.6252955,120,120,b71234,ffffff,2
6583,Michigan (Lower) & E. Wacker,41.8880562,-87.62445143,120,120,b71234,ffffff,3
6584,Michigan (Lower) & Hubbard,41.89018553,-87.62396733,120,120,b71234,ffffff,4
6585,Michigan (Lower) & Illinois,41.8908369,-87.62399347,120,120,b71234,ffffff,5
17071,Illinois (Lower) & St. Clair,41.89094839,-87.62212368,120,120,b71234,ffffff,6
593,Fairbanks & Erie,41.894081,-87.620224,120,120,b71234,ffffff,7
595,Fairbanks & Superior,41.895689,-87.620285,120,120,b71234,ffffff,8
596,Fairbanks & Chicago,41.896645,-87.620311,120,120,b71234,ffffff,9
67,Jackson & Canal,41.877997,-87.639776,121,121,b71234,ffffff,1
14567,S. Water (Lower) & Michigan,41.88673704,-87.6252955,121,121,b71234,ffffff,2
6583,Michigan (Lower) & E. Wacker,41.8880562,-87.62445143,121,121,b71234,ffffff,3
6584,Michigan (Lower) & Hubbard,41.89018553,-87.62396733,121,121,b71234,ffffff,4
6585,Michigan (Lower) & Illinois,41.8908369,-87.62399347,121,121,b71234,ffffff,5
17071,Illinois (Lower) & St. Clair,41.89094839,-87.62212368,121,121,b71234,ffffff,6
593,Fairbanks & Erie,41.894081,-87.620224,121,121,b71234,ffffff,7
595,Fairbanks & Superior,41.895689,-87.620285,121,121,b71234,ffffff,8
596,Fairbanks & Chicago,41.896645,-87.620311,121,121,b71234,ffffff,9
14161,Navy Pier Terminal,41.89229813,-87.60999566,124,124,565a5c,ffffff,1
759,Grand & Streeter,41.892011,-87.612125,124,124,565a5c,ffffff,2
760,Grand & Peshtigo,41.891949,-87.615391,124,124,565a5c,ffffff,3
589,Grand & McClurg,41.89191794,-87.61798436,124,124,565a5c,ffffff,4
5513,Columbus & Illinois,41.891156,-87.620364,124,124,565a5c,ffffff,5
5514,Columbus & North Water,41.88969,-87.620528,124,124,565a5c,ffffff,6
5515,Columbus (mid) & E. Wacker,41.887577,-87.620843,124,124,565a5c,ffffff,7
1106,Michigan & Washington,41.883414,-87.624588,124,124,565a5c,ffffff,8
450,Madison & Wabash,41.88214,-87.625973,124,124,565a5c,ffffff,9
18126,Madison & Dearborn/State,41.88205094,-87.62855887,124,124,565a5c,ffffff,10
18123,Madison & LaSalle,41.88201156,-87.63265219,124,124,565a5c,ffffff,11
18124,Madison & Franklin,41.8819998,-87.63563723,124,124,565a5c,ffffff,12
5006,Madison & Canal,41.88193682,-87.63902414,124,124,565a5c,ffffff,13
18125,Clinton & Madison,41.88173913,-87.64127987,124,124,565a5c,ffffff,14
18252,Union Station Transit Center,41.87784583,-87.63987892,124,124,565a5c,ffffff,15
13155,Desplaines & Harrison Terminal,41.87444284,-87.64434548,125,125,b71234,ffffff,1
17995,Harrison & Jefferson,41.87430669,-87.64212141,125,125,b71234,ffffff,2
14210,Canal & Harrison,41.87462748,-87.63950479,125,125,b71234,ffffff,3
6351,Canal & Van Buren,41.877,-87.639438,125,125,b71234,ffffff,4
5009,Canal & Adams,41.87919465,-87.63945989,125,125,b71234,ffffff,5
5027,Canal & Madison,41.882104,-87.639602,125,125,b71234,ffffff,6
5028,Canal & Randolph,41.884336,-87.639707,125,125,b71234,ffffff,7
3946,Wacker (Upper) & Lake,41.88601,-87.636487,125,125,b71234,ffffff,8
4626,Orleans & Merchandise Mart,41.888552,-87.636751,125,125,b71234,ffffff,9
4627,Orleans & Hubbard,41.889821,-87.636893,125,125,b71234,ffffff,10
14762,Orleans & Grand,41.89174214,-87.63692902,125,125,b71234,ffffff,11
15109,Ohio & State,41.89240023,-87.62784062,125,125,b71234,ffffff,12
1124,Michigan & Ontario,41.893194,-87.624089,125,125,b71234,ffffff,13
1125,Michigan & Huron,41.894798,-87.624104,125,125,b71234,ffffff,14
1126,Michigan & Chicago,41.896535,-87.624133,125,125,b71234,ffffff,15
18224,Mies Van Der Rohe & Pearson,41.89748074,-87.62177876,125,125,b71234,ffffff,16
5019,Chestnut & Mies Van Der Rohe,41.89846025,-87.62267307,125,125,b71234,ffffff,17
74,Congress Plaza & Michigan,41.87485809,-87.62355113,126,126,565a5c,ffffff,1
4725,Ida B Wells Drive & Michigan,41.87584107,-87.62402409,126,126,565a5c,ffffff,2
75,Michigan & Van Buren,41.87669,-87.62416,126,126,565a5c,ffffff,3
77,Adams & Wabash,41.879575,-87.625884,126,126,565a5c,ffffff,4
4732,Adams & State,41.87950874,-87.6281053,126,126,565a5c,ffffff,5
17046,Adams & Clark,41.87947219,-87.6311045,126,126,565a5c,ffffff,6
80,Adams & Wells,41.879426,-87.634024,126,126,565a5c,ffffff,7
1108,Adams & S. Wacker,41.8794,-87.636542,126,126,565a5c,ffffff,8
12713,Adams & Canal,41.879358,-87.639401,126,126,565a5c,ffffff,9
6361,Clinton & Jackson,41.87814,-87.641151,126,126,565a5c,ffffff,10
86,Van Buren & Jefferson,41.876778,-87.642319,126,126,565a5c,ffffff,11
88,Van Buren & Halsted,41.876726,-87.647048,126,126,565a5c,ffffff,12
89,Van Buren & Peoria,41.876682,-87.649401,126,126,565a5c,ffffff,13
17629,Van Buren & Morgan,41.87664756,-87.65216675,126,126,565a5c,ffffff,14
92,Van Buren & Aberdeen,41.87661688,-87.6544072,126,126,565a5c,ffffff,15
93,Van Buren & Racine,41.87657583,-87.65680352,126,126,565a5c,ffffff,16
18315,Van Buren & Throop,41.87652759,-87.6596983,126,126,565a5c,ffffff,17
17041,Van Buren & Loomis,41.87649845,-87.66222178,126,126,565a5c,ffffff,18
96,Van Buren & Laflin,41.87644665,-87.66410017,126,126,565a5c,ffffff,19
97,Van Buren & Ashland,41.87640948,-87.66647087,126,126,565a5c,ffffff,20
17601,Van Buren & Paulina,41.87637263,-87.66949367,126,126,565a5c,ffffff,21
99,Van Buren & Ogden,41.87632903,-87.67187647,126,126,565a5c,ffffff,22
100,1900 W Van Buren,41.876242,-87.674057,126,126,565a5c,ffffff,23
101,Van Buren & Damen,41.87624,-87.676072,126,126,565a5c,ffffff,24
4717,Jackson & Damen,41.87755266,-87.6768354,126,126,565a5c,ffffff,25
4718,Jackson & Hoyne,41.87754398,-87.67882217,126,126,565a5c,ffffff,26
16078,Jackson & Leavitt,41.87767255,-87.68168,126,126,565a5c,ffffff,27
16079,Jackson & Oakley,41.87763809,-87.6841316,126,126,565a5c,ffffff,28
15860,Jackson & Western,41.87761046,-87.68662143,126,126,565a5c,ffffff,29
4723,Jackson & Campbell,41.87759071,-87.68868467,126,126,565a5c,ffffff,30
118,Jackson & Rockwell,41.87755894,-87.69097077,126,126,565a5c,ffffff,31
119,Jackson & Washtenaw,41.87752503,-87.69403232,126,126,565a5c,ffffff,32
120,Jackson & California,41.87749585,-87.69648347,126,126,565a5c,ffffff,33
18117,Jackson & Francisco,41.87747899,-87.69841231,126,126,565a5c,ffffff,34
122,Jackson & Sacramento,41.87744329,-87.70133446,126,126,565a5c,ffffff,35
123,Jackson & Albany,41.87740982,-87.70378269,126,126,565a5c,ffffff,36
124,Jackson & Kedzie,41.87739519,-87.70627812,126,126,565a5c,ffffff,37
18119,Jackson & Spaulding,41.87736937,-87.70825806,126,126,565a5c,ffffff,38
126,Jackson & Homan,41.87735315,-87.71111733,126,126,565a5c,ffffff,39
127,Jackson & St. Louis,41.87730566,-87.71365567,126,126,565a5c,ffffff,40
128,Central Park & Jackson,41.87701673,-87.7158695,126,126,565a5c,ffffff,41
15138,Congress & Central Park,41.87454844,-87.71579679,126,126,565a5c,ffffff,42
233,3700 W Congress,41.87452996,-87.71790509,126,126,565a5c,ffffff,43
234,Congress & Hamlin/Independence,41.87450949,-87.71961417,126,126,565a5c,ffffff,44
129,Jackson & Hamlin,41.8772105,-87.72104802,126,126,565a5c,ffffff,45
130,Jackson & Springfield,41.8771684,-87.72332492,126,126,565a5c,ffffff,46
131,Jackson & Pulaski,41.87713666,-87.72579473,126,126,565a5c,ffffff,47
132,Jackson & Karlov,41.87710765,-87.72819551,126,126,565a5c,ffffff,48
133,Jackson & Keeler,41.87707727,-87.73064873,126,126,565a5c,ffffff,49
134,Jackson & Kildare,41.8770945,-87.73310614,126,126,565a5c,ffffff,50
135,Jackson & Kostner,41.87701751,-87.73555571,126,126,565a5c,ffffff,51
136,Jackson & Kilbourn,41.87698719,-87.737991,126,126,565a5c,ffffff,52
138,Jackson & Kenton,41.87696546,-87.74069588,126,126,565a5c,ffffff,53
139,Jackson & Kilpatrick,41.87692666,-87.74280741,126,126,565a5c,ffffff,54
140,Jackson & Cicero,41.87685893,-87.74541898,126,126,565a5c,ffffff,55
141,4900 W Jackson,41.87682102,-87.74713903,126,126,565a5c,ffffff,56
142,Jackson & Lavergne,41.87680393,-87.74934028,126,126,565a5c,ffffff,57
143,5056 W Jackson,41.87675729,-87.75161217,126,126,565a5c,ffffff,58
144,Jackson & Leamington,41.87672858,-87.75353528,126,126,565a5c,ffffff,59
145,Jackson & Laramie,41.87673038,-87.75523999,126,126,565a5c,ffffff,60
146,Jackson & Lockwood,41.8766768,-87.75782934,126,126,565a5c,ffffff,61
147,5400 W Jackson,41.87664899,-87.75967824,126,126,565a5c,ffffff,62
148,Jackson & Lotus,41.87661212,-87.76154549,126,126,565a5c,ffffff,63
149,Jackson & Central,41.87660365,-87.76459825,126,126,565a5c,ffffff,64
150,5700 W Jackson,41.87716981,-87.76801292,126,126,565a5c,ffffff,65
151,Jackson & Menard,41.8771099,-87.76974453,126,126,565a5c,ffffff,66
152,Jackson & Mayfield,41.87723809,-87.7713027,126,126,565a5c,ffffff,67
1,Jackson & Austin Terminal,41.87632184,-87.77410482,126,126,565a5c,ffffff,68
1072,Sheridan & Briar,41.93857023,-87.63956872,134,134,b71234,ffffff,1
1073,Sheridan & Barry,41.93756538,-87.63953499,134,134,b71234,ffffff,2
1074,Sheridan & Wellington,41.9364246,-87.63950084,134,134,b71234,ffffff,3
1075,Sheridan & Oakdale,41.93538253,-87.63946533,134,134,b71234,ffffff,4
1076,Sheridan & Surf,41.93418628,-87.63942598,134,134,b71234,ffffff,5
1077,Sheridan & Diversey,41.93301547,-87.63939763,134,134,b71234,ffffff,6
1078,Stockton & Wrightwood,41.93130399,-87.63903079,134,134,b71234,ffffff,7
1079,Stockton & Roslyn,41.92829248,-87.63900173,134,134,b71234,ffffff,8
1080,Stockton & Arlington,41.92648805,-87.63777472,134,134,b71234,ffffff,9
14222,Wacker (Upper) & Columbus,41.88809011,-87.62084415,134,134,b71234,ffffff,10
14224,Wacker (Upper) & Stetson,41.88832688,-87.62285462,134,134,b71234,ffffff,11
1421,Wacker (Upper) & Michigan,41.88836,-87.625055,134,134,b71234,ffffff,12
14225,Wacker & State,41.88702684,-87.62814441,134,134,b71234,ffffff,13
14058,LaSalle & Wacker/Lake,41.88638377,-87.63262579,134,134,b71234,ffffff,14
14059,LaSalle & Randolph/Washington,41.88401837,-87.63257161,134,134,b71234,ffffff,15
14060,LaSalle & Madison,41.88178988,-87.63246161,134,134,b71234,ffffff,16
4970,LaSalle & Adams,41.87950311,-87.6324292,134,134,b71234,ffffff,17
80,Adams & Wells,41.879426,-87.634024,134,134,b71234,ffffff,18
1108,Adams & S. Wacker,41.8794,-87.636542,134,134,b71234,ffffff,19
6711,Franklin & Jackson,41.87791526,-87.63510947,135,135,b71234,ffffff,1
14061,LaSalle & Quincy,41.87872446,-87.63216611,135,135,b71234,ffffff,2
4973,LaSalle & Madison,41.881838,-87.632265,135,135,b71234,ffffff,3
4975,LaSalle & Randolph,41.88430793,-87.63231919,135,135,b71234,ffffff,4
15904,LaSalle & Wacker/Lake,41.88630189,-87.63229959,135,135,b71234,ffffff,5
14223,Wacker (Upper) & State,41.88674638,-87.6276223,135,135,b71234,ffffff,6
18510,Wacker (Upper) & Michigan,41.88813243,-87.62402369,135,135,b71234,ffffff,7
3954,Wacker (Upper) & Columbus,41.887792,-87.620967,135,135,b71234,ffffff,8
1155,Sheridan & Belmont,41.94037175,-87.63947904,135,135,b71234,ffffff,9
1157,Lake Shore & Roscoe,41.94352962,-87.64047498,135,135,b71234,ffffff,10
17906,Lake Shore & Hawthorne,41.94491016,-87.64124772,135,135,b71234,ffffff,11
1159,Lake Shore & Stratford,41.94617767,-87.64195152,135,135,b71234,ffffff,12
1160,Lake Shore & Cornelia,41.94681669,-87.64230949,135,135,b71234,ffffff,13
1161,Lake Shore & Brompton,41.94779691,-87.64291887,135,135,b71234,ffffff,14
1162,Lake Shore & Addison,41.94882164,-87.64347358,135,135,b71234,ffffff,15
1163,Lake Shore & Waveland,41.95042884,-87.64449132,135,135,b71234,ffffff,16
4886,Lake Shore & Grace,41.95225758,-87.64492985,135,135,b71234,ffffff,17
4887,Lake Shore & W. Sheridan (3900 N),41.95303619,-87.64495879,135,135,b71234,ffffff,18
4928,Irving Park & Marine Drive,41.95469031,-87.64568443,135,135,b71234,ffffff,19
4929,Irving Park & Pine Grove,41.95464821,-87.6481418,135,135,b71234,ffffff,20
4930,Irving Park & Clarendon,41.9546182,-87.64951279,135,135,b71234,ffffff,21
4931,Clarendon & Bittersweet,41.95575192,-87.64964027,135,135,b71234,ffffff,22
4932,Clarendon & Belle Plaine,41.957343,-87.649703,135,135,b71234,ffffff,23
4933,Clarendon & Buena,41.958397,-87.649739,135,135,b71234,ffffff,24
4934,Clarendon & Junior Terrace,41.96026382,-87.6497942,135,135,b71234,ffffff,25
17713,Clarendon & Montrose,41.9622182,-87.64983535,135,135,b71234,ffffff,26
4936,Clarendon & Sunnyside,41.963664,-87.64989,135,135,b71234,ffffff,27
6711,Franklin & Jackson,41.87791526,-87.63510947,136,136,b71234,ffffff,1
14061,LaSalle & Quincy,41.87872446,-87.63216611,136,136,b71234,ffffff,2
4973,LaSalle & Madison,41.881838,-87.632265,136,136,b71234,ffffff,3
4975,LaSalle & Randolph,41.88430793,-87.63231919,136,136,b71234,ffffff,4
15904,LaSalle & Wacker/Lake,41.88630189,-87.63229959,136,136,b71234,ffffff,5
14223,Wacker (Upper) & State,41.88674638,-87.6276223,136,136,b71234,ffffff,6
18510,Wacker (Upper) & Michigan,41.88813243,-87.62402369,136,136,b71234,ffffff,7
3954,Wacker (Upper) & Columbus,41.887792,-87.620967,136,136,b71234,ffffff,8
4888,Marine Drive & Irving Park,41.95495093,-87.64521079,136,136,b71234,ffffff,9
4889,Marine Drive & Bittersweet,41.95579198,-87.64545956,136,136,b71234,ffffff,10
4890,Marine Drive & Gordon Terrace,41.95782178,-87.64621893,136,136,b71234,ffffff,11
4891,Marine Drive & Buena,41.95853042,-87.64639,136,136,b71234,ffffff,12
15887,4251 N Marine Drive,41.96012448,-87.64669198,136,136,b71234,ffffff,13
17766,Marine Drive & Montrose,41.96216207,-87.64682975,136,136,b71234,ffffff,14
3773,Marine Drive & Wilson,41.96566508,-87.64858021,136,136,b71234,ffffff,15
3774,4646 N Marine Drive,41.966488,-87.648792,136,136,b71234,ffffff,16
3775,Marine Drive & Leland,41.96734713,-87.6490521,136,136,b71234,ffffff,17
14471,Marine Drive & Lawrence,41.96934985,-87.64960295,136,136,b71234,ffffff,18
4896,Marine Drive & Gunnison,41.97011418,-87.64982269,136,136,b71234,ffffff,19
4897,Marine Drive & Ainslie,41.97165451,-87.65033513,136,136,b71234,ffffff,20
4898,Marine Drive & Margate,41.97247528,-87.65060869,136,136,b71234,ffffff,21
4899,Marine Drive & Argyle,41.97336632,-87.65092284,136,136,b71234,ffffff,22
4900,Marine Drive & Winona,41.97525835,-87.6516376,136,136,b71234,ffffff,23
4847,Foster & Marine Drive,41.97649973,-87.65257447,136,136,b71234,ffffff,24
1184,Sheridan & Foster,41.97662,-87.654896,136,136,b71234,ffffff,25
1185,Sheridan & Berwyn,41.97820206,-87.65493189,136,136,b71234,ffffff,26
1186,Sheridan & Balmoral,41.980103,-87.655019,136,136,b71234,ffffff,27
1187,Sheridan & Catalpa,41.981793,-87.655074,136,136,b71234,ffffff,28
1188,Sheridan & Bryn Mawr,41.983594,-87.655113,136,136,b71234,ffffff,29
1189,Sheridan & Hollywood,41.985434,-87.655171,136,136,b71234,ffffff,30
1190,Sheridan & Ardmore,41.98752,-87.655223,136,136,b71234,ffffff,31
1191,Sheridan & Thorndale,41.990272,-87.655308,136,136,b71234,ffffff,32
1192,Sheridan & Glenlake,41.992523,-87.655378,136,136,b71234,ffffff,33
1198,Sheridan & Granville,41.994775,-87.655447,136,136,b71234,ffffff,34
1199,Sheridan & Rosemont,41.996592,-87.655503,136,136,b71234,ffffff,35
1200,Sheridan & Kenmore,41.99833161,-87.65693556,136,136,b71234,ffffff,36
1201,Sheridan & Winthrop,41.99827386,-87.65834886,136,136,b71234,ffffff,37
1029,Sheridan & Broadway/Devon,41.99813048,-87.6602255,136,136,b71234,ffffff,38
74,Congress Plaza & Michigan,41.87485809,-87.62355113,143,143,b71234,ffffff,1
4725,Ida B Wells Drive & Michigan,41.87584107,-87.62402409,143,143,b71234,ffffff,2
76,Michigan & Jackson,41.878135,-87.624193,143,143,b71234,ffffff,3
15241,Michigan & Monroe,41.88066452,-87.62418655,143,143,b71234,ffffff,4
2188,Michigan & Madison,41.882367,-87.624205,143,143,b71234,ffffff,5
1119,Michigan & Randolph,41.88468794,-87.62431755,143,143,b71234,ffffff,6
1120,Michigan & South Water,41.88669974,-87.624384,143,143,b71234,ffffff,7
1122,Michigan & Hubbard (Tribune Bldg.),41.890205,-87.623969,143,143,b71234,ffffff,8
1123,Michigan & Grand,41.891769,-87.624034,143,143,b71234,ffffff,9
1124,Michigan & Ontario,41.893194,-87.624089,143,143,b71234,ffffff,10
1125,Michigan & Huron,41.894798,-87.624104,143,143,b71234,ffffff,11
1127,Michigan & Chestnut,41.898069,-87.62396,143,143,b71234,ffffff,12
1128,Michigan & Delaware/Walton,41.899435,-87.624004,143,143,b71234,ffffff,13
1145,Stockton & Arlington,41.92663129,-87.63772817,143,143,b71234,ffffff,14
1146,Stockton & Roslyn,41.92829929,-87.63876726,143,143,b71234,ffffff,15
1147,Stockton & Wrightwood,41.93131955,-87.63888361,143,143,b71234,ffffff,16
1148,Sheridan & Diversey,41.93310869,-87.63917427,143,143,b71234,ffffff,17
1149,Sheridan & Surf,41.9344958,-87.63925986,143,143,b71234,ffffff,18
1150,Sheridan & Oakdale,41.935762,-87.639327,143,143,b71234,ffffff,19
1151,Sheridan & Wellington,41.936757,-87.639359,143,143,b71234,ffffff,20
1152,Sheridan & Barry,41.93788148,-87.6393989,143,143,b71234,ffffff,21
1153,Sheridan & Briar,41.93869424,-87.63942688,143,143,b71234,ffffff,22
1154,Sheridan & Belmont,41.94002509,-87.63950114,143,143,b71234,ffffff,23
4877,Solidarity Dr & Planetarium,41.866145,-87.607853,146,146,b71234,ffffff,1
4593,Solidarity Dr & Lynn White Drive,41.86651683,-87.60985753,146,146,b71234,ffffff,2
4595,Solidarity Drive & Aquarium,41.866455,-87.613604,146,146,b71234,ffffff,3
15426,Soldier Field & Field Museum,41.8651259,-87.61451579,146,146,b71234,ffffff,4
17084,Roosevelt & Michigan,41.86759322,-87.62450326,146,146,b71234,ffffff,5
16140,Roosevelt Orange/Red/Green Line Station,41.86755162,-87.62666395,146,146,b71234,ffffff,6
2354,State & 11th Street,41.86915967,-87.62732643,146,146,b71234,ffffff,7
2355,State & 9th Street,41.870405,-87.627368,146,146,b71234,ffffff,8
2357,State & Balbo,41.8729773,-87.62741716,146,146,b71234,ffffff,9
15052,State & Harrison/Ida B Wells Drive,41.87488286,-87.62745282,146,146,b71234,ffffff,10
1113,State & Van Buren,41.87684767,-87.62754254,146,146,b71234,ffffff,11
1115,State & Adams,41.87940141,-87.6276097,146,146,b71234,ffffff,12
1117,State & Madison,41.881925,-87.627675,146,146,b71234,ffffff,13
1437,State & Randolph,41.884351,-87.627791,146,146,b71234,ffffff,14
1438,State & Lake,41.885601,-87.627823,146,146,b71234,ffffff,15
1120,Michigan & South Water,41.88669974,-87.624384,146,146,b71234,ffffff,16
1122,Michigan & Hubbard (Tribune Bldg.),41.890205,-87.623969,146,146,b71234,ffffff,17
1123,Michigan & Grand,41.891769,-87.624034,146,146,b71234,ffffff,18
1124,Michigan & Ontario,41.893194,-87.624089,146,146,b71234,ffffff,19
1125,Michigan & Huron,41.894798,-87.624104,146,146,b71234,ffffff,20
1127,Michigan & Chestnut,41.898069,-87.62396,146,146,b71234,ffffff,21
1128,Michigan & Delaware/Walton,41.899435,-87.624004,146,146,b71234,ffffff,22
1155,Sheridan & Belmont,41.94037175,-87.63947904,146,146,b71234,ffffff,23
1157,Lake Shore & Roscoe,41.94352962,-87.64047498,146,146,b71234,ffffff,24
17906,Lake Shore & Hawthorne,41.94491016,-87.64124772,146,146,b71234,ffffff,25
1159,Lake Shore & Stratford,41.94617767,-87.64195152,146,146,b71234,ffffff,26
1160,Lake Shore & Cornelia,41.94681669,-87.64230949,146,146,b71234,ffffff,27
1161,Lake Shore & Brompton,41.94779691,-87.64291887,146,146,b71234,ffffff,28
1162,Lake Shore & Addison,41.94882164,-87.64347358,146,146,b71234,ffffff,29
1163,Lake Shore & Waveland,41.95042884,-87.64449132,146,146,b71234,ffffff,30
4886,Lake Shore & Grace,41.95225758,-87.64492985,146,146,b71234,ffffff,31
4887,Lake Shore & W. Sheridan (3900 N),41.95303619,-87.64495879,146,146,b71234,ffffff,32
4888,Marine Drive & Irving Park,41.95495093,-87.64521079,146,146,b71234,ffffff,33
4889,Marine Drive & Bittersweet,41.95579198,-87.64545956,146,146,b71234,ffffff,34
4890,Marine Drive & Gordon Terrace,41.95782178,-87.64621893,146,146,b71234,ffffff,35
4891,Marine Drive & Buena,41.95853042,-87.64639,146,146,b71234,ffffff,36
15887,4251 N Marine Drive,41.96012448,-87.64669198,146,146,b71234,ffffff,37
17766,Marine Drive & Montrose,41.96216207,-87.64682975,146,146,b71234,ffffff,38
3773,Marine Drive & Wilson,41.96566508,-87.64858021,146,146,b71234,ffffff,39
3774,4646 N Marine Drive,41.966488,-87.648792,146,146,b71234,ffffff,40
3775,Marine Drive & Leland,41.96734713,-87.6490521,146,146,b71234,ffffff,41
14471,Marine Drive & Lawrence,41.96934985,-87.64960295,146,146,b71234,ffffff,42
4896,Marine Drive & Gunnison,41.97011418,-87.64982269,146,146,b71234,ffffff,43
4897,Marine Drive & Ainslie,41.97165451,-87.65033513,146,146,b71234,ffffff,44
4898,Marine Drive & Margate,41.97247528,-87.65060869,146,146,b71234,ffffff,45
4899,Marine Drive & Argyle,41.97336632,-87.65092284,146,146,b71234,ffffff,46
4900,Marine Drive & Winona,41.97525835,-87.6516376,146,146,b71234,ffffff,47
4847,Foster & Marine Drive,41.97649973,-87.65257447,146,146,b71234,ffffff,48
4901,Foster & Sheridan,41.97645849,-87.65534281,146,146,b71234,ffffff,49
4797,Foster & Broadway,41.97639787,-87.65962002,146,146,b71234,ffffff,50
14668,Berwyn & Broadway,41.97809323,-87.6593041,146,146,b71234,ffffff,51
1029,Sheridan & Broadway/Devon,41.99813048,-87.6602255,147,147,b71234,ffffff,1
1030,Sheridan & Winthrop,41.99812068,-87.65844625,147,147,b71234,ffffff,2
1031,Sheridan & Kenmore,41.99816799,-87.65688031,147,147,b71234,ffffff,3
1032,Sheridan & Rosemont,41.996236,-87.655654,147,147,b71234,ffffff,4
1033,Sheridan & Granville,41.994419,-87.655598,147,147,b71234,ffffff,5
1034,Sheridan & Glenlake,41.992167,-87.655528,147,147,b71234,ffffff,6
1035,Sheridan & Thorndale,41.989916,-87.655459,147,147,b71234,ffffff,7
1036,Sheridan & Ardmore,41.9874587,-87.65537893,147,147,b71234,ffffff,8
1037,Sheridan & Hollywood,41.985339,-87.655319,147,147,b71234,ffffff,9
1038,Sheridan & Bryn Mawr,41.983481,-87.655246,147,147,b71234,ffffff,10
1039,Sheridan & Catalpa,41.981684,-87.655222,147,147,b71234,ffffff,11
1040,Sheridan & Balmoral,41.97978245,-87.65515521,147,147,b71234,ffffff,12
1041,Sheridan & Berwyn,41.97801194,-87.65512909,147,147,b71234,ffffff,13
4845,Foster & Sheridan,41.976335,-87.654755,147,147,b71234,ffffff,14
4846,Foster & Marine Drive,41.97637199,-87.65225389,147,147,b71234,ffffff,15
1097,Michigan & Delaware,41.899345,-87.624246,147,147,b71234,ffffff,16
1098,Michigan & Pearson,41.897731,-87.624234,147,147,b71234,ffffff,17
14488,Michigan & Superior,41.89582302,-87.62442248,147,147,b71234,ffffff,18
1100,Michigan & Erie,41.894283,-87.624364,147,147,b71234,ffffff,19
1101,Michigan & Ohio,41.892691,-87.624328,147,147,b71234,ffffff,20
1102,Michigan & Illinois,41.89103227,-87.6242934,147,147,b71234,ffffff,21
1103,Michigan & Hubbard (Wrigley Bldg.),41.889894,-87.624244,147,147,b71234,ffffff,22
1104,Michigan & South Water,41.88690443,-87.6246806,147,147,b71234,ffffff,23
1105,Michigan & Lake/Randolph,41.885104,-87.624615,147,147,b71234,ffffff,24
1106,Michigan & Washington,41.883414,-87.624588,147,147,b71234,ffffff,25
18396,Michigan & Monroe,41.88062493,-87.62451644,147,147,b71234,ffffff,26
1110,Michigan & Jackson,41.878429,-87.624446,147,147,b71234,ffffff,27
73,Michigan & Van Buren/Ida B. Wells,41.876271,-87.624396,147,147,b71234,ffffff,28
74,Congress Plaza & Michigan,41.87485809,-87.62355113,147,147,b71234,ffffff,29
15052,State & Harrison/Ida B Wells Drive,41.87488286,-87.62745282,148,148,b71234,ffffff,1
1113,State & Van Buren,41.87684767,-87.62754254,148,148,b71234,ffffff,2
1115,State & Adams,41.87940141,-87.6276097,148,148,b71234,ffffff,3
1117,State & Madison,41.881925,-87.627675,148,148,b71234,ffffff,4
1437,State & Randolph,41.884351,-87.627791,148,148,b71234,ffffff,5
1438,State & Lake,41.885601,-87.627823,148,148,b71234,ffffff,6
1120,Michigan & South Water,41.88669974,-87.624384,148,148,b71234,ffffff,7
1122,Michigan & Hubbard (Tribune Bldg.),41.890205,-87.623969,148,148,b71234,ffffff,8
1123,Michigan & Grand,41.891769,-87.624034,148,148,b71234,ffffff,9
1124,Michigan & Ontario,41.893194,-87.624089,148,148,b71234,ffffff,10
1125,Michigan & Huron,41.894798,-87.624104,148,148,b71234,ffffff,11
1127,Michigan & Chestnut,41.898069,-87.62396,148,148,b71234,ffffff,12
1128,Michigan & Delaware/Walton,41.899435,-87.624004,148,148,b71234,ffffff,13
4928,Irving Park & Marine Drive,41.95469031,-87.64568443,148,148,b71234,ffffff,14
4929,Irving Park & Pine Grove,41.95464821,-87.6481418,148,148,b71234,ffffff,15
4930,Irving Park & Clarendon,41.9546182,-87.64951279,148,148,b71234,ffffff,16
4931,Clarendon & Bittersweet,41.95575192,-87.64964027,148,148,b71234,ffffff,17
4932,Clarendon & Belle Plaine,41.957343,-87.649703,148,148,b71234,ffffff,18
4933,Clarendon & Buena,41.958397,-87.649739,148,148,b71234,ffffff,19
4934,Clarendon & Junior Terrace,41.96026382,-87.6497942,148,148,b71234,ffffff,20
17713,Clarendon & Montrose,41.9622182,-87.64983535,148,148,b71234,ffffff,21
4936,Clarendon & Sunnyside,41.963664,-87.64989,148,148,b71234,ffffff,22
14469,Clarendon & Wilson,41.96572426,-87.64995403,148,148,b71234,ffffff,23
14470,Clarendon & Leland,41.96727947,-87.6499926,148,148,b71234,ffffff,24
14471,Marine Drive & Lawrence,41.96934985,-87.64960295,148,148,b71234,ffffff,25
4896,Marine Drive & Gunnison,41.97011418,-87.64982269,148,148,b71234,ffffff,26
4897,Marine Drive & Ainslie,41.97165451,-87.65033513,148,148,b71234,ffffff,27
4898,Marine Drive & Margate,41.97247528,-87.65060869,148,148,b71234,ffffff,28
4899,Marine Drive & Argyle,41.97336632,-87.65092284,148,148,b71234,ffffff,29
4900,Marine Drive & Winona,41.97525835,-87.6516376,148,148,b71234,ffffff,30
14784,47th Red Line Station,41.80921867,-87.63218185,15,15,565a5c,ffffff,1
6516,Wells & 47th Street,41.808787,-87.632668,15,15,565a5c,ffffff,2
6517,Wells & 48th Place,41.8062,-87.6326,15,15,565a5c,ffffff,3
6519,Wells & 50th Street,41.803867,-87.632365,15,15,565a5c,ffffff,4
17898,51st Street & Wentworth,41.80172201,-87.63035328,15,15,565a5c,ffffff,5
9185,51st Street & Federal,41.80190347,-87.62784289,15,15,565a5c,ffffff,6
9186,51st Street & State,41.80187226,-87.6261143,15,15,565a5c,ffffff,7
9187,51st Street & Wabash,41.8019392,-87.62429683,15,15,565a5c,ffffff,8
1627,51st Street & Michigan,41.80196418,-87.62253139,15,15,565a5c,ffffff,9
1628,51st Street & Indiana,41.80196438,-87.62115448,15,15,565a5c,ffffff,10
1629,51st Green Line Station,41.80194211,-87.61856199,15,15,565a5c,ffffff,11
1631,51st Street & King Drive,41.80203876,-87.61574132,15,15,565a5c,ffffff,12
1632,51st Street & Forrestville,41.802073,-87.612518,15,15,565a5c,ffffff,13
1633,51st Street & St. Lawrence,41.802108,-87.611445,15,15,565a5c,ffffff,14
1634,51st Street & Champlain,41.80214357,-87.61000786,15,15,565a5c,ffffff,15
1635,51st Street & Evans,41.802158,-87.607908,15,15,565a5c,ffffff,16
1636,51st Street & Cottage Grove,41.80219055,-87.60657938,15,15,565a5c,ffffff,17
1637,51st Street & Drexel Square,41.80222343,-87.60437945,15,15,565a5c,ffffff,18
1638,E Hyde Park & Drexel,41.80223132,-87.60354986,15,15,565a5c,ffffff,19
1639,E Hyde Park & Ellis,41.80226246,-87.60109479,15,15,565a5c,ffffff,20
1642,E Hyde Park & Woodlawn,41.80231351,-87.59644885,15,15,565a5c,ffffff,21
1643,E Hyde Park & Kimbark,41.80233903,-87.5948762,15,15,565a5c,ffffff,22
1644,E Hyde Park & Kenwood,41.80235703,-87.5932392,15,15,565a5c,ffffff,23
1645,E Hyde Park & Dorchester,41.80236778,-87.59163448,15,15,565a5c,ffffff,24
1646,E Hyde Park & Blackstone,41.80238686,-87.59016592,15,15,565a5c,ffffff,25
1647,E Hyde Park & Lake Park,41.802413,-87.588083,15,15,565a5c,ffffff,26
7176,Lake Park & 52nd Street,41.80112809,-87.58763944,15,15,565a5c,ffffff,27
17646,Lake Park & 53rd Street,41.79926097,-87.58740257,15,15,565a5c,ffffff,28
7178,Lake Park & 54th Street,41.79818313,-87.58736492,15,15,565a5c,ffffff,29
7179,Lake Park & 55th Street,41.79532477,-87.58762984,15,15,565a5c,ffffff,30
7180,Lake Park & 56th Street,41.79347287,-87.58803993,15,15,565a5c,ffffff,31
7181,Stony Island & 56th Street,41.79307382,-87.58673928,15,15,565a5c,ffffff,32
1656,Stony Island & 57th Street,41.791215,-87.586775,15,15,565a5c,ffffff,33
1658,Stony Island & 59th Street,41.788058,-87.586715,15,15,565a5c,ffffff,34
1659,Stony Island & 60th Street,41.78583775,-87.58667648,15,15,565a5c,ffffff,35
1660,Stony Island & 61st Street,41.78390377,-87.58663386,15,15,565a5c,ffffff,36
1661,Stony Island & 62nd Street,41.78279019,-87.58660825,15,15,565a5c,ffffff,37
5201,Stony Island & 63rd Street,41.78040204,-87.58656124,15,15,565a5c,ffffff,38
5202,Stony Island & 64th Street,41.77889735,-87.58651732,15,15,565a5c,ffffff,39
5203,Stony Island & 65th Street,41.77707497,-87.58646977,15,15,565a5c,ffffff,40
5205,67th Street & Cornell,41.77328952,-87.58517409,15,15,565a5c,ffffff,41
5206,67th Street & East End,41.77330384,-87.58397448,15,15,565a5c,ffffff,42
5207,67th Street & Cregier,41.7733349,-87.58151177,15,15,565a5c,ffffff,43
5208,67th Street & Bennett,41.773365,-87.57916,15,15,565a5c,ffffff,44
5209,Jeffery & 67th Street,41.77315424,-87.57657823,15,15,565a5c,ffffff,45
5210,Jeffery & 68th Street,41.77150927,-87.57655601,15,15,565a5c,ffffff,46
5211,Jeffery & 69th Street,41.76972981,-87.5764355,15,15,565a5c,ffffff,47
5212,Jeffery & 70th Street,41.76789782,-87.5763955,15,15,565a5c,ffffff,48
17564,Jeffery & 71st Street,41.7663365,-87.5763827,15,15,565a5c,ffffff,49
5214,Jeffery & 72nd Street,41.76424541,-87.57641527,15,15,565a5c,ffffff,50
5215,Jeffery & 73rd Street,41.76244168,-87.5762856,15,15,565a5c,ffffff,51
5216,Jeffery & 74th Street,41.76060468,-87.5762306,15,15,565a5c,ffffff,52
5217,Jeffery & 75th Street,41.75862707,-87.57622155,15,15,565a5c,ffffff,53
17114,Jeffery & 76th Street,41.75687821,-87.57617428,15,15,565a5c,ffffff,54
5219,Jeffery & 77th Street,41.75503,-87.576117,15,15,565a5c,ffffff,55
5220,Jeffery & 78th Street,41.753217,-87.576067,15,15,565a5c,ffffff,56
5221,Jeffery & 79th Street,41.75146999,-87.57607016,15,15,565a5c,ffffff,57
5222,Jeffery & 80th Street,41.74969198,-87.5759888,15,15,565a5c,ffffff,58
5223,Jeffery & 81st Street,41.74783596,-87.5759512,15,15,565a5c,ffffff,59
5224,Jeffery & 82nd Street,41.74602898,-87.5759418,15,15,565a5c,ffffff,60
17899,Jeffery & 83rd Street/South Chicago,41.74516709,-87.57606794,15,15,565a5c,ffffff,61
5226,Jeffery & Anthony,41.74225694,-87.575902,15,15,565a5c,ffffff,62
5227,Jeffery & 85th Street,41.74061396,-87.5758378,15,15,565a5c,ffffff,63
5228,Jeffery & 86th Street,41.73882696,-87.5758028,15,15,565a5c,ffffff,64
5229,Jeffery & 87th Street,41.73687335,-87.57580477,15,15,565a5c,ffffff,65
5230,Jeffery & 88th Street,41.73515852,-87.57578352,15,15,565a5c,ffffff,66
5231,Jeffery & 89th Street,41.7333183,-87.57572059,15,15,565a5c,ffffff,67
5232,Jeffery & 90th Street,41.73150801,-87.57562967,15,15,565a5c,ffffff,68
5233,Jeffery & 91st Street,41.72967279,-87.57559553,15,15,565a5c,ffffff,69
5234,Jeffery & 92nd Street,41.72782086,-87.57553976,15,15,565a5c,ffffff,70
5235,Jeffery & 93rd Street,41.72598361,-87.5755147,15,15,565a5c,ffffff,71
5236,Jeffery & 95th Street,41.72226336,-87.57542115,15,15,565a5c,ffffff,72
5237,Jeffery & 96th Street,41.72056972,-87.57539608,15,15,565a5c,ffffff,73
5238,Jeffery & 97th Street,41.71871272,-87.57536351,15,15,565a5c,ffffff,74
5239,Jeffery & 98th Street,41.71704504,-87.57527517,15,15,565a5c,ffffff,75
5240,Van Vlissingen & 99th Street,41.71522029,-87.5741091,15,15,565a5c,ffffff,76
5241,100th Street & Clyde,41.71337343,-87.5715264,15,15,565a5c,ffffff,77
17706,100th Street & Paxton,41.71339537,-87.56963306,15,15,565a5c,ffffff,78
5244,100th Street & Luella,41.71343012,-87.56809277,15,15,565a5c,ffffff,79
5245,100th Street & Crandon,41.71344512,-87.56688277,15,15,565a5c,ffffff,80
5246,100th Street & Yates,41.71346659,-87.56470554,15,15,565a5c,ffffff,81
5321,Yates & 101st Street,41.71182901,-87.56459561,15,15,565a5c,ffffff,82
5322,Yates & 102nd Street,41.71006,-87.564558,15,15,565a5c,ffffff,83
5323,Yates & 103rd Street,41.70821781,-87.56457453,15,15,565a5c,ffffff,84
5257,103rd Street & Oglesby,41.70814816,-87.56561982,15,15,565a5c,ffffff,85
5258,103rd Street & Luella,41.70809373,-87.56803901,15,15,565a5c,ffffff,86
14155,103rd Street & Stony Island Garage Terminal,41.70853319,-87.58116932,15,15,565a5c,ffffff,87
1081,Stockton & Fullerton,41.925476,-87.636161,151,151,565a5c,ffffff,1
1082,Stockton & Webster,41.9221161,-87.63580597,151,151,565a5c,ffffff,2
1083,Stockton & Dickens,41.92030319,-87.63569104,151,151,565a5c,ffffff,3
1084,Stockton & Armitage,41.91879483,-87.63463317,151,151,565a5c,ffffff,4
1085,Stockton & Lincoln,41.915739,-87.633084,151,151,565a5c,ffffff,5
1086,Stockton & LaSalle,41.91361529,-87.63185059,151,151,565a5c,ffffff,6
1087,Lake Shore & North Ave,41.910497,-87.626317,151,151,565a5c,ffffff,7
1088,Lake Shore & Burton,41.909342,-87.62624,151,151,565a5c,ffffff,8
1089,Lake Shore & Schiller,41.907565,-87.625782,151,151,565a5c,ffffff,9
1090,Lake Shore & Banks,41.906595,-87.625542,151,151,565a5c,ffffff,10
1091,Lake Shore & Goethe,41.905654,-87.62531,151,151,565a5c,ffffff,11
1092,Lake Shore & Scott,41.904702,-87.625148,151,151,565a5c,ffffff,12
1093,Lake Shore & Division,41.903822,-87.625031,151,151,565a5c,ffffff,13
1094,Lake Shore & Elm,41.902974,-87.624752,151,151,565a5c,ffffff,14
1095,Lake Shore & Cedar,41.902225,-87.624513,151,151,565a5c,ffffff,15
1096,Lake Shore & Oak,41.900947,-87.624284,151,151,565a5c,ffffff,16
1097,Michigan & Delaware,41.899345,-87.624246,151,151,565a5c,ffffff,17
1098,Michigan & Pearson,41.897731,-87.624234,151,151,565a5c,ffffff,18
14488,Michigan & Superior,41.89582302,-87.62442248,151,151,565a5c,ffffff,19
1100,Michigan & Erie,41.894283,-87.624364,151,151,565a5c,ffffff,20
1101,Michigan & Ohio,41.892691,-87.624328,151,151,565a5c,ffffff,21
1102,Michigan & Illinois,41.89103227,-87.6242934,151,151,565a5c,ffffff,22
1103,Michigan & Hubbard (Wrigley Bldg.),41.889894,-87.624244,151,151,565a5c,ffffff,23
1104,Michigan & South Water,41.88690443,-87.6246806,151,151,565a5c,ffffff,24
1105,Michigan & Lake/Randolph,41.885104,-87.624615,151,151,565a5c,ffffff,25
1106,Michigan & Washington,41.883414,-87.624588,151,151,565a5c,ffffff,26
18396,Michigan & Monroe,41.88062493,-87.62451644,151,151,565a5c,ffffff,27
77,Adams & Wabash,41.879575,-87.625884,151,151,565a5c,ffffff,28
4732,Adams & State,41.87950874,-87.6281053,151,151,565a5c,ffffff,29
17046,Adams & Clark,41.87947219,-87.6311045,151,151,565a5c,ffffff,30
80,Adams & Wells,41.879426,-87.634024,151,151,565a5c,ffffff,31
1108,Adams & S. Wacker,41.8794,-87.636542,151,151,565a5c,ffffff,32
12713,Adams & Canal,41.879358,-87.639401,151,151,565a5c,ffffff,33
18251,Union Station Transit Center,41.8777454,-87.63986942,151,151,565a5c,ffffff,34
1163,Lake Shore & Waveland,41.95042884,-87.64449132,152,152,565a5c,ffffff,1
4886,Lake Shore & Grace,41.95225758,-87.64492985,152,152,565a5c,ffffff,2
1061,Lake Shore & Grace,41.95205777,-87.64511379,152,152,565a5c,ffffff,3
1062,Lake Shore & Waveland,41.95027763,-87.64454443,152,152,565a5c,ffffff,4
12549,Addison & Lake Shore,41.94860888,-87.64376299,152,152,565a5c,ffffff,5
12550,Addison & Pine Grove,41.94799725,-87.6454874,152,152,565a5c,ffffff,6
12551,Addison & Broadway,41.94745346,-87.64716741,152,152,565a5c,ffffff,7
12552,Addison & Halsted,41.94737081,-87.64931745,152,152,565a5c,ffffff,8
12553,Addison & Fremont,41.94734962,-87.65179573,152,152,565a5c,ffffff,9
12554,Addison Red Line Station,41.94729888,-87.65361096,152,152,565a5c,ffffff,10
12555,Addison & Clark,41.94727653,-87.65640515,152,152,565a5c,ffffff,11
12556,Addison & Racine,41.94721081,-87.65903679,152,152,565a5c,ffffff,12
12557,Addison & Lakewood,41.94716956,-87.66150477,152,152,565a5c,ffffff,13
12558,Addison & Southport,41.94712923,-87.66388352,152,152,565a5c,ffffff,14
12559,Addison & Greenview,41.9470931,-87.66633777,152,152,565a5c,ffffff,15
12560,Addison & Ashland,41.94706603,-87.66867322,152,152,565a5c,ffffff,16
12561,Addison & Paulina,41.94702236,-87.67120375,152,152,565a5c,ffffff,17
12562,Addison & Lincoln,41.94700475,-87.67349668,152,152,565a5c,ffffff,18
12563,Addison Brown Line Station,41.94695777,-87.67466746,152,152,565a5c,ffffff,19
12564,Addison & Wolcott,41.9469329,-87.67598661,152,152,565a5c,ffffff,20
12565,Addison & Damen,41.94692921,-87.67836701,152,152,565a5c,ffffff,21
12566,Addison & Hoyne,41.94686846,-87.68085903,152,152,565a5c,ffffff,22
12567,Addison & Leavitt,41.94686719,-87.68334031,152,152,565a5c,ffffff,23
12568,Addison & Oakley,41.94681107,-87.68570343,152,152,565a5c,ffffff,24
12569,Addison & Western,41.94679975,-87.68802662,152,152,565a5c,ffffff,25
12571,Addison & Campbell,41.94678437,-87.69101309,152,152,565a5c,ffffff,26
12573,Addison & Talman,41.946764,-87.69479282,152,152,565a5c,ffffff,27
12574,Addison & California,41.94674469,-87.69785558,152,152,565a5c,ffffff,28
12575,Addison & Francisco,41.94672904,-87.70038986,152,152,565a5c,ffffff,29
12576,Addison & Sacramento,41.94671522,-87.70282937,152,152,565a5c,ffffff,30
12577,Addison & Albany,41.94669488,-87.70520192,152,152,565a5c,ffffff,31
12578,Addison & Kedzie,41.94669988,-87.70769128,152,152,565a5c,ffffff,32
12579,Addison & Elston,41.94666952,-87.70908637,152,152,565a5c,ffffff,33
16173,Addison & Kimball,41.94663193,-87.71293579,152,152,565a5c,ffffff,34
12581,Addison & St. Louis,41.9465937,-87.71506138,152,152,565a5c,ffffff,35
12582,Addison Blue Line Station,41.9465882,-87.71841032,152,152,565a5c,ffffff,36
12583,Addison & Lawndale/Avondale,41.94652374,-87.72037696,152,152,565a5c,ffffff,37
12584,Addison & Hamlin,41.94651977,-87.72232738,152,152,565a5c,ffffff,38
12585,Addison & Springfield,41.94646708,-87.72482792,152,152,565a5c,ffffff,39
12586,Addison & Pulaski,41.94643977,-87.72726222,152,152,565a5c,ffffff,40
12587,Addison & Karlov,41.94640131,-87.72906837,152,152,565a5c,ffffff,41
12589,Addison & Keeler,41.94637704,-87.73214334,152,152,565a5c,ffffff,42
12590,Addison & Milwaukee,41.94630338,-87.73546129,152,152,565a5c,ffffff,43
12591,Addison & Kostner,41.9463062,-87.7371856,152,152,565a5c,ffffff,44
12592,Addison & Kilbourn,41.94627847,-87.73925469,152,152,565a5c,ffffff,45
12593,Addison & Kenton,41.94624875,-87.74199119,152,152,565a5c,ffffff,46
12594,Addison & Kilpatrick,41.94623548,-87.74441595,152,152,565a5c,ffffff,47
17147,Addison & Cicero,41.94618302,-87.74739674,152,152,565a5c,ffffff,48
12596,Addison & Lamon,41.94616812,-87.74941411,152,152,565a5c,ffffff,49
12597,Addison & Lavergne,41.94611879,-87.75185225,152,152,565a5c,ffffff,50
12598,Addison & Leclaire,41.94612064,-87.7543376,152,152,565a5c,ffffff,51
12599,Addison & Laramie,41.9460168,-87.75675319,152,152,565a5c,ffffff,52
12600,Addison & Lockwood,41.94605279,-87.75925189,152,152,565a5c,ffffff,53
17221,Addison & Long,41.94599215,-87.76225904,152,152,565a5c,ffffff,54
12602,Addison & Linder,41.94593366,-87.76422928,152,152,565a5c,ffffff,55
17831,Addison & Central,41.94593508,-87.7671953,152,152,565a5c,ffffff,56
12604,Addison & Major,41.94588564,-87.76903084,152,152,565a5c,ffffff,57
12605,Addison & Menard,41.94589257,-87.7715173,152,152,565a5c,ffffff,58
12606,Addison & Marmora,41.94581642,-87.77398492,152,152,565a5c,ffffff,59
17222,Addison & Austin,41.94582927,-87.77704625,152,152,565a5c,ffffff,60
12608,Addison & Meade,41.94585259,-87.77883028,152,152,565a5c,ffffff,61
12609,Addison & Melvina,41.94575459,-87.78122829,152,152,565a5c,ffffff,62
12610,Addison & Mobile,41.94575258,-87.7837273,152,152,565a5c,ffffff,63
17356,Addison & Narragansett,41.9457237,-87.78665859,152,152,565a5c,ffffff,64
12613,Addison & Neenah,41.94566022,-87.78995225,152,152,565a5c,ffffff,65
12615,Addison & Normandy,41.94557786,-87.79342378,152,152,565a5c,ffffff,66
12616,Addison & Oak Park,41.94551493,-87.7958919,152,152,565a5c,ffffff,67
12617,Addison & New England,41.94548491,-87.79829233,152,152,565a5c,ffffff,68
12618,Addison & Sayre,41.94545023,-87.80066192,152,152,565a5c,ffffff,69
12619,Addison & Nordica,41.94540153,-87.8032298,152,152,565a5c,ffffff,70
17357,Addison & Harlem,41.94532441,-87.80731537,152,152,565a5c,ffffff,71
12622,Addison & Octavia,41.94524859,-87.80932334,152,152,565a5c,ffffff,72
12623,Addison & Oketo,41.9452661,-87.81173804,152,152,565a5c,ffffff,73
12624,Addison & Olcott,41.94521888,-87.8141921,152,152,565a5c,ffffff,74
12625,Addison & Oriole,41.94523245,-87.81666859,152,152,565a5c,ffffff,75
12626,Addison & Overhill,41.94528658,-87.81946735,152,152,565a5c,ffffff,76
12627,Addison & Ozanam,41.94518556,-87.82165195,152,152,565a5c,ffffff,77
12628,Addison & Forest Preserve Avenue,41.94511567,-87.82511976,152,152,565a5c,ffffff,78
12629,Addison & Page,41.94506984,-87.82764332,152,152,565a5c,ffffff,79
12631,Addison & Paris,41.94503207,-87.83023936,152,152,565a5c,ffffff,80
12633,Addison & Pittsburgh,41.94496676,-87.8326718,152,152,565a5c,ffffff,81
12635,Addison & Pontiac,41.94485096,-87.83511447,152,152,565a5c,ffffff,82
12462,Addison & Cumberland Terminal,41.94443813,-87.83549313,152,152,565a5c,ffffff,83
1754,Morse & Glenwood (Red Line),42.0078605,-87.66563004,155,155,565a5c,ffffff,1
1755,Morse & Lakewood,42.00787643,-87.66379711,155,155,565a5c,ffffff,2
1756,Morse & Sheridan,42.00790263,-87.66177918,155,155,565a5c,ffffff,3
1023,Sheridan & Pratt,42.005364,-87.660998,155,155,565a5c,ffffff,4
1025,Sheridan & North Shore,42.00334158,-87.66091939,155,155,565a5c,ffffff,5
1027,Sheridan & Loyola (Red Line),42.001423,-87.66086,155,155,565a5c,ffffff,6
1028,Sheridan & Arthur,42.000247,-87.660808,155,155,565a5c,ffffff,7
1757,Devon & Sheridan,41.99825052,-87.66107459,155,155,565a5c,ffffff,8
1758,Devon & Lakewood,41.99823889,-87.66292168,155,155,565a5c,ffffff,9
1760,Devon & Glenwood,41.99820753,-87.6651926,155,155,565a5c,ffffff,10
1761,Devon & Greenview,41.99818662,-87.66775182,155,155,565a5c,ffffff,11
1762,Devon & Clark,41.99814792,-87.67037124,155,155,565a5c,ffffff,12
1764,Devon & Hermitage,41.99806,-87.67352,155,155,565a5c,ffffff,13
17197,Devon & Ridge,41.99803128,-87.6770615,155,155,565a5c,ffffff,14
18504,Devon & Damen,41.99795989,-87.68042374,155,155,565a5c,ffffff,15
1768,Devon & Hoyne,41.997897,-87.682489,155,155,565a5c,ffffff,16
17198,Devon & Leavitt,41.99788139,-87.68515817,155,155,565a5c,ffffff,17
1770,Devon & Oakley,41.99786769,-87.68735627,155,155,565a5c,ffffff,18
1771,Devon & Western,41.99780261,-87.68966993,155,155,565a5c,ffffff,19
1772,Devon & Campbell,41.9977727,-87.69220295,155,155,565a5c,ffffff,20
17406,Devon & Rockwell,41.99770078,-87.69498591,155,155,565a5c,ffffff,21
1774,Devon & Washtenaw,41.99765034,-87.69695483,155,155,565a5c,ffffff,22
17199,Devon & California,41.99761916,-87.69986091,155,155,565a5c,ffffff,23
1776,Devon & Francisco,41.99756466,-87.7019714,155,155,565a5c,ffffff,24
17200,Devon & Sacramento,41.99753451,-87.70469739,155,155,565a5c,ffffff,25
1778,Devon & Albany,41.99746293,-87.70680037,155,155,565a5c,ffffff,26
1779,Devon & Kedzie,41.99745861,-87.7091896,155,155,565a5c,ffffff,27
14153,Devon & Kedzie Terminal,41.99778854,-87.70952874,155,155,565a5c,ffffff,28
18250,Union Station Transit Center,41.87764708,-87.63985173,156,156,565a5c,ffffff,1
14461,Jackson & Chicago River,41.87800461,-87.63830625,156,156,565a5c,ffffff,2
68,Jackson & Franklin,41.878051,-87.635401,156,156,565a5c,ffffff,3
14061,LaSalle & Quincy,41.87872446,-87.63216611,156,156,565a5c,ffffff,4
4973,LaSalle & Madison,41.881838,-87.632265,156,156,565a5c,ffffff,5
4975,LaSalle & Randolph,41.88430793,-87.63231919,156,156,565a5c,ffffff,6
15904,LaSalle & Wacker/Lake,41.88630189,-87.63229959,156,156,565a5c,ffffff,7
4978,321 N LaSalle,41.888489,-87.632367,156,156,565a5c,ffffff,8
14528,LaSalle & Kinzie,41.88937563,-87.63236867,156,156,565a5c,ffffff,9
4979,LaSalle & Illinois,41.89069427,-87.63241243,156,156,565a5c,ffffff,10
4980,LaSalle & Grand,41.89179294,-87.63243922,156,156,565a5c,ffffff,11
14427,LaSalle & Erie,41.89392436,-87.63248895,156,156,565a5c,ffffff,12
4982,LaSalle & Huron,41.89484249,-87.63257579,156,156,565a5c,ffffff,13
4983,LaSalle & Chicago,41.89686502,-87.63259254,156,156,565a5c,ffffff,14
1443,LaSalle & Delaware,41.89929014,-87.63264171,156,156,565a5c,ffffff,15
1444,LaSalle & Oak,41.90062878,-87.63266363,156,156,565a5c,ffffff,16
1445,LaSalle & Maple,41.90202524,-87.63273764,156,156,565a5c,ffffff,17
1446,LaSalle & Division,41.90402022,-87.63278441,156,156,565a5c,ffffff,18
1447,LaSalle & Goethe,41.9059201,-87.6328527,156,156,565a5c,ffffff,19
1448,LaSalle & Schiller,41.90790287,-87.63291501,156,156,565a5c,ffffff,20
1449,LaSalle & Burton,41.9090037,-87.63296283,156,156,565a5c,ffffff,21
1450,LaSalle & North Ave,41.91103396,-87.63298378,156,156,565a5c,ffffff,22
4984,LaSalle & Eugenie,41.91282995,-87.63297262,156,156,565a5c,ffffff,23
1139,Stockton & LaSalle,41.913775,-87.631695,156,156,565a5c,ffffff,24
1140,Stockton & Lincoln,41.91605182,-87.633235,156,156,565a5c,ffffff,25
1141,Stockton & Armitage,41.91875007,-87.63439805,156,156,565a5c,ffffff,26
1142,Stockton & Dickens,41.92023618,-87.63546921,156,156,565a5c,ffffff,27
1143,Stockton & Webster,41.92192341,-87.63562557,156,156,565a5c,ffffff,28
1144,Stockton & Fullerton,41.9255619,-87.63586982,156,156,565a5c,ffffff,29
1145,Stockton & Arlington,41.92663129,-87.63772817,156,156,565a5c,ffffff,30
1146,Stockton & Roslyn,41.92829929,-87.63876726,156,156,565a5c,ffffff,31
1147,Stockton & Wrightwood,41.93131955,-87.63888361,156,156,565a5c,ffffff,32
1148,Sheridan & Diversey,41.93310869,-87.63917427,156,156,565a5c,ffffff,33
1149,Sheridan & Surf,41.9344958,-87.63925986,156,156,565a5c,ffffff,34
1150,Sheridan & Oakdale,41.935762,-87.639327,156,156,565a5c,ffffff,35
1151,Sheridan & Wellington,41.936757,-87.639359,156,156,565a5c,ffffff,36
1152,Sheridan & Barry,41.93788148,-87.6393989,156,156,565a5c,ffffff,37
1153,Sheridan & Briar,41.93869424,-87.63942688,156,156,565a5c,ffffff,38
4993,Belmont & Sheridan,41.94017668,-87.63990956,156,156,565a5c,ffffff,39
4994,Belmont & Pine Grove,41.94013461,-87.64187132,156,156,565a5c,ffffff,40
4996,Belmont & Broadway,41.94011203,-87.6442853,156,156,565a5c,ffffff,41
17901,Belmont & Orchard,41.94010575,-87.64701684,156,156,565a5c,ffffff,42
4998,Belmont & Halsted,41.94005028,-87.64912892,156,156,565a5c,ffffff,43
14150,Belmont & Halsted Terminal,41.94021911,-87.64876851,156,156,565a5c,ffffff,44
4999,Chestnut & Lake Shore Drive,41.89841542,-87.61838872,157,157,565a5c,ffffff,1
5000,Lake Shore & Chestnut/Pearson,41.898075,-87.617975,157,157,565a5c,ffffff,2
5001,Pearson & Dewitt,41.897683,-87.620054,157,157,565a5c,ffffff,3
5002,Pearson & Mies Van Der Rohe,41.897647,-87.621711,157,157,565a5c,ffffff,4
582,Chicago & Fairbanks,41.896716,-87.62053,157,157,565a5c,ffffff,5
584,Fairbanks & Huron,41.895127,-87.620375,157,157,565a5c,ffffff,6
5004,Ontario & Fairbanks,41.893445,-87.620578,157,157,565a5c,ffffff,7
5005,Ontario & St. Clair,41.893397,-87.622558,157,157,565a5c,ffffff,8
1101,Michigan & Ohio,41.892691,-87.624328,157,157,565a5c,ffffff,9
1102,Michigan & Illinois,41.89103227,-87.6242934,157,157,565a5c,ffffff,10
1103,Michigan & Hubbard (Wrigley Bldg.),41.889894,-87.624244,157,157,565a5c,ffffff,11
1104,Michigan & South Water,41.88690443,-87.6246806,157,157,565a5c,ffffff,12
1105,Michigan & Lake/Randolph,41.885104,-87.624615,157,157,565a5c,ffffff,13
1106,Michigan & Washington,41.883414,-87.624588,157,157,565a5c,ffffff,14
450,Madison & Wabash,41.88214,-87.625973,157,157,565a5c,ffffff,15
18126,Madison & Dearborn/State,41.88205094,-87.62855887,157,157,565a5c,ffffff,16
18123,Madison & LaSalle,41.88201156,-87.63265219,157,157,565a5c,ffffff,17
18124,Madison & Franklin,41.8819998,-87.63563723,157,157,565a5c,ffffff,18
5006,Madison & Canal,41.88193682,-87.63902414,157,157,565a5c,ffffff,19
18125,Clinton & Madison,41.88173913,-87.64127987,157,157,565a5c,ffffff,20
6361,Clinton & Jackson,41.87814,-87.641151,157,157,565a5c,ffffff,21
6363,Clinton Blue Line Station,41.875588,-87.64108,157,157,565a5c,ffffff,22
6621,Clinton & Polk,41.87176,-87.640959,157,157,565a5c,ffffff,23
6623,Clinton & Taylor,41.869872,-87.640896,157,157,565a5c,ffffff,24
17275,Taylor & Jefferson,41.86978662,-87.64269538,157,157,565a5c,ffffff,25
17277,Taylor & Halsted,41.86968221,-87.64761504,157,157,565a5c,ffffff,26
6627,900 W Taylor,41.86964892,-87.64868261,157,157,565a5c,ffffff,27
6628,Taylor & Morgan,41.869554,-87.651483,157,157,565a5c,ffffff,28
6629,Taylor & Aberdeen,41.86952111,-87.65411465,157,157,565a5c,ffffff,29
15811,Taylor & Racine,41.86947788,-87.65700744,157,157,565a5c,ffffff,30
6631,Taylor & Throop,41.86944143,-87.65914552,157,157,565a5c,ffffff,31
6632,Taylor & Loomis,41.86939688,-87.66149318,157,157,565a5c,ffffff,32
6633,Taylor & Laflin,41.86936339,-87.66398543,157,157,565a5c,ffffff,33
17117,Taylor & Ashland,41.86932745,-87.66677804,157,157,565a5c,ffffff,34
6636,Taylor & Paulina,41.86929442,-87.66883638,157,157,565a5c,ffffff,35
6637,Polk Pink Line Station,41.87163592,-87.66966398,157,157,565a5c,ffffff,36
6638,Polk & Wood,41.87162323,-87.67134596,157,157,565a5c,ffffff,37
6639,Polk & Wolcott,41.87157022,-87.67367126,157,157,565a5c,ffffff,38
6640,Polk & Damen,41.87153703,-87.67592336,157,157,565a5c,ffffff,39
6642,2102 W Ogden,41.87070552,-87.67902966,157,157,565a5c,ffffff,40
6643,Ogden & Taylor,41.86915938,-87.68089595,157,157,565a5c,ffffff,41
6644,Taylor & Oakley,41.86907034,-87.68345432,157,157,565a5c,ffffff,42
14554,Western & Roosevelt,41.86629619,-87.68615654,157,157,565a5c,ffffff,43
6650,Ogden & Rockwell,41.86328865,-87.69069449,157,157,565a5c,ffffff,44
17089,Ogden & Washtenaw,41.86216183,-87.69348188,157,157,565a5c,ffffff,45
14980,Ogden & California,41.86138551,-87.69606951,157,157,565a5c,ffffff,46
6653,Ogden & Sacramento,41.85943788,-87.70161258,157,157,565a5c,ffffff,47
6655,Ogden & Kedzie,41.85815937,-87.70526572,157,157,565a5c,ffffff,48
6656,Ogden & Spaulding,41.85729604,-87.70777346,157,157,565a5c,ffffff,49
6657,Ogden & Homan,41.85640622,-87.71021881,157,157,565a5c,ffffff,50
6658,Ogden & St. Louis,41.85560319,-87.71256537,157,157,565a5c,ffffff,51
6659,Ogden & Central Park,41.85474952,-87.7149383,157,157,565a5c,ffffff,52
6660,Ogden & Lawndale,41.85380973,-87.71745519,157,157,565a5c,ffffff,53
6661,Ogden & Hamlin,41.85296073,-87.7198592,157,157,565a5c,ffffff,54
6662,Ogden & Springfield,41.85219242,-87.72217099,157,157,565a5c,ffffff,55
9073,Pulaski & Cermak,41.85188676,-87.7246531,157,157,565a5c,ffffff,56
9074,Pulaski Pink Line Station,41.85369869,-87.72427598,157,157,565a5c,ffffff,57
14888,Pulaski Pink Line Station,41.85402778,-87.72460164,157,157,565a5c,ffffff,58
14116,Midway Orange Line Station,41.78646501,-87.73882191,165,165,565a5c,ffffff,1
4611,Cicero & 61st Street,41.78223443,-87.74258776,165,165,565a5c,ffffff,2
10358,6200 S Cicero,41.7803067,-87.74255487,165,165,565a5c,ffffff,3
4612,Cicero & 63rd Street,41.77858943,-87.74245896,165,165,565a5c,ffffff,4
3320,Cicero & 64th Street,41.77674258,-87.74237673,165,165,565a5c,ffffff,5
3321,Cicero & 65th Street,41.77497051,-87.742376,165,165,565a5c,ffffff,6
3322,65th Street & Lamon,41.77478905,-87.74442335,165,165,565a5c,ffffff,7
3323,65th Street & Lavergne,41.7747378,-87.74683542,165,165,565a5c,ffffff,8
3324,65th Street & Leclaire,41.77474386,-87.74875415,165,165,565a5c,ffffff,9
3325,5133 W 65th Street,41.77468629,-87.75025109,165,165,565a5c,ffffff,10
3326,65th Street & Laramie,41.77466046,-87.75168654,165,165,565a5c,ffffff,11
3327,65th Street & Lockwood,41.77461532,-87.75430253,165,165,565a5c,ffffff,12
3328,65th Street & Long,41.77456145,-87.75666745,165,165,565a5c,ffffff,13
3329,65th Street & Linder,41.77451256,-87.7590143,165,165,565a5c,ffffff,14
3330,65th Street & Central,41.77448423,-87.76146949,165,165,565a5c,ffffff,15
3331,65th Street & Major,41.77444789,-87.76390693,165,165,565a5c,ffffff,16
3332,65th Street & Menard,41.77438801,-87.76632824,165,165,565a5c,ffffff,17
3333,65th Street & Mayfield,41.77433671,-87.76881978,165,165,565a5c,ffffff,18
3334,65th Street & Austin,41.77427466,-87.77122885,165,165,565a5c,ffffff,19
3335,65th Street & Meade,41.77424098,-87.77370967,165,165,565a5c,ffffff,20
3336,65th Street & Melvina,41.77417465,-87.77612685,165,165,565a5c,ffffff,21
3337,65th Street & Mobile,41.77414441,-87.77858195,165,165,565a5c,ffffff,22
3338,65th Street & Narragansett,41.77410204,-87.78099644,165,165,565a5c,ffffff,23
3340,65th Street & Natchez,41.77405121,-87.78343958,165,165,565a5c,ffffff,24
3341,65th Street & Nashville,41.77401787,-87.78590449,165,165,565a5c,ffffff,25
3342,65th Street & Normandy,41.7739759,-87.78828411,165,165,565a5c,ffffff,26
3343,65th Street & Oak Park,41.77393867,-87.79077767,165,165,565a5c,ffffff,27
3345,65th Street & New England,41.77389236,-87.79353366,165,165,565a5c,ffffff,28
3346,65th Street & Sayre,41.77386517,-87.79570594,165,165,565a5c,ffffff,29
3347,65th Street & Nottingham,41.77381828,-87.79818391,165,165,565a5c,ffffff,30
3348,65th Street & Harlem,41.77377973,-87.80062386,165,165,565a5c,ffffff,31
14175,Harlem & 64th Place,41.77498234,-87.8008978,165,165,565a5c,ffffff,32
8629,69th Street & State (Red Line),41.76910793,-87.62527051,169,169,565a5c,ffffff,1
10088,69th Street & Wentworth,41.76915741,-87.62971304,169,169,565a5c,ffffff,2
14496,Halsted & 69th Street,41.76839991,-87.64458968,169,169,565a5c,ffffff,3
5864,Halsted & 79th Street,41.7507542,-87.6441459,169,169,565a5c,ffffff,4
2661,79th Street & Ashland,41.75042496,-87.66323611,169,169,565a5c,ffffff,5
2670,79th Street & Western,41.7502,-87.682612,169,169,565a5c,ffffff,6
2679,79th Street & Kedzie,41.74987844,-87.70224034,169,169,565a5c,ffffff,7
2689,79th Street & Pulaski,41.74961816,-87.72166731,169,169,565a5c,ffffff,8
2698,79th Street & Cicero,41.7492446,-87.74100695,169,169,565a5c,ffffff,9
8627,Ups Facility Stop 1,41.747604,-87.884297,169,169,565a5c,ffffff,10
8628,Ups Facility Stop 2,41.750192,-87.882337,169,169,565a5c,ffffff,11
14020,60th Street & University,41.78592162,-87.59772191,171,171,b71234,ffffff,1
15433,60th Street & Woodlawn,41.78595081,-87.5964491,171,171,b71234,ffffff,2
17902,60th Street & Kenwood,41.78605056,-87.5932363,171,171,b71234,ffffff,3
17423,Dorchester & 60th Street,41.78623515,-87.59139844,171,171,b71234,ffffff,4
13197,59th Street & Kimbark,41.78787138,-87.59450063,171,171,b71234,ffffff,5
16036,University & 57th Street,41.79133238,-87.59800902,171,171,b71234,ffffff,6
15816,University & 55th Street,41.79491276,-87.59809967,171,171,b71234,ffffff,7
15752,55th Street & Woodlawn,41.7949766,-87.59611174,171,171,b71234,ffffff,8
17563,55th Street & Kenwood,41.79503478,-87.59301755,171,171,b71234,ffffff,9
10561,55th Street & Dorchester,41.79473707,-87.59181415,171,171,b71234,ffffff,10
10563,55th Street & Lake Park,41.79511313,-87.58774891,171,171,b71234,ffffff,11
1518,S Hyde Park & 55th Street,41.79542943,-87.58388019,171,171,b71234,ffffff,12
1520,S Hyde Park & 54th Street,41.79835025,-87.58394862,171,171,b71234,ffffff,13
1521,S Hyde Park & 53rd Street,41.79946812,-87.58396077,171,171,b71234,ffffff,14
15919,Shoreland Dorm,41.79643496,-87.58100725,171,171,b71234,ffffff,15
14020,60th Street & University,41.78592162,-87.59772191,172,172,565a5c,ffffff,1
15433,60th Street & Woodlawn,41.78595081,-87.5964491,172,172,565a5c,ffffff,2
17902,60th Street & Kenwood,41.78605056,-87.5932363,172,172,565a5c,ffffff,3
17423,Dorchester & 60th Street,41.78623515,-87.59139844,172,172,565a5c,ffffff,4
13197,59th Street & Kimbark,41.78787138,-87.59450063,172,172,565a5c,ffffff,5
14041,Woodlawn & 58th Street,41.78956608,-87.59635028,172,172,565a5c,ffffff,6
14040,Woodlawn & 57th Street,41.7916486,-87.59640145,172,172,565a5c,ffffff,7
14043,Woodlawn & 55th Street,41.79494179,-87.59647745,172,172,565a5c,ffffff,8
14039,Woodlawn & 53rd Street,41.79956627,-87.59645266,172,172,565a5c,ffffff,9
15818,Woodlawn & Hyde Park Blvd,41.80225019,-87.59664761,172,172,565a5c,ffffff,10
1644,E Hyde Park & Kenwood,41.80235703,-87.5932392,172,172,565a5c,ffffff,11
1646,E Hyde Park & Blackstone,41.80238686,-87.59016592,172,172,565a5c,ffffff,12
1647,E Hyde Park & Lake Park,41.802413,-87.588083,172,172,565a5c,ffffff,13
16124,Cornell & Hyde Park,41.80268932,-87.58636621,172,172,565a5c,ffffff,14
16116,E Hyde Park & Lake Shore Drive,41.8025832,-87.58400058,172,172,565a5c,ffffff,15
16140,Roosevelt Orange/Red/Green Line Station,41.86755162,-87.62666395,18,18,565a5c,ffffff,1
16139,Roosevelt & State,41.86753563,-87.62782765,18,18,565a5c,ffffff,2
15377,Roosevelt & Clark,41.86748977,-87.63083778,18,18,565a5c,ffffff,3
17517,Roosevelt & Delano,41.86750234,-87.63287698,18,18,565a5c,ffffff,4
326,327 W Roosevelt,41.86741626,-87.6355436,18,18,565a5c,ffffff,5
327,Roosevelt & Canal,41.86740019,-87.63905542,18,18,565a5c,ffffff,6
18174,Roosevelt & Jefferson,41.867322,-87.64253291,18,18,565a5c,ffffff,7
17366,Halsted & Roosevelt,41.86675062,-87.64707825,18,18,565a5c,ffffff,8
5802,Halsted & Maxwell,41.864847,-87.646909,18,18,565a5c,ffffff,9
5804,Halsted & 14th Place,41.86249093,-87.64686756,18,18,565a5c,ffffff,10
5806,Halsted & 16th Street,41.859713,-87.646764,18,18,565a5c,ffffff,11
6805,18th Street & Halsted,41.8581596,-87.64676848,18,18,565a5c,ffffff,12
6806,18th Street & Peoria,41.85808316,-87.64857359,18,18,565a5c,ffffff,13
6807,18th Street & Sangamon,41.85811003,-87.6497497,18,18,565a5c,ffffff,14
6809,18th Street & Carpenter,41.85804849,-87.65293778,18,18,565a5c,ffffff,15
17678,18th Street & Racine,41.85800293,-87.65666064,18,18,565a5c,ffffff,16
6812,18th Street & Throop,41.85800489,-87.65861918,18,18,565a5c,ffffff,17
6813,18th Street & Blue Island,41.85794551,-87.66090047,18,18,565a5c,ffffff,18
6814,18th Street & Laflin,41.85792038,-87.66353771,18,18,565a5c,ffffff,19
6815,18th Street & Ashland,41.85786852,-87.66595914,18,18,565a5c,ffffff,20
14067,18th Street & Paulina (Pink Line),41.85781011,-87.66909702,18,18,565a5c,ffffff,21
6817,18th Street & Wood,41.85778654,-87.67093088,18,18,565a5c,ffffff,22
15939,18th Street & Wolcott,41.85775106,-87.67376887,18,18,565a5c,ffffff,23
6819,18th Street & Damen,41.85771957,-87.67586875,18,18,565a5c,ffffff,24
6820,18th Street & Hoyne,41.85769244,-87.67833006,18,18,565a5c,ffffff,25
6821,18th Street & Leavitt,41.85766142,-87.68080115,18,18,565a5c,ffffff,26
6822,18th Street & Oakley,41.85760308,-87.68331532,18,18,565a5c,ffffff,27
6823,18th Street & Western,41.85732922,-87.68568274,18,18,565a5c,ffffff,28
15091,Western & 16th Street,41.85981758,-87.68572361,18,18,565a5c,ffffff,29
8368,Western & 14th Street,41.862912,-87.685856,18,18,565a5c,ffffff,30
6650,Ogden & Rockwell,41.86328865,-87.69069449,18,18,565a5c,ffffff,31
17089,Ogden & Washtenaw,41.86216183,-87.69348188,18,18,565a5c,ffffff,32
14980,Ogden & California,41.86138551,-87.69606951,18,18,565a5c,ffffff,33
6653,Ogden & Sacramento,41.85943788,-87.70161258,18,18,565a5c,ffffff,34
6828,16th Street & Albany,41.85920543,-87.70307082,18,18,565a5c,ffffff,35
6829,16th Street & Kedzie,41.85913506,-87.70533056,18,18,565a5c,ffffff,36
6830,16th Street & Spaulding,41.85914593,-87.70772719,18,18,565a5c,ffffff,37
15137,16th Street & Homan,41.85912807,-87.71049399,18,18,565a5c,ffffff,38
6832,16th Street & St. Louis,41.8590803,-87.71259589,18,18,565a5c,ffffff,39
6833,16th Street & Central Park,41.8590481,-87.71505441,18,18,565a5c,ffffff,40
6834,16th Street & Lawndale,41.85901057,-87.71753443,18,18,565a5c,ffffff,41
15172,16th Street & Hamlin,41.85898573,-87.72036097,18,18,565a5c,ffffff,42
6836,16th Street & Springfield,41.85896155,-87.72229925,18,18,565a5c,ffffff,43
6837,16th Street & Pulaski,41.85892552,-87.72481052,18,18,565a5c,ffffff,44
6838,16th Street & Karlov,41.85890452,-87.72730513,18,18,565a5c,ffffff,45
15173,16th Street & Keeler,41.85885421,-87.73010124,18,18,565a5c,ffffff,46
6840,16th Street & Kildare,41.85882736,-87.73217008,18,18,565a5c,ffffff,47
6841,16th Street & Kostner,41.85880955,-87.73460825,18,18,565a5c,ffffff,48
6842,16th Street & Kilbourn,41.85880854,-87.73710725,18,18,565a5c,ffffff,49
6843,16th Street & 46th Court,41.85871177,-87.74057823,18,18,565a5c,ffffff,50
14466,16th Street & 47th Court Terminal,41.85826059,-87.74342248,18,18,565a5c,ffffff,51
14023,59th Street & Drexel,41.78776144,-87.60361666,192,192,565a5c,ffffff,1
15164,Cottage Grove & 57th Street,41.79163171,-87.60606746,192,192,565a5c,ffffff,2
16140,Roosevelt Orange/Red/Green Line Station,41.86755162,-87.62666395,192,192,565a5c,ffffff,3
5009,Canal & Adams,41.87919465,-87.63945989,192,192,565a5c,ffffff,4
455,Madison & Clinton,41.88194735,-87.64104342,192,192,565a5c,ffffff,5
759,Grand & Streeter,41.892011,-87.612125,2,2,b71234,ffffff,1
760,Grand & Peshtigo,41.891949,-87.615391,2,2,b71234,ffffff,2
589,Grand & McClurg,41.89191794,-87.61798436,2,2,b71234,ffffff,3
590,Grand & Fairbanks/Columbus,41.891862,-87.620009,2,2,b71234,ffffff,4
5004,Ontario & Fairbanks,41.893445,-87.620578,2,2,b71234,ffffff,5
5005,Ontario & St. Clair,41.893397,-87.622558,2,2,b71234,ffffff,6
1101,Michigan & Ohio,41.892691,-87.624328,2,2,b71234,ffffff,7
1102,Michigan & Illinois,41.89103227,-87.6242934,2,2,b71234,ffffff,8
1103,Michigan & Hubbard (Wrigley Bldg.),41.889894,-87.624244,2,2,b71234,ffffff,9
1421,Wacker (Upper) & Michigan,41.88836,-87.625055,2,2,b71234,ffffff,10
1423,State & Lake,41.885893,-87.628053,2,2,b71234,ffffff,11
1425,State & Washington,41.883371,-87.627972,2,2,b71234,ffffff,12
1427,State & Monroe,41.880856,-87.627834,2,2,b71234,ffffff,13
1429,State & Jackson,41.878318,-87.62777,2,2,b71234,ffffff,14
1430,State & Van Buren,41.8769928,-87.62776397,2,2,b71234,ffffff,15
1431,State & Harrison/Ida B Wells Drive ,41.87499673,-87.62769601,2,2,b71234,ffffff,16
14645,Balbo & State,41.87304902,-87.62728495,2,2,b71234,ffffff,17
4870,Balbo & Michigan,41.87310135,-87.62357953,2,2,b71234,ffffff,18
4871,Balbo & Columbus,41.87315,-87.620852,2,2,b71234,ffffff,19
4872,1100 S Columbus (Pedestrian Underpass),41.8703719,-87.62074895,2,2,b71234,ffffff,20
5033,Lake Park & 47th Street,41.80883902,-87.59158851,2,2,b71234,ffffff,21
5034,Lake Park & 48th Street,41.80782,-87.590567,2,2,b71234,ffffff,22
5035,Lake Park & 49th Street,41.80572448,-87.5893219,2,2,b71234,ffffff,23
7175,5000 S Lake Park,41.80441,-87.588685,2,2,b71234,ffffff,24
5036,Lake Park & E. Hyde Park Blvd,41.80337,-87.588293,2,2,b71234,ffffff,25
1525,E Hyde Park & Lake Park,41.802527,-87.588262,2,2,b71234,ffffff,26
15671,East Hyde Park & Blackstone,41.8024951,-87.59033668,2,2,b71234,ffffff,27
1527,E Hyde Park & Dorchester,41.80246856,-87.59213888,2,2,b71234,ffffff,28
1528,E Hyde Park & Kenwood,41.802452,-87.593577,2,2,b71234,ffffff,29
1529,E Hyde Park & Kimbark,41.80243723,-87.59532709,2,2,b71234,ffffff,30
1530,E Hyde Park & Woodlawn,41.80241542,-87.59704903,2,2,b71234,ffffff,31
1533,E Hyde Park & Ellis,41.80236318,-87.60194444,2,2,b71234,ffffff,32
2554,Cottage Grove & Payne,41.80157586,-87.6064961,2,2,b71234,ffffff,33
2555,Cottage Grove & 52nd Street,41.800413,-87.606425,2,2,b71234,ffffff,34
2556,Cottage Grove & 53rd Street,41.79849457,-87.60640775,2,2,b71234,ffffff,35
2557,Cottage Grove & 54th Street,41.796767,-87.60634,2,2,b71234,ffffff,36
2558,Cottage Grove & 55th Street,41.79508678,-87.60633032,2,2,b71234,ffffff,37
2559,Cottage Grove & 56th Street,41.7931395,-87.6063288,2,2,b71234,ffffff,38
2560,Cottage Grove & 57th Street,41.79145101,-87.6062497,2,2,b71234,ffffff,39
2561,Cottage Grove & 58th Street,41.78968132,-87.60623817,2,2,b71234,ffffff,40
2562,Cottage Grove & 59th Street,41.78805632,-87.60620117,2,2,b71234,ffffff,41
14510,Midway Plaisance & Cottage Grove,41.78635927,-87.6062534,2,2,b71234,ffffff,42
8613,Columbus & Randolph,41.884688,-87.620796,20,20,565a5c,ffffff,1
6360,Randolph & Stetson,41.884548,-87.622143,20,20,565a5c,ffffff,2
1106,Michigan & Washington,41.883414,-87.624588,20,20,565a5c,ffffff,3
450,Madison & Wabash,41.88214,-87.625973,20,20,565a5c,ffffff,4
18126,Madison & Dearborn/State,41.88205094,-87.62855887,20,20,565a5c,ffffff,5
18123,Madison & LaSalle,41.88201156,-87.63265219,20,20,565a5c,ffffff,6
18124,Madison & Franklin,41.8819998,-87.63563723,20,20,565a5c,ffffff,7
455,Madison & Clinton,41.88194735,-87.64104342,20,20,565a5c,ffffff,8
456,Madison & Jefferson,41.88191463,-87.64283539,20,20,565a5c,ffffff,9
14467,Madison & Halsted,41.88185289,-87.64755835,20,20,565a5c,ffffff,10
458,Madison & Peoria,41.8818,-87.649477,20,20,565a5c,ffffff,11
459,Madison & Morgan,41.881767,-87.651833,20,20,565a5c,ffffff,12
460,Madison & Aberdeen,41.881722,-87.654195,20,20,565a5c,ffffff,13
14765,Madison & Racine,41.88165448,-87.65733227,20,20,565a5c,ffffff,14
462,Madison & Throop,41.88164,-87.659483,20,20,565a5c,ffffff,15
463,Madison & Loomis,41.881587,-87.66204,20,20,565a5c,ffffff,16
