stop_id,stop_name,stop_lat,stop_lon,route_short_name,route_id,route_color,route_text_color,stop_sequence
2309,8th St & Oak St (Lake Merritt BART),37.797160,-122.265807,18,18,2B589C,FFFFFF,1
2307,8th St & Jackson St,37.797874,-122.267628,18,18,2B589C,FFFFFF,2
2306,8th St & Harrison St,37.799058,-122.270547,18,18,2B589C,FFFFFF,3
2305,8th St & Broadway,37.800170,-122.273479,18,18,2B589C,FFFFFF,4
3637,Broadway & 9th St,37.801131,-122.273062,18,18,2B589C,FFFFFF,5
6200,Broadway & 15th St,37.805037,-122.270599,18,18,2B589C,FFFFFF,6
2486,Broadway & 17th St,37.806506,-122.269710,18,18,2B589C,FFFFFF,7
6107,Thomas L Berkeley Way (20th St) & Telegraph Av,37.809348,-122.268787,18,18,2B589C,FFFFFF,8
2099,Thomas L Berkley Way (20th St) & San Pablo Av,37.810217,-122.272968,18,18,2B589C,FFFFFF,9
3209,Martin Luther King Jr Way & 22nd St,37.811608,-122.273040,18,18,2B589C,FFFFFF,10
3243,Martin Luther King Jr Way & W Grand Av,37.812762,-122.272605,18,18,2B589C,FFFFFF,11
3210,Martin Luther King Jr Way & 25th St,37.815165,-122.271994,18,18,2B589C,FFFFFF,12
3212,Martin Luther King Jr Way & 27th St,37.816845,-122.271582,18,18,2B589C,FFFFFF,13
3215,Martin Luther King Jr Way & 29th St,37.819008,-122.271046,18,18,2B589C,FFFFFF,14
3217,Martin Luther King Jr Way & 31st St,37.820458,-122.270677,18,18,2B589C,FFFFFF,15
3219,Martin Luther King Jr Way & 34th St,37.823253,-122.269978,18,18,2B589C,FFFFFF,16
3221,Martin Luther King Jr Way & 36th St,37.824887,-122.269526,18,18,2B589C,FFFFFF,17
3244,Martin Luther King Jr Way & W MacArthur Blvd,37.826907,-122.269052,18,18,2B589C,FFFFFF,18
3222,Martin Luther King Jr Way & 40th St,37.830128,-122.268252,18,18,2B589C,FFFFFF,19
3223,Martin Luther King Jr Way & 42nd St,37.831349,-122.267934,18,18,2B589C,FFFFFF,20
3226,Martin Luther King Jr Way & 44th St,37.832770,-122.267578,18,18,2B589C,FFFFFF,21
3228,Martin Luther King Jr Way & 47th St,37.834990,-122.267038,18,18,2B589C,FFFFFF,22
3230,Martin Luther King Jr Way & 53rd St,37.837786,-122.268686,18,18,2B589C,FFFFFF,23
3718,55th St & Martin Luther King Jr Way,37.839754,-122.269212,18,18,2B589C,FFFFFF,24
2203,55th St & Dover St,37.839968,-122.267365,18,18,2B589C,FFFFFF,25
3707,Shattuck Av & 55th St,37.840690,-122.264455,18,18,2B589C,FFFFFF,26
3484,Shattuck Av & Aileen St,37.841890,-122.264648,18,18,2B589C,FFFFFF,27
6287,Shattuck Av & 59th St,37.844720,-122.265020,18,18,2B589C,FFFFFF,28
3483,Shattuck Av & 61st St,37.846984,-122.265330,18,18,2B589C,FFFFFF,29
3486,Shattuck Av & Alcatraz Av,37.849359,-122.265661,18,18,2B589C,FFFFFF,30
678,Shattuck Av & Woolsey St,37.852301,-122.266027,18,18,2B589C,FFFFFF,31
651,Shattuck Av & Ashby Av,37.855106,-122.266408,18,18,2B589C,FFFFFF,32
5876,Shattuck Av & Oregon St,37.857883,-122.266753,18,18,2B589C,FFFFFF,33
658,Shattuck Av & Derby St,37.860275,-122.266917,18,18,2B589C,FFFFFF,34
666,Shattuck Av & Parker St,37.862092,-122.266997,18,18,2B589C,FFFFFF,35
661,Shattuck Av & Dwight Way,37.863909,-122.267216,18,18,2B589C,FFFFFF,36
663,Shattuck Av & Haste St,37.865110,-122.267368,18,18,2B589C,FFFFFF,37
660,Shattuck Av & Durant Av,37.866604,-122.267517,18,18,2B589C,FFFFFF,38
6106,Shattuck Av & Allston Way,37.869880,-122.267802,18,18,2B589C,FFFFFF,39
673,Shattuck Av & University Av,37.872541,-122.268319,18,18,2B589C,FFFFFF,40
655,Shattuck Av & Delaware St,37.875261,-122.268630,18,18,2B589C,FFFFFF,41
676,Shattuck Av & Virginia St,37.876520,-122.268753,18,18,2B589C,FFFFFF,42
653,Shattuck Av & Cedar St,37.878344,-122.268970,18,18,2B589C,FFFFFF,43
675,Shattuck Av & Vine St,37.880138,-122.269171,18,18,2B589C,FFFFFF,44
680,Shattuck Pl & Rose St,37.881870,-122.270115,18,18,2B589C,FFFFFF,45
513,Henry St & Berryman St,37.883594,-122.270868,18,18,2B589C,FFFFFF,46
710,Sutter St & Hopkins St,37.888418,-122.272268,18,18,2B589C,FFFFFF,47
689,Solano Av & The Alameda,37.891555,-122.277507,18,18,2B589C,FFFFFF,48
682,Solano Av & Colusa Av,37.891439,-122.279695,18,18,2B589C,FFFFFF,49
684,Solano Av & Ensenada Av,37.891330,-122.281795,18,18,2B589C,FFFFFF,50
687,Solano Av & Tacoma Av,37.891189,-122.284064,18,18,2B589C,FFFFFF,51
686,Solano Av & Peralta Av,37.891090,-122.285958,18,18,2B589C,FFFFFF,52
247,Solano Av & Santa Fe Av,37.890863,-122.289194,18,18,2B589C,FFFFFF,53
244,Solano Av & Ramona Av,37.890748,-122.291328,18,18,2B589C,FFFFFF,54
242,Solano Av & Masonic Av,37.890693,-122.293479,18,18,2B589C,FFFFFF,55
238,Solano Av & Cornell Av,37.890527,-122.296019,18,18,2B589C,FFFFFF,56
240,Solano Av & Kains Av,37.890379,-122.298320,18,18,2B589C,FFFFFF,57
230,San Pablo Av & Buchanan St,37.888096,-122.298404,18,18,2B589C,FFFFFF,58
232,San Pablo Av & Marin Av (Albany City Hall),37.886462,-122.297870,18,18,2B589C,FFFFFF,59
5654,Monroe St & Jackson St,37.884226,-122.299531,18,18,2B589C,FFFFFF,60
5716,11th St & Clay St,37.803309,-122.275305,40,40,A30D11,FFFFFF,1
6098,11th St & Broadway,37.802032,-122.272189,40,40,A30D11,FFFFFF,2
3659,11th St & Harrison St,37.800637,-122.268588,40,40,A30D11,FFFFFF,3
6095,11th St & Jackson St,37.799722,-122.266262,40,40,A30D11,FFFFFF,4
2091,1st Av Pl & International Blvd,37.798772,-122.256709,40,40,A30D11,FFFFFF,5
2669,E 15th St & 3rd Av,37.797914,-122.254720,40,40,A30D11,FFFFFF,6
2670,E 15th St & 5th Av,37.796448,-122.253054,40,40,A30D11,FFFFFF,7
2671,E 15th St & 7th Av,37.794978,-122.251401,40,40,A30D11,FFFFFF,8
2672,E 15th St & 9th Av,37.793292,-122.249495,40,40,A30D11,FFFFFF,9
2667,E 15th St & 11th Av,37.792040,-122.248082,40,40,A30D11,FFFFFF,10
2668,E 15th St & 13th Av,37.790582,-122.246420,40,40,A30D11,FFFFFF,11
2051,14th Av & E 15th St,37.790320,-122.244776,40,40,A30D11,FFFFFF,12
2765,Foothill Blvd & 16th Av,37.790028,-122.242809,40,40,A30D11,FFFFFF,13
6022,Foothill Blvd & 18th Av,37.788517,-122.240293,40,40,A30D11,FFFFFF,14
6023,Foothill Blvd & 21st Av,37.786619,-122.237122,40,40,A30D11,FFFFFF,15
2773,Foothill Blvd & 23rd Av,37.785173,-122.234324,40,40,A30D11,FFFFFF,16
2774,Foothill Blvd & 24th Av,37.784716,-122.232548,40,40,A30D11,FFFFFF,17
2776,Foothill Blvd & 25th Av,37.784592,-122.230453,40,40,A30D11,FFFFFF,18
2779,Foothill Blvd & 27th Av,37.784451,-122.228175,40,40,A30D11,FFFFFF,19
2780,Foothill Blvd & 28th Av,37.784297,-122.225765,40,40,A30D11,FFFFFF,20
2806,Foothill Blvd & Fruitvale Av,37.783584,-122.222515,40,40,A30D11,FFFFFF,21
2783,Foothill Blvd & 35th Av,37.781788,-122.219092,40,40,A30D11,FFFFFF,22
2786,Foothill Blvd & 38th Av,37.779045,-122.216844,40,40,A30D11,FFFFFF,23
2788,Foothill Blvd & 41st Av,37.776520,-122.214017,40,40,A30D11,FFFFFF,24
2810,Foothill Blvd & High St,37.774794,-122.212073,40,40,A30D11,FFFFFF,25
2790,Foothill Blvd & 46th Av (Fremont High School),37.773619,-122.209758,40,40,A30D11,FFFFFF,26
2793,Foothill Blvd & 50th Av,37.772578,-122.206802,40,40,A30D11,FFFFFF,27
2814,Foothill Blvd & Vicksburg Av,37.772566,-122.203130,40,40,A30D11,FFFFFF,28
2803,Foothill Blvd & Cole St,37.772553,-122.198697,40,40,A30D11,FFFFFF,29
2794,Foothill Blvd & 55th Av,37.772549,-122.196234,40,40,A30D11,FFFFFF,30
2800,Foothill Blvd & Avenal Av,37.772017,-122.193204,40,40,A30D11,FFFFFF,31
5342,Foothill Blvd & Seminary Av,37.771465,-122.189944,40,40,A30D11,FFFFFF,32
3728,Foothill Blvd & 61st Av,37.771120,-122.187694,40,40,A30D11,FFFFFF,33
3730,Foothill Blvd & 64th Av,37.770658,-122.184203,40,40,A30D11,FFFFFF,34
2808,Foothill Blvd & Havenscourt Blvd,37.770297,-122.181497,40,40,A30D11,FFFFFF,35
2801,Foothill Blvd & Church St,37.769707,-122.176943,40,40,A30D11,FFFFFF,36
2714,Eastmont Transit Center,37.768773,-122.174022,40,40,A30D11,FFFFFF,37
2233,73rd Av & Garfield Av,37.767082,-122.175638,40,40,A30D11,FFFFFF,38
2406,Bancroft Av & 73rd Av,37.765436,-122.176671,40,40,A30D11,FFFFFF,39
2409,Bancroft Av & 77th Av,37.763630,-122.174390,40,40,A30D11,FFFFFF,40
2430,Bancroft Av & Ritchie St,37.762145,-122.172894,40,40,A30D11,FFFFFF,41
2411,Bancroft Av & 82nd Av,37.759710,-122.170477,40,40,A30D11,FFFFFF,42
2412,Bancroft Av & 85th Av,37.757697,-122.169018,40,40,A30D11,FFFFFF,43
2415,Bancroft Av & 87th Av,37.755458,-122.167311,40,40,A30D11,FFFFFF,44
2416,Bancroft Av & 90th Av,37.753273,-122.165683,40,40,A30D11,FFFFFF,45
2419,Bancroft Av & 94th Av,37.751234,-122.164192,40,40,A30D11,FFFFFF,46
2420,Bancroft Av & 96th Av,37.749841,-122.163152,40,40,A30D11,FFFFFF,47
2422,Bancroft Av & 98th Av,37.748585,-122.162219,40,40,A30D11,FFFFFF,48
2424,Bancroft Av & 99th Av,37.745976,-122.160290,40,40,A30D11,FFFFFF,49
2401,Bancroft Av & 103rd Av,37.743632,-122.158545,40,40,A30D11,FFFFFF,50
2429,Bancroft Av & Link St (Near 106th Av),37.741820,-122.157250,40,40,A30D11,FFFFFF,51
2403,Bancroft Av & 109th Av,37.739814,-122.155747,40,40,A30D11,FFFFFF,52
4219,Bancroft Av & Victoria Cir,37.736594,-122.153353,40,40,A30D11,FFFFFF,53
4207,Bancroft Av & Dutton Av,37.734258,-122.151629,40,40,A30D11,FFFFFF,54
5957,Bancroft Av & Haas Av,37.730512,-122.149438,40,40,A30D11,FFFFFF,55
4201,Bancroft Av & Callan Av,37.728259,-122.148461,40,40,A30D11,FFFFFF,56
4445,Bancroft Av & Estudillo Av,37.726927,-122.147882,40,40,A30D11,FFFFFF,57
4205,Bancroft Av & Dolores Av,37.724570,-122.146856,40,40,A30D11,FFFFFF,58
4208,Bancroft Av & Elsie Av,37.722672,-122.146038,40,40,A30D11,FFFFFF,59
4217,Bancroft Av & Sybil Av,37.721420,-122.145498,40,40,A30D11,FFFFFF,60
4213,Bancroft Av & Mc Kinley Ct,37.719723,-122.144759,40,40,A30D11,FFFFFF,61
4216,Bancroft Av & San Leandro High School,37.717461,-122.143141,40,40,A30D11,FFFFFF,62
5943,Bancroft Av & 136th Av,37.715739,-122.140755,40,40,A30D11,FFFFFF,63
4197,Bancroft Av & 141st Av,37.713968,-122.138312,40,40,A30D11,FFFFFF,64
4194,14341 Bancroft Av (Opp. Jefferson Center School),37.712367,-122.136049,40,40,A30D11,FFFFFF,65
4198,Bancroft Av & 146th Av,37.710732,-122.133709,40,40,A30D11,FFFFFF,66
4200,Bancroft Av & 148th Av,37.709542,-122.132002,40,40,A30D11,FFFFFF,67
4203,Bancroft Av & Dennis Av (Nazarene Church),37.708283,-122.130555,40,40,A30D11,FFFFFF,68
4473,E 14th St & 150th Av,37.705447,-122.129060,40,40,A30D11,FFFFFF,69
4269,E 14th St & Fairmont Dr,37.703598,-122.126401,40,40,A30D11,FFFFFF,70
4444,E 14th St & Bayfair Dr,37.701508,-122.123442,40,40,A30D11,FFFFFF,71
4702,159th Av & E 14th St,37.699342,-122.121197,40,40,A30D11,FFFFFF,72
4232,Coelho Dr & Mooney Av,37.698392,-122.124750,40,40,A30D11,FFFFFF,73
4224,Bay Fair BART,37.696332,-122.125117,40,40,A30D11,FFFFFF,74
5546,Fremont BART,37.557513,-121.975846,99,99,2B589C,FFFFFF,1
6242,Walnut Av & Paseo Padre Pkwy,37.551602,-121.978228,99,99,2B589C,FFFFFF,2
1403,Walnut Av & Liberty St,37.549156,-121.980166,99,99,2B589C,FFFFFF,3
1339,Walnut Av & Fremont Blvd,37.546436,-121.982232,99,99,2B589C,FFFFFF,4
1046,Fremont Blvd & Beacon Av,37.546940,-121.984824,99,99,2B589C,FFFFFF,5
1084,Fremont Blvd & Mowry Av,37.548307,-121.987415,99,99,2B589C,FFFFFF,6
1040,38932 Fremont Blvd (Near Mowry Av),37.549489,-121.989737,99,99,2B589C,FFFFFF,7
1054,Fremont Blvd & Country Dr,37.551033,-121.992770,99,99,2B589C,FFFFFF,8
1066,Fremont Blvd & Eggers Dr,37.552947,-121.996513,99,99,2B589C,FFFFFF,9
1088,Fremont Blvd & Village Ter,37.554474,-121.999485,99,99,2B589C,FFFFFF,10
1051,Fremont Blvd & Centerville Jr High School,37.555719,-122.001914,99,99,2B589C,FFFFFF,11
6217,Fremont Blvd:Central Av,37.556817,-122.004060,99,99,2B589C,FFFFFF,12
1094,Fremont Blvd & Peralta Ct,37.558545,-122.007441,99,99,2B589C,FFFFFF,13
1103,Fremont Blvd & Thornton Av,37.561271,-122.012711,99,99,2B589C,FFFFFF,14
1043,Fremont Blvd & Alder Av (American Sr High School),37.563424,-122.016985,99,99,2B589C,FFFFFF,15
1086,Fremont Blvd & Nicolet Av,37.566684,-122.023561,99,99,2B589C,FFFFFF,16
1101,Fremont Blvd & Tamayo St,37.567837,-122.025898,99,99,2B589C,FFFFFF,17
1023,Decoto Rd & Fremont Blvd,37.571627,-122.031504,99,99,2B589C,FFFFFF,18
1412,Decoto Rd & Brookmill Dr,37.574771,-122.028604,99,99,2B589C,FFFFFF,19
4617,Decoto Rd & Clover St (Royal Ann Dr),37.580556,-122.023761,99,99,2B589C,FFFFFF,20
4623,Decoto Rd & Perry Rd,37.583326,-122.022780,99,99,2B589C,FFFFFF,21
4616,Decoto Rd & Alvarado-Niles Rd,37.586541,-122.021692,99,99,2B589C,FFFFFF,22
4628,Decoto Rd & Union Square,37.590314,-122.020371,99,99,2B589C,FFFFFF,23
4668,Union City BART,37.589744,-122.016645,99,99,2B589C,FFFFFF,24
5194,Decoto Rd & Eleventh St,37.594066,-122.019027,99,99,2B589C,FFFFFF,25
4618,Decoto Rd & Depot Rd,37.595544,-122.018492,99,99,2B589C,FFFFFF,26
4626,Decoto Rd & Seventh St,37.597397,-122.017837,99,99,2B589C,FFFFFF,27
4620,Decoto Rd & 3rd St,37.601115,-122.016513,99,99,2B589C,FFFFFF,28
4646,Mission Blvd & Whipple Rd,37.606819,-122.020454,99,99,2B589C,FFFFFF,29
4644,Mission Blvd & Tamarack Dr,37.609004,-122.023060,99,99,2B589C,FFFFFF,30
4642,Mission Blvd & Lafayette Av,37.611818,-122.026254,99,99,2B589C,FFFFFF,31
1680,Mission Blvd & Blanche St,37.615126,-122.030005,99,99,2B589C,FFFFFF,32
6218,Mission Blvd:Corrine St(Gresel St),37.618978,-122.034450,99,99,2B589C,FFFFFF,33
1684,Mission Blvd & Fairway St,37.622610,-122.038581,99,99,2B589C,FFFFFF,34
1678,Mission Blvd & Arrowhead Way,37.625818,-122.042322,99,99,2B589C,FFFFFF,35
1686,Mission Blvd & Garin Av,37.627510,-122.044244,99,99,2B589C,FFFFFF,36
1676,Mission Blvd & Alquire Pkwy,37.630097,-122.047171,99,99,2B589C,FFFFFF,37
1705,Mission Blvd & Valle Vista Av,37.633872,-122.051510,99,99,2B589C,FFFFFF,38
1753,South Hayward BART,37.634762,-122.056809,99,99,2B589C,FFFFFF,39
1702,Mission Blvd & Tennyson Rd,37.636846,-122.054663,99,99,2B589C,FFFFFF,40
5280,Mission Blvd & Hancock St,37.639140,-122.057155,99,99,2B589C,FFFFFF,41
1682,Mission Blvd & Calhoun St,37.642274,-122.059749,99,99,2B589C,FFFFFF,42
1697,Mission Blvd & Sorenson Rd,37.646732,-122.063270,99,99,2B589C,FFFFFF,43
5223,Mission Blvd & Holy Sepulchre Cemetery,37.648792,-122.064964,99,99,2B589C,FFFFFF,44
1691,Mission Blvd & Harder Rd,37.651771,-122.067281,99,99,2B589C,FFFFFF,45
5281,Mission Blvd & Torrano Av,37.655038,-122.069779,99,99,2B589C,FFFFFF,46
5282,Mission Blvd & Central Blvd,37.657684,-122.071850,99,99,2B589C,FFFFFF,47
5283,Mission Blvd & Carlos Bee Blvd,37.660689,-122.074048,99,99,2B589C,FFFFFF,48
1692,Mission Blvd & Highland Blvd,37.663947,-122.076659,99,99,2B589C,FFFFFF,49
5254,Fletcher Lane & Watkins St,37.666345,-122.079804,99,99,2B589C,FFFFFF,50
5255,Watkins St & Jackson St,37.668130,-122.081792,99,99,2B589C,FFFFFF,51
5256,Watkins St & C St,37.670797,-122.084265,99,99,2B589C,FFFFFF,52
1592,Hayward BART,37.669833,-122.086675,99,99,2B589C,FFFFFF,53
5559,10th St & Washington St,37.802254,-122.274456,6,6,A30D11,FFFFFF,1
2033,11th St & Clay St,37.802963,-122.274464,6,6,A30D11,FFFFFF,2
6200,Broadway & 15th St,37.805037,-122.270599,6,6,A30D11,FFFFFF,3
2486,Broadway & 17th St,37.806506,-122.269710,6,6,A30D11,FFFFFF,4
2489,Broadway & 20th St (19th St BART),37.809324,-122.267939,6,6,A30D11,FFFFFF,5
3666,Telegraph Av & 24th St,37.814091,-122.268358,6,6,A30D11,FFFFFF,6
5557,Telegraph Av & 27th St,37.816534,-122.267705,6,6,A30D11,FFFFFF,7
6268,Telegraph Av & 30th St,37.819650,-122.266940,6,6,A30D11,FFFFFF,8
6270,Telegraph Av & 34th St,37.822630,-122.266130,6,6,A30D11,FFFFFF,9
3547,Telegraph Av & 38th St,37.826879,-122.264959,6,6,A30D11,FFFFFF,10
3549,Telegraph Av & 40th St,37.829490,-122.264215,6,6,A30D11,FFFFFF,11
6228,Telegraph Av & 45th St,37.833317,-122.263232,6,6,A30D11,FFFFFF,12
3567,Telegraph Av & Claremont Av,37.838461,-122.262032,6,6,A30D11,FFFFFF,13
3557,Telegraph Av & 55th St,37.840047,-122.261813,6,6,A30D11,FFFFFF,14
3565,Telegraph Av & Aileen St,37.841688,-122.261572,6,6,A30D11,FFFFFF,15
3672,Telegraph Av & 59th St.,37.845284,-122.261084,6,6,A30D11,FFFFFF,16
3562,Telegraph Av & 62nd St,37.847860,-122.260719,6,6,A30D11,FFFFFF,17
3644,Telegraph Av & Alcatraz Av,37.850466,-122.260394,6,6,A30D11,FFFFFF,18
721,Telegraph Av & Prince St,37.853622,-122.259940,6,6,A30D11,FFFFFF,19
728,Telegraph Av & Webster St,37.855111,-122.259717,6,6,A30D11,FFFFFF,20
5545,Telegraph Av & Ashby Av,37.855967,-122.259599,6,6,A30D11,FFFFFF,21
724,Telegraph Av & Russell St,37.857942,-122.259338,6,6,A30D11,FFFFFF,22
725,Telegraph Av & Stuart St,37.859921,-122.259027,6,6,A30D11,FFFFFF,23
715,Telegraph Av & Derby St,37.861610,-122.258818,6,6,A30D11,FFFFFF,24
720,Telegraph Av & Parker St,37.863067,-122.258605,6,6,A30D11,FFFFFF,25
717,Telegraph Av & Dwight Way,37.864990,-122.258365,6,6,A30D11,FFFFFF,26
718,Telegraph Av & Haste St,37.866293,-122.258610,6,6,A30D11,FFFFFF,27
5598,Bancroft Way & Telegraph Av,37.868646,-122.260255,6,6,A30D11,FFFFFF,28
355,Bancroft Way & Dana St,37.868458,-122.261913,6,6,A30D11,FFFFFF,29
786,Bancroft Way & Ellsworth St,37.868169,-122.264083,6,6,A30D11,FFFFFF,30
6116,Addison St & Oxford St,37.871470,-122.266577,6,6,A30D11,FFFFFF,31
4081,Richmond Pkwy Transit Center (Park & Ride),37.986126,-122.316644,70,70,07B5D0,000000,1
3805,Fitzgerald Dr & Target Store (Pinole Shpg. Ctr.),37.988336,-122.310704,70,70,07B5D0,000000,2
3800,Fitzgerald Dr & Best Buy,37.990935,-122.305992,70,70,07B5D0,000000,3
3802,Fitzgerald Dr & Lucky,37.991568,-122.302833,70,70,07B5D0,000000,4
3799,Appian Way & Dalessi Dr,37.986430,-122.298601,70,70,07B5D0,000000,5
5057,Appian Way & Post Office,37.979621,-122.296549,70,70,07B5D0,000000,6
5053,Appian Way & Fran Way,37.976704,-122.296470,70,70,07B5D0,000000,7
5058,Appian Way & Rincon Rd,37.976183,-122.297680,70,70,07B5D0,000000,8
5056,Appian Way & Pebble Dr,37.973657,-122.301780,70,70,07B5D0,000000,9
5049,4630 Appian Way,37.972509,-122.303773,70,70,07B5D0,000000,10
5055,Appian Way & La Paloma Rd,37.971300,-122.305594,70,70,07B5D0,000000,11
5059,Appian Way & Santa Rita Rd,37.969857,-122.307450,70,70,07B5D0,000000,12
5054,Appian Way & Garden Rd,37.967719,-122.309106,70,70,07B5D0,000000,13
5145,San Pablo Dam Rd & Appian Way,37.966274,-122.309878,70,70,07B5D0,000000,14
5140,3905 San Pablo Dam Rd,37.965398,-122.312549,70,70,07B5D0,000000,15
5157,San Pablo Dam Rd & Hillcrest Rd,37.964944,-122.314939,70,70,07B5D0,000000,16
5153,San Pablo Dam Rd & El Portal Dr,37.964532,-122.317442,70,70,07B5D0,000000,17
4578,San Pablo Dam Rd & Princeton Plaza,37.962861,-122.325415,70,70,07B5D0,000000,18
4516,Evans Av & San Pablo Dam Rd,37.954008,-122.333372,70,70,07B5D0,000000,19
4581,Vale Rd & San Pablo Av,37.955319,-122.336152,70,70,07B5D0,000000,20
4575,Vale Rd & Medical Offices,37.953462,-122.338241,70,70,07B5D0,000000,21
3840,29th St & Tulare Av,37.951443,-122.338900,70,70,07B5D0,000000,22
3837,29th St & Rheem Av,37.950015,-122.338900,70,70,07B5D0,000000,23
4070,Rheem Av & 28th St,37.949909,-122.340841,70,70,07B5D0,000000,24
4068,Rheem Av & 26th St,37.949914,-122.343028,70,70,07B5D0,000000,25
4066,Rheem Av & 24th St,37.949912,-122.345264,70,70,07B5D0,000000,26
4064,Rheem Av & 23rd St,37.949908,-122.347232,70,70,07B5D0,000000,27
4063,Rheem Av & 20th St,37.949641,-122.350031,70,70,07B5D0,000000,28
3808,13th St & Dunn Av,37.949002,-122.357344,70,70,07B5D0,000000,29
5853,Lincoln Av & 17th St,37.945925,-122.353505,70,70,07B5D0,000000,30
5850,Lincoln Av & 20th St,37.945935,-122.349910,70,70,07B5D0,000000,31
3828,23rd St & Garvin Av,37.943953,-122.347609,70,70,07B5D0,000000,32
3824,22nd St & Roosevelt Av,37.939786,-122.348628,70,70,07B5D0,000000,33
5849,Barrett Av & 19th St,37.938558,-122.351362,70,70,07B5D0,000000,34
4018,Marina Way & Nevin Av,37.936937,-122.356310,70,70,07B5D0,000000,35
5560,Richmond BART,37.935900,-122.353759,70,70,07B5D0,000000,36
4122,Tewksbury Av & Castro St,37.928870,-122.386786,72M,72M,2B589C,FFFFFF,1
4123,Tewksbury Av & Washington Av,37.927876,-122.384072,72M,72M,2B589C,FFFFFF,2
4152,S Garrard Blvd & W Cutting Blvd,37.925173,-122.383359,72M,72M,2B589C,FFFFFF,3
4096,S Garrard Blvd & Canal Blvd,37.929215,-122.379914,72M,72M,2B589C,FFFFFF,4
4131,W MacDonald Av & Richmond Pkway,37.935623,-122.372448,72M,72M,2B589C,FFFFFF,5
4130,W MacDonald Av & Curry St,37.935624,-122.371055,72M,72M,2B589C,FFFFFF,6
3991,MacDonald Av & 1st St,37.935628,-122.368432,72M,72M,2B589C,FFFFFF,7
5198,MacDonald Av & 4th St,37.935614,-122.365341,72M,72M,2B589C,FFFFFF,8
4009,MacDonald Av & 7th St,37.935621,-122.362587,72M,72M,2B589C,FFFFFF,9
4164,MacDonald Av & 12th St,37.935605,-122.357745,72M,72M,2B589C,FFFFFF,10
4165,MacDonald Av & Marina Way,37.935657,-122.355852,72M,72M,2B589C,FFFFFF,11
5564,Richmond BART,37.936524,-122.353569,72M,72M,2B589C,FFFFFF,12
3992,MacDonald Av & 21st St (Div 3 Gate),37.935646,-122.349902,72M,72M,2B589C,FFFFFF,13
3994,MacDonald Av & 23rd St,37.935634,-122.347839,72M,72M,2B589C,FFFFFF,14
3997,MacDonald Av & 25th St,37.935365,-122.345578,72M,72M,2B589C,FFFFFF,15
3998,MacDonald Av & 27th St,37.934933,-122.342573,72M,72M,2B589C,FFFFFF,16
4000,MacDonald Av & 31st St,37.934519,-122.339647,72M,72M,2B589C,FFFFFF,17
4002,MacDonald Av & Harry Ells Pl,37.934224,-122.337568,72M,72M,2B589C,FFFFFF,18
5942,MacDonald Av & 37th St,37.933693,-122.333834,72M,72M,2B589C,FFFFFF,19
4005,MacDonald Av & 39th St,37.933441,-122.332078,72M,72M,2B589C,FFFFFF,20
4006,MacDonald Av & 42nd St,37.932967,-122.329631,72M,72M,2B589C,FFFFFF,21
4007,MacDonald Av & 44th St,37.932814,-122.327845,72M,72M,2B589C,FFFFFF,22
4012,MacDonald Av & San Pablo Av,37.932295,-122.324012,72M,72M,2B589C,FFFFFF,23
925,San Pablo Av & Home Depot,37.929203,-122.321341,72M,72M,2B589C,FFFFFF,24
933,San Pablo Av & Wall Av,37.927620,-122.320216,72M,72M,2B589C,FFFFFF,25
867,Del Norte BART (Bay 1),37.924402,-122.316210,72M,72M,2B589C,FFFFFF,26
924,San Pablo Av & Hill St,37.922906,-122.316913,72M,72M,2B589C,FFFFFF,27
931,San Pablo Av & Potrero Av,37.920158,-122.314945,72M,72M,2B589C,FFFFFF,28
926,San Pablo Av & Jefferson Av,37.917210,-122.312867,72M,72M,2B589C,FFFFFF,29
4103,San Pablo Av & Bayview Av (El Cerrito City Hall),37.915751,-122.311842,72M,72M,2B589C,FFFFFF,30
4114,San Pablo Av & Orchard Av,37.914482,-122.310950,72M,72M,2B589C,FFFFFF,31
941,San Pablo Av & Moeser Ln,37.911073,-122.308615,72M,72M,2B589C,FFFFFF,32
4115,San Pablo Av & Panama Av,37.908035,-122.306550,72M,72M,2B589C,FFFFFF,33
5187,San Pablo Av & Columbia Av,37.905628,-122.305125,72M,72M,2B589C,FFFFFF,34
944,San Pablo Av & El Dorado St,37.903766,-122.304235,72M,72M,2B589C,FFFFFF,35
848,Central Av & San Pablo Av,37.902316,-122.302929,72M,72M,2B589C,FFFFFF,36
875,El Cerrito Plaza BART,37.902316,-122.298598,72M,72M,2B589C,FFFFFF,37
923,San Pablo Av & Fairmount Av,37.900202,-122.302555,72M,72M,2B589C,FFFFFF,38
917,San Pablo Av & Carlson Blvd,37.898580,-122.301812,72M,72M,2B589C,FFFFFF,39
228,San Pablo Av & Brighton Av,37.896510,-122.301090,72M,72M,2B589C,FFFFFF,40
231,San Pablo Av & Castro St,37.894286,-122.300376,72M,72M,2B589C,FFFFFF,41
249,San Pablo Av & Solano Av,37.889965,-122.299013,72M,72M,2B589C,FFFFFF,42
230,San Pablo Av & Buchanan St,37.888096,-122.298404,72M,72M,2B589C,FFFFFF,43
232,San Pablo Av & Marin Av (Albany City Hall),37.886462,-122.297870,72M,72M,2B589C,FFFFFF,44
235,San Pablo Av & Monroe St,37.884410,-122.297213,72M,72M,2B589C,FFFFFF,45
635,San Pablo Av & Harrison St,37.882043,-122.296452,72M,72M,2B589C,FFFFFF,46
630,San Pablo Av & Gilman St,37.879897,-122.295773,72M,72M,2B589C,FFFFFF,47
640,San Pablo Av & Page St,37.877324,-122.294932,72M,72M,2B589C,FFFFFF,48
625,San Pablo Av & Cedar St,37.875418,-122.294329,72M,72M,2B589C,FFFFFF,49
628,San Pablo Av & Delaware St,37.871763,-122.293147,72M,72M,2B589C,FFFFFF,50
774,San Pablo Av & University Av,37.868706,-122.292090,72M,72M,2B589C,FFFFFF,51
619,San Pablo Av & Allston Way,37.866481,-122.291436,72M,72M,2B589C,FFFFFF,52
623,San Pablo Av & Bancroft Way,37.864711,-122.290869,72M,72M,2B589C,FFFFFF,53
627,San Pablo Av & Channing Way,37.862930,-122.290299,72M,72M,2B589C,FFFFFF,54
775,San Pablo Av & Dwight Way,37.860794,-122.289583,72M,72M,2B589C,FFFFFF,55
642,San Pablo Av & Parker St,37.859454,-122.289170,72M,72M,2B589C,FFFFFF,56
633,San Pablo Av & Grayson St,37.856294,-122.288160,72M,72M,2B589C,FFFFFF,57
637,San Pablo Av & Heinz Av,37.854456,-122.287577,72M,72M,2B589C,FFFFFF,58
620,San Pablo Av & Ashby Av,37.851805,-122.286712,72M,72M,2B589C,FFFFFF,59
5718,San Pablo Av & 67th St,37.849789,-122.286072,72M,72M,2B589C,FFFFFF,60
3417,San Pablo Av & 65th St,37.848146,-122.285543,72M,72M,2B589C,FFFFFF,61
3416,San Pablo Av & 64th St,37.846544,-122.285024,72M,72M,2B589C,FFFFFF,62
3415,San Pablo Av & 62nd St,37.844789,-122.284455,72M,72M,2B589C,FFFFFF,63
3425,San Pablo Av & Stanford Av,37.840477,-122.283047,72M,72M,2B589C,FFFFFF,64
3413,San Pablo Av & 56th St,37.838906,-122.282549,72M,72M,2B589C,FFFFFF,65
3410,San Pablo Av & 53rd St,37.837379,-122.282067,72M,72M,2B589C,FFFFFF,66
967,San Pablo Av & 47th St (Emeryville High School),37.835263,-122.281379,72M,72M,2B589C,FFFFFF,67
5236,San Pablo Av & 45th St,37.833840,-122.280922,72M,72M,2B589C,FFFFFF,68
965,San Pablo Av & 40th St,37.830609,-122.279851,72M,72M,2B589C,FFFFFF,69
3409,San Pablo Av & 36th St,37.826555,-122.278826,72M,72M,2B589C,FFFFFF,70
3732,San Pablo Av & 32nd St,37.822673,-122.277333,72M,72M,2B589C,FFFFFF,71
3616,San Pablo Av & Market St,37.819684,-122.276370,72M,72M,2B589C,FFFFFF,72
3424,San Pablo Av & Milton St,37.816982,-122.275482,72M,72M,2B589C,FFFFFF,73
6271,San Pablo Av & West St,37.815030,-122.274900,72M,72M,2B589C,FFFFFF,74
3427,San Pablo Av & W Grand Av,37.813061,-122.274237,72M,72M,2B589C,FFFFFF,75
2098,Thomas L Berkley Way (20th St) & San Pablo Av,37.810010,-122.272771,72M,72M,2B589C,FFFFFF,76
3678,Thomas L Berkley Way (20th St) & Telegraph Av,37.809314,-122.269167,72M,72M,2B589C,FFFFFF,77
5224,Broadway & 17th St (19th St BART),37.806323,-122.270078,72M,72M,2B589C,FFFFFF,78
2475,Broadway & 12th St (12th St BART),37.802652,-122.272400,72M,72M,2B589C,FFFFFF,79
5338,Broadway & 9th St,37.801197,-122.273313,72M,72M,2B589C,FFFFFF,80
2500,Broadway & 7th St,37.799240,-122.274525,72M,72M,2B589C,FFFFFF,81
2494,Broadway & 3rd St,37.796891,-122.275956,72M,72M,2B589C,FFFFFF,82
5556,2nd St & Washington St,37.796567,-122.277850,72M,72M,2B589C,FFFFFF,83
955,Christie Av & 64th St,37.844598,-122.295946,29,29,2B589C,FFFFFF,1
956,Christie Av & 65th St,37.846048,-122.296401,29,29,2B589C,FFFFFF,2
953,65th St & Shellmound St (Bay St),37.846139,-122.294807,29,29,2B589C,FFFFFF,3
5660,Hollis St & 65th St,37.846546,-122.291530,29,29,2B589C,FFFFFF,4
6091,Hollis St & 63rd St,37.843659,-122.290583,29,29,2B589C,FFFFFF,5
5643,Hollis St & 59th St,37.841027,-122.289769,29,29,2B589C,FFFFFF,6
5640,Hollis St & Stanford Av,37.838634,-122.288983,29,29,2B589C,FFFFFF,7
5639,Hollis St & 53rd St,37.835775,-122.287621,29,29,2B589C,FFFFFF,8
5637,Hollis St & 45th St,37.833219,-122.286619,29,29,2B589C,FFFFFF,9
963,Hollis St & 40th St (Home Depot),37.829524,-122.285383,29,29,2B589C,FFFFFF,10
2985,Hollis St & 34th St,37.825983,-122.284249,29,29,2B589C,FFFFFF,11
3627,Peralta St & Louise St,37.823562,-122.284342,29,29,2B589C,FFFFFF,12
3628,Peralta St & 28th St,37.820914,-122.286441,29,29,2B589C,FFFFFF,13
3629,Mandela Pkwy & W Grand Av,37.817222,-122.289669,29,29,2B589C,FFFFFF,14
3630,Peralta St & 16th St,37.812830,-122.292895,29,29,2B589C,FFFFFF,15
3631,Peralta St & 12th St,37.810145,-122.295060,29,29,2B589C,FFFFFF,16
5945,Peralta St & 10th St,37.808247,-122.296577,29,29,2B589C,FFFFFF,17
5946,Peralta St & 8th St,37.806778,-122.297725,29,29,2B589C,FFFFFF,18
5201,7th St & Mandela Pkwy (West Oakland BART),37.805030,-122.293830,29,29,2B589C,FFFFFF,19
3590,Union St & 7th St,37.804580,-122.290218,29,29,2B589C,FFFFFF,20
3591,Union St & 8th St,37.805512,-122.289870,29,29,2B589C,FFFFFF,21
2028,10th St & Union St,37.806983,-122.289051,29,29,2B589C,FFFFFF,22
2021,10th St & Adeline St,37.806495,-122.286885,29,29,2B589C,FFFFFF,23
2024,10th St & Filbert St,37.805885,-122.284178,29,29,2B589C,FFFFFF,24
2026,10th St & Market St,37.805266,-122.281590,29,29,2B589C,FFFFFF,25
2032,11th St & Brush St,37.805228,-122.280244,29,29,2B589C,FFFFFF,26
2033,11th St & Clay St,37.802963,-122.274464,29,29,2B589C,FFFFFF,27
2030,11th St & Broadway (12th St BART),37.802268,-122.272747,29,29,2B589C,FFFFFF,28
2034,11th St & Franklin St,37.801544,-122.270868,29,29,2B589C,FFFFFF,29
3659,11th St & Harrison St,37.800637,-122.268588,29,29,2B589C,FFFFFF,30
6095,11th St & Jackson St,37.799722,-122.266262,29,29,2B589C,FFFFFF,31
2092,1st Av & International Blvd,37.799061,-122.256512,29,29,2B589C,FFFFFF,32
3734,Lakeshore Av & Foothill Blvd,37.800018,-122.254802,29,29,2B589C,FFFFFF,33
3025,Lakeshore Av & Hanover Av,37.802714,-122.253712,29,29,2B589C,FFFFFF,34
3021,Lakeshore Av & Brooklyn Av,37.805025,-122.250514,29,29,2B589C,FFFFFF,35
3019,Lakeshore Av & Boden Way,37.807419,-122.249460,29,29,2B589C,FFFFFF,36
5242,Lakeshore Av & MacArthur Blvd,37.809406,-122.246858,29,29,2B589C,FFFFFF,37
5241,Lake Park Av & Lakeshore Av,37.810381,-122.246930,29,29,2B589C,FFFFFF,38
2709,Eastmont Transit Center,37.769296,-122.174358,98,98,2B589C,FFFFFF,1
3098,MacArthur Blvd & 77th Av,37.767153,-122.169415,98,98,2B589C,FFFFFF,2
3142,MacArthur Blvd & Parker Av,37.766118,-122.167990,98,98,2B589C,FFFFFF,3
6290,MacArthur Blvd & Ritchie St,37.764430,-122.166540,98,98,2B589C,FFFFFF,4
3099,MacArthur Blvd & 82nd Av,37.762495,-122.164850,98,98,2B589C,FFFFFF,5
3101,MacArthur Blvd & 84th Av,37.761340,-122.163860,98,98,2B589C,FFFFFF,6
3122,MacArthur Blvd & Castlemont High School,37.759532,-122.162897,98,98,2B589C,FFFFFF,7
5297,MacArthur Blvd & 88th Av,37.757388,-122.162128,98,98,2B589C,FFFFFF,8
3642,MacArthur Blvd & 90th Av,37.755262,-122.161323,98,98,2B589C,FFFFFF,9
3103,MacArthur Blvd & 94th Av,37.753008,-122.160506,98,98,2B589C,FFFFFF,10
3104,MacArthur Blvd & 96th Av,37.751358,-122.159926,98,98,2B589C,FFFFFF,11
3107,MacArthur Blvd & 98th Av,37.750003,-122.159045,98,98,2B589C,FFFFFF,12
2327,98th Av & Bancroft Av,37.748732,-122.161647,98,98,2B589C,FFFFFF,13
2344,98th Av & Olive St,37.747544,-122.163909,98,98,2B589C,FFFFFF,14
2330,98th Av & Cherry St,37.746526,-122.166081,98,98,2B589C,FFFFFF,15
2351,98th Av & Walnut St,37.745508,-122.168265,98,98,2B589C,FFFFFF,16
2334,98th Av & International Blvd,37.744244,-122.171073,98,98,2B589C,FFFFFF,17
2325,98th Av & B St,37.742721,-122.174194,98,98,2B589C,FFFFFF,18
2336,98th Av & E St,37.741609,-122.176542,98,98,2B589C,FFFFFF,19
2348,98th Av & San Leandro St,37.739655,-122.179328,98,98,2B589C,FFFFFF,20
2347,98th Av & Railroad Av,37.737899,-122.181577,98,98,2B589C,FFFFFF,21
2337,98th Av & Edes Av,37.735971,-122.183673,98,98,2B589C,FFFFFF,22
2343,98th Av & Maddux Dr,37.735155,-122.184054,98,98,2B589C,FFFFFF,23
2331,98th Av & Denslowe St,37.733781,-122.185614,98,98,2B589C,FFFFFF,24
2741,Empire Rd & Coral Rd (Near 98th Av),37.730984,-122.192144,98,98,2B589C,FFFFFF,25
2745,Empire Rd & Wistar Rd,37.731694,-122.193192,98,98,2B589C,FFFFFF,26
2744,Empire Rd & Tunis Rd,37.732660,-122.194634,98,98,2B589C,FFFFFF,27
2740,Empire Rd & Cairo Rd,37.734183,-122.194941,98,98,2B589C,FFFFFF,28
2931,Hegenberger Lp & Hegenberger Rd,37.736874,-122.195756,98,98,2B589C,FFFFFF,29
2729,Edgewater Dr & Hegenberger Rd,37.737346,-122.197563,98,98,2B589C,FFFFFF,30
2726,8000 Edgewater Dr,37.740147,-122.201385,98,98,2B589C,FFFFFF,31
2734,Edgewater Dr & Roland Way,37.741918,-122.202943,98,98,2B589C,FFFFFF,32
2731,Edgewater Dr & Pardee Ln,37.743575,-122.204395,98,98,2B589C,FFFFFF,33
2728,Edgewater Dr & Hassler Way,37.746234,-122.206714,98,98,2B589C,FFFFFF,34
2926,Hassler Way & Oakport St,37.747682,-122.204459,98,98,2B589C,FFFFFF,35
2218,66th Av & Coliseum Way,37.755015,-122.204970,98,98,2B589C,FFFFFF,36
3396,San Leandro St & 66th Av,37.756418,-122.200473,98,98,2B589C,FFFFFF,37
3676,San Leandro St & Coliseum BART Walkway,37.753357,-122.197062,98,98,2B589C,FFFFFF,38
2551,College Av & Rockridge BART,37.844550,-122.251687,51B,51B,A30D11,FFFFFF,1
2544,College Av & Chabot Rd,37.847032,-122.251970,51B,51B,A30D11,FFFFFF,2
5329,College Av & Claremont Av,37.850062,-122.252308,51B,51B,A30D11,FFFFFF,3
5330,College Av & Alcatraz Av,37.851618,-122.252364,51B,51B,A30D11,FFFFFF,4
396,College Av & Woolsey St,37.854163,-122.252703,51B,51B,A30D11,FFFFFF,5
384,College Av & Ashby Av,37.857287,-122.252988,51B,51B,A30D11,FFFFFF,6
391,College Av & Russell St,37.858815,-122.253145,51B,51B,A30D11,FFFFFF,7
387,College Av & Derby St,37.862027,-122.253482,51B,51B,A30D11,FFFFFF,8
390,College Av & Parker St,37.864177,-122.253712,51B,51B,A30D11,FFFFFF,9
388,College Av & Haste St,37.866775,-122.254045,51B,51B,A30D11,FFFFFF,10
354,Bancroft Way & College Av,37.869294,-122.255129,51B,51B,A30D11,FFFFFF,11
5597,Bancroft Way & Telegraph Av,37.868660,-122.259909,51B,51B,A30D11,FFFFFF,12
355,Bancroft Way & Dana St,37.868458,-122.261913,51B,51B,A30D11,FFFFFF,13
786,Bancroft Way & Ellsworth St,37.868169,-122.264083,51B,51B,A30D11,FFFFFF,14
6090,Shattuck Sq & Center St (Downtown Berkeley BART),37.870194,-122.267730,51B,51B,A30D11,FFFFFF,15
788,University Av & Shattuck Av,37.872201,-122.268776,51B,51B,A30D11,FFFFFF,16
753,University Av & Martin Luther King Jr Way,37.871700,-122.272872,51B,51B,A30D11,FFFFFF,17
751,University Av & Grant St,37.871412,-122.275174,51B,51B,A30D11,FFFFFF,18
5350,University Av & California St,37.870745,-122.280277,51B,51B,A30D11,FFFFFF,19
757,University Av & Sacramento St,37.870586,-122.281627,51B,51B,A30D11,FFFFFF,20
5346,University Av & Acton St,37.870181,-122.284654,51B,51B,A30D11,FFFFFF,21
749,University Av & Bonar St,37.869836,-122.287417,51B,51B,A30D11,FFFFFF,22
776,University Av & San Pablo Av,37.869114,-122.292544,51B,51B,A30D11,FFFFFF,23
745,University Av & 9th St,37.868791,-122.294305,51B,51B,A30D11,FFFFFF,24
744,University Av & 6th St,37.868157,-122.297414,51B,51B,A30D11,FFFFFF,25
741,University Av & 4th St,37.867727,-122.299730,51B,51B,A30D11,FFFFFF,26
740,University Av & 3rd St,37.867275,-122.300677,51B,51B,A30D11,FFFFFF,27
5564,Richmond BART,37.936524,-122.353569,800,800,BC8E2D,000000,1
3992,MacDonald Av & 21st St (Div 3 Gate),37.935646,-122.349902,800,800,BC8E2D,000000,2
3994,MacDonald Av & 23rd St,37.935634,-122.347839,800,800,BC8E2D,000000,3
3997,MacDonald Av & 25th St,37.935365,-122.345578,800,800,BC8E2D,000000,4
3998,MacDonald Av & 27th St,37.934933,-122.342573,800,800,BC8E2D,000000,5
4000,MacDonald Av & 31st St,37.934519,-122.339647,800,800,BC8E2D,000000,6
4002,MacDonald Av & Harry Ells Pl,37.934224,-122.337568,800,800,BC8E2D,000000,7
5942,MacDonald Av & 37th St,37.933693,-122.333834,800,800,BC8E2D,000000,8
4005,MacDonald Av & 39th St,37.933441,-122.332078,800,800,BC8E2D,000000,9
4006,MacDonald Av & 42nd St,37.932967,-122.329631,800,800,BC8E2D,000000,10
4007,MacDonald Av & 44th St,37.932814,-122.327845,800,800,BC8E2D,000000,11
4012,MacDonald Av & San Pablo Av,37.932295,-122.324012,800,800,BC8E2D,000000,12
925,San Pablo Av & Home Depot,37.929203,-122.321341,800,800,BC8E2D,000000,13
933,San Pablo Av & Wall Av,37.927620,-122.320216,800,800,BC8E2D,000000,14
867,Del Norte BART (Bay 1),37.924402,-122.316210,800,800,BC8E2D,000000,15
924,San Pablo Av & Hill St,37.922906,-122.316913,800,800,BC8E2D,000000,16
931,San Pablo Av & Potrero Av,37.920158,-122.314945,800,800,BC8E2D,000000,17
926,San Pablo Av & Jefferson Av,37.917210,-122.312867,800,800,BC8E2D,000000,18
4103,San Pablo Av & Bayview Av (El Cerrito City Hall),37.915751,-122.311842,800,800,BC8E2D,000000,19
4114,San Pablo Av & Orchard Av,37.914482,-122.310950,800,800,BC8E2D,000000,20
941,San Pablo Av & Moeser Ln,37.911073,-122.308615,800,800,BC8E2D,000000,21
4115,San Pablo Av & Panama Av,37.908035,-122.306550,800,800,BC8E2D,000000,22
5187,San Pablo Av & Columbia Av,37.905628,-122.305125,800,800,BC8E2D,000000,23
944,San Pablo Av & El Dorado St,37.903766,-122.304235,800,800,BC8E2D,000000,24
918,San Pablo Av & Central Av,37.902337,-122.303548,800,800,BC8E2D,000000,25
923,San Pablo Av & Fairmount Av,37.900202,-122.302555,800,800,BC8E2D,000000,26
917,San Pablo Av & Carlson Blvd,37.898580,-122.301812,800,800,BC8E2D,000000,27
228,San Pablo Av & Brighton Av,37.896510,-122.301090,800,800,BC8E2D,000000,28
231,San Pablo Av & Castro St,37.894286,-122.300376,800,800,BC8E2D,000000,29
249,San Pablo Av & Solano Av,37.889965,-122.299013,800,800,BC8E2D,000000,30
230,San Pablo Av & Buchanan St,37.888096,-122.298404,800,800,BC8E2D,000000,31
232,San Pablo Av & Marin Av (Albany City Hall),37.886462,-122.297870,800,800,BC8E2D,000000,32
235,San Pablo Av & Monroe St,37.884410,-122.297213,800,800,BC8E2D,000000,33
635,San Pablo Av & Harrison St,37.882043,-122.296452,800,800,BC8E2D,000000,34
630,San Pablo Av & Gilman St,37.879897,-122.295773,800,800,BC8E2D,000000,35
640,San Pablo Av & Page St,37.877324,-122.294932,800,800,BC8E2D,000000,36
625,San Pablo Av & Cedar St,37.875418,-122.294329,800,800,BC8E2D,000000,37
628,San Pablo Av & Delaware St,37.871763,-122.293147,800,800,BC8E2D,000000,38
643,University Av & San Pablo Av,37.869064,-122.291725,800,800,BC8E2D,000000,39
5361,University Av & Bonar St,37.869654,-122.286965,800,800,BC8E2D,000000,40
747,University Av & Acton St,37.870091,-122.283919,800,800,BC8E2D,000000,41
758,University Av & Sacramento St,37.870368,-122.281347,800,800,BC8E2D,000000,42
750,University Av & Grant St,37.871215,-122.274892,800,800,BC8E2D,000000,43
754,University Av & Martin Luther King Jr Way,37.871544,-122.272672,800,800,BC8E2D,000000,44
760,University Av & Shattuck Av,37.872032,-122.268569,800,800,BC8E2D,000000,45
649,Shattuck Av & Allston Way,37.869480,-122.268127,800,800,BC8E2D,000000,46
664,Shattuck Av & Kittredge St,37.868192,-122.267990,800,800,BC8E2D,000000,47
659,Shattuck Av & Durant Av,37.866468,-122.267812,800,800,BC8E2D,000000,48
662,Shattuck Av & Dwight Way,37.863762,-122.267499,800,800,BC8E2D,000000,49
667,Shattuck Av & Parker St,37.861927,-122.267279,800,800,BC8E2D,000000,50
657,Shattuck Av & Derby St,37.860671,-122.267168,800,800,BC8E2D,000000,51
287,Adeline St & Oregon St,37.857080,-122.268495,800,800,BC8E2D,000000,52
319,Ashby Av & Adeline St (Ashby BART),37.854812,-122.268676,800,800,BC8E2D,000000,53
346,Ashby Av & Shattuck Av,37.855265,-122.266194,800,800,BC8E2D,000000,54
351,Ashby Av & Wheeler St,37.855516,-122.264287,800,800,BC8E2D,000000,55
327,Ashby Av & Deakin St,37.855790,-122.262173,800,800,BC8E2D,000000,56
727,Telegraph Av & Webster St,37.855315,-122.259934,800,800,BC8E2D,000000,57
3566,Telegraph Av & Alcatraz Av,37.850386,-122.260625,800,800,BC8E2D,000000,58
3563,Telegraph Av & 62nd St,37.848040,-122.260956,800,800,BC8E2D,000000,59
3561,Telegraph Av & 60th St,37.846580,-122.261142,800,800,BC8E2D,000000,60
3664,Telegraph Av & 59th St,37.844751,-122.261409,800,800,BC8E2D,000000,61
3559,Telegraph Av & 58th St,37.843522,-122.261579,800,800,BC8E2D,000000,62
3564,Telegraph Av & Aileen St,37.841910,-122.261806,800,800,BC8E2D,000000,63
3558,Telegraph Av & 55th St,37.840356,-122.262017,800,800,BC8E2D,000000,64
3556,Telegraph Av & 52nd St,37.838189,-122.262319,800,800,BC8E2D,000000,65
6229,Telegraph Av & 51st St,37.836910,-122.262515,800,800,BC8E2D,000000,66
3552,Telegraph Av & 45th St,37.833275,-122.263496,800,800,BC8E2D,000000,67
3548,Telegraph Av & 40th St,37.829498,-122.264507,800,800,BC8E2D,000000,68
6227,Telegraph Av & W MacArthur Blvd,37.826162,-122.265407,800,800,BC8E2D,000000,69
6269,Telegraph Av & 34th St,37.822330,-122.266430,800,800,BC8E2D,000000,70
3542,Telegraph Av & 32nd St,37.821039,-122.266788,800,800,BC8E2D,000000,71
6267,Telegraph Av & 30th St,37.818900,-122.267340,800,800,BC8E2D,000000,72
5558,Telegraph Av & 27th St,37.815857,-122.268139,800,800,BC8E2D,000000,73
3536,Telegraph Av & 24th St,37.813247,-122.268799,800,800,BC8E2D,000000,74
3679,Thomas L Berkley Way & Telegraph Av (19th St BART),37.809156,-122.268775,800,800,BC8E2D,000000,75
2487,Broadway & 19th St (19th St BART),37.807922,-122.269089,800,800,BC8E2D,000000,76
5224,Broadway & 17th St (19th St BART),37.806323,-122.270078,800,800,BC8E2D,000000,77
2068,14th St & Broadway (12th St BART),37.804747,-122.272012,800,800,BC8E2D,000000,78
2073,14th St & Clay St,37.805520,-122.273908,800,800,BC8E2D,000000,79
2085,14th St & Martin Luther King Jr Way,37.806222,-122.275803,800,800,BC8E2D,000000,80
4173,Market St & Gough St,37.772829,-122.421947,800,800,BC8E2D,000000,81
4168,Market St & South Van Ness Av,37.775161,-122.419082,800,800,BC8E2D,000000,82
5310,24th St & Mission St,37.752327,-122.418206,800,800,BC8E2D,000000,83
5866,Center St & Shattuck Av (Downtown Berkeley BART),37.870312,-122.268570,88,88,2B589C,FFFFFF,1
751,University Av & Grant St,37.871412,-122.275174,88,88,2B589C,FFFFFF,2
5350,University Av & California St,37.870745,-122.280277,88,88,2B589C,FFFFFF,3
792,Sacramento St & University Av,37.870072,-122.282080,88,88,2B589C,FFFFFF,4
589,Sacramento St & Allston Way,37.867102,-122.281801,88,88,2B589C,FFFFFF,5
598,Sacramento St & Channing Way,37.864105,-122.281485,88,88,2B589C,FFFFFF,6
601,Sacramento St & Dwight Way,37.862306,-122.281302,88,88,2B589C,FFFFFF,7
594,Sacramento St & Carleton St,37.859679,-122.280524,88,88,2B589C,FFFFFF,8
616,Sacramento St & Ward St,37.857893,-122.280157,88,88,2B589C,FFFFFF,9
608,Sacramento St & Oregon St,37.855772,-122.279710,88,88,2B589C,FFFFFF,10
590,Sacramento St & Ashby Av,37.853457,-122.279204,88,88,2B589C,FFFFFF,11
609,Sacramento St & Prince St,37.851253,-122.278696,88,88,2B589C,FFFFFF,12
604,Sacramento St & Fairview St,37.849747,-122.278338,88,88,2B589C,FFFFFF,13
586,Sacramento St & Alcatraz Av,37.848060,-122.277941,88,88,2B589C,FFFFFF,14
3200,Market St & 62nd St,37.846292,-122.276961,88,88,2B589C,FFFFFF,15
3198,Market St & 59th St,37.843523,-122.275026,88,88,2B589C,FFFFFF,16
3202,Market St & Arlington Av,37.842410,-122.274770,88,88,2B589C,FFFFFF,17
3195,Market St & 55th St,37.838998,-122.273977,88,88,2B589C,FFFFFF,18
5879,Market St & 52nd St,37.836314,-122.273426,88,88,2B589C,FFFFFF,19
6018,Market St & 43rd St,37.832846,-122.273501,88,88,2B589C,FFFFFF,20
3184,Market St & 40th St,37.830808,-122.273993,88,88,2B589C,FFFFFF,21
5882,Market St & W MacArthur Blvd,37.827686,-122.274798,88,88,2B589C,FFFFFF,22
3182,Market St & 35th St,37.825571,-122.275392,88,88,2B589C,FFFFFF,23
3181,Market St & 33rd St,37.824097,-122.275693,88,88,2B589C,FFFFFF,24
3423,San Pablo Av & Market St,37.820532,-122.276649,88,88,2B589C,FFFFFF,25
3174,Market St & 26th St (Mc Clymonds High School),37.817659,-122.277622,88,88,2B589C,FFFFFF,26
5298,Market St & W Grand Av,37.814174,-122.278887,88,88,2B589C,FFFFFF,27
3634,Market St & 16th St,37.809559,-122.280552,88,88,2B589C,FFFFFF,28
3635,Market St & 14th St,37.807915,-122.281161,88,88,2B589C,FFFFFF,29
2026,10th St & Market St,37.805266,-122.281590,88,88,2B589C,FFFFFF,30
2032,11th St & Brush St,37.805228,-122.280244,88,88,2B589C,FFFFFF,31
2033,11th St & Clay St,37.802963,-122.274464,88,88,2B589C,FFFFFF,32
2030,11th St & Broadway (12th St BART),37.802268,-122.272747,88,88,2B589C,FFFFFF,33
2034,11th St & Franklin St,37.801544,-122.270868,88,88,2B589C,FFFFFF,34
3659,11th St & Harrison St,37.800637,-122.268588,88,88,2B589C,FFFFFF,35
6095,11th St & Jackson St,37.799722,-122.266262,88,88,2B589C,FFFFFF,36
3636,Madison St & 9th St,37.797860,-122.266490,88,88,2B589C,FFFFFF,37
3250,Montana St & Fruitvale Av,37.798659,-122.216647,96,96,2B589C,FFFFFF,1
3128,MacArthur Blvd & Fruitvale Av,37.800546,-122.216622,96,96,2B589C,FFFFFF,2
3121,MacArthur Blvd & Canon Av,37.801016,-122.218427,96,96,2B589C,FFFFFF,3
3150,MacArthur Blvd & Sheffield Av (Altenheim Rtrmt.),37.800201,-122.221281,96,96,2B589C,FFFFFF,4
3157,MacArthur Blvd & Woodruff Av,37.800474,-122.222731,96,96,2B589C,FFFFFF,5
3146,MacArthur Blvd & Randolph Av,37.800866,-122.224800,96,96,2B589C,FFFFFF,6
2435,Beaumont Av & MacArthur Blvd,37.800737,-122.229024,96,96,2B589C,FFFFFF,7
2434,Beaumont Av & E 31st St,37.799023,-122.229557,96,96,2B589C,FFFFFF,8
2061,14th Av & E 29th St,37.797511,-122.231017,96,96,2B589C,FFFFFF,9
2064,14th Av & Vallecito Pl,37.796650,-122.233408,96,96,2B589C,FFFFFF,10
2060,14th Av & E 26th St,37.796191,-122.234681,96,96,2B589C,FFFFFF,11
2058,14th Av & E 24th St,37.795470,-122.236671,96,96,2B589C,FFFFFF,12
2056,14th Av & E 21st St,37.793997,-122.239996,96,96,2B589C,FFFFFF,13
5717,14th Av & E 18th St,37.791754,-122.243149,96,96,2B589C,FFFFFF,14
6044,14th Av & International Blvd,37.789646,-122.246117,96,96,2B589C,FFFFFF,15
6188,International Blvd & 11th Av,37.791585,-122.249001,96,96,2B589C,FFFFFF,16
6045,5th Av & E 12th St,37.794872,-122.255243,96,96,2B589C,FFFFFF,17
2210,5th Av & E 10th St,37.793889,-122.256620,96,96,2B589C,FFFFFF,18
2588,E 10th St & 4th Av,37.794692,-122.257621,96,96,2B589C,FFFFFF,19
5744,E 10th St & 2nd Av,37.795897,-122.258977,96,96,2B589C,FFFFFF,20
2591,E 10th St & Kaiser Convention Center,37.796917,-122.260825,96,96,2B589C,FFFFFF,21
2590,E 10th St & Fallon St,37.797834,-122.263110,96,96,2B589C,FFFFFF,22
3317,Oak St & 8th St (Lake Merritt BART),37.797099,-122.265240,96,96,2B589C,FFFFFF,23
3316,Oak St & 10th St,37.798533,-122.264361,96,96,2B589C,FFFFFF,24
2041,12th St & Oak St,37.799900,-122.264052,96,96,2B589C,FFFFFF,25
3658,12th St & Harrison St,37.801730,-122.268771,96,96,2B589C,FFFFFF,26
2475,Broadway & 12th St (12th St BART),37.802652,-122.272400,96,96,2B589C,FFFFFF,27
5338,Broadway & 9th St,37.801197,-122.273313,96,96,2B589C,FFFFFF,28
2247,7th St & Franklin St,37.799014,-122.273177,96,96,2B589C,FFFFFF,29
212,Mariner Sq Loop & Willie Stargell Av,37.785082,-122.278177,96,96,2B589C,FFFFFF,30
5647,Mitchell Av & Diller St,37.788996,-122.278624,96,96,2B589C,FFFFFF,31
5649,5th St & Singleton Av,37.786628,-122.281618,96,96,2B589C,FFFFFF,32
210,Webster St & Willie Stargell Av,37.782860,-122.276770,96,96,2B589C,FFFFFF,33
166,Webster St & Ralph Appezzato Memorial Pkwy,37.779082,-122.276692,96,96,2B589C,FFFFFF,34
167,Webster St & Buena Vista Av,37.777035,-122.276769,96,96,2B589C,FFFFFF,35
73,Lincoln Av & Webster St,37.775303,-122.277159,96,96,2B589C,FFFFFF,36
72,Lincoln Av & 6th St,37.775357,-122.279193,96,96,2B589C,FFFFFF,37
70,Lincoln Av & 5th St,37.775461,-122.282032,96,96,2B589C,FFFFFF,38
117,Pacific Av & 4th St,37.776512,-122.285647,96,96,2B589C,FFFFFF,39
6062,Pacific Av & Third St,37.776558,-122.287841,96,96,2B589C,FFFFFF,40
118,Pacific Av & Main St,37.776645,-122.290921,96,96,2B589C,FFFFFF,41
6111,W Atlantic Av & Main St,37.780080,-122.291702,96,96,2B589C,FFFFFF,42
6112,W Atlantic Av & Orion St,37.780184,-122.294702,96,96,2B589C,FFFFFF,43
6113,W Midway Av & Orion St,37.785089,-122.294421,96,96,2B589C,FFFFFF,44
206,W Midway Av & Pan Am Way,37.785622,-122.297892,96,96,2B589C,FFFFFF,45
5865,W Midway Av & Saratoga St,37.785837,-122.301966,96,96,2B589C,FFFFFF,46
5909,W Midway Av & Monarch St,37.786348,-122.308018,96,96,2B589C,FFFFFF,47
873,El Cerrito Plaza BART,37.902888,-122.299013,71,71,07B5D0,000000,1
847,Central Av & San Pablo Av,37.902343,-122.303107,71,71,07B5D0,000000,2
844,Carlson Blvd & Central Av,37.902182,-122.304617,71,71,07B5D0,000000,3
3894,Carlson Blvd & San Jose Av,37.904289,-122.306056,71,71,07B5D0,000000,4
3881,Carlson Blvd & Columbia Av,37.905278,-122.306732,71,71,07B5D0,000000,5
5200,Carlson Blvd & Huntington Dr,37.907733,-122.308337,71,71,07B5D0,000000,6
3899,Carlson Blvd & Sutter Av,37.908913,-122.309363,71,71,07B5D0,000000,7
3896,Carlson Blvd & Santa Clara St,37.909448,-122.312243,71,71,07B5D0,000000,8
3901,Carlson Blvd & Tehama Av,37.910280,-122.315824,71,71,07B5D0,000000,9
3885,Carlson Blvd & S 55th St,37.911597,-122.318364,71,71,07B5D0,000000,10
3876,Carlson Blvd & Carl Av,37.912542,-122.320175,71,71,07B5D0,000000,11
3897,Carlson Blvd & Santa Clara St,37.913904,-122.322761,71,71,07B5D0,000000,12
3968,Hartnett Av & Bayview Av,37.915186,-122.323238,71,71,07B5D0,000000,13
3966,5000 Hartnett Av,37.916152,-122.324260,71,71,07B5D0,000000,14
3970,Hartnett Av & Carlson Blvd,37.917001,-122.326818,71,71,07B5D0,000000,15
3891,Carlson Blvd & S 47th St,37.917766,-122.327943,71,71,07B5D0,000000,16
4092,S 47th St & Cypress Av,37.919806,-122.326412,71,71,07B5D0,000000,17
4094,S 47th St & Potrero Av,37.920995,-122.325492,71,71,07B5D0,000000,18
4055,Potrero Av & S 45th St,37.921309,-122.327123,71,71,07B5D0,000000,19
4054,Potrero Av & S 43rd St,37.921388,-122.329058,71,71,07B5D0,000000,20
4052,Potrero Av & Carlson Blvd,37.921522,-122.332670,71,71,07B5D0,000000,21
3890,Carlson Blvd & S 37th St,37.922606,-122.334336,71,71,07B5D0,000000,22
3882,Carlson Blvd & Cutting Blvd,37.925507,-122.338312,71,71,07B5D0,000000,23
3888,Carlson Blvd & Pullman Av,37.928734,-122.342702,71,71,07B5D0,000000,24
3879,Carlson Blvd & Center Av,37.930096,-122.344596,71,71,07B5D0,000000,25
3995,MacDonald Av & 23rd St,37.935814,-122.347894,71,71,07B5D0,000000,26
3993,MacDonald Av & 21st St,37.935816,-122.349453,71,71,07B5D0,000000,27
5561,Richmond BART,37.935916,-122.353427,71,71,07B5D0,000000,28
4166,Marina Way & MacDonald Av,37.936026,-122.356121,71,71,07B5D0,000000,29
3862,Barrett Av & 13th St,37.938508,-122.357010,71,71,07B5D0,000000,30
3957,Harbour Way & Barrett Av,37.938803,-122.359904,71,71,07B5D0,000000,31
3963,Harbour Way & Roosevelt Av,37.939862,-122.359922,71,71,07B5D0,000000,32
3960,Harbour Way & Pennsylvania Av,37.942010,-122.359894,71,71,07B5D0,000000,33
3806,13th St & Lincoln Av,37.946233,-122.357293,71,71,07B5D0,000000,34
3809,13th St & Rheem Av,37.950089,-122.357054,71,71,07B5D0,000000,35
4546,Rumrill Blvd & Regina Av,37.951550,-122.356967,71,71,07B5D0,000000,36
4541,Rumrill Blvd & Emeric Av,37.954106,-122.356845,71,71,07B5D0,000000,37
4539,Rumrill Blvd & Bush Av,37.955884,-122.356745,71,71,07B5D0,000000,38
4543,Rumrill Blvd & Market Av,37.959154,-122.356546,71,71,07B5D0,000000,39
4540,Rumrill Blvd & Dover Av,37.960647,-122.356374,71,71,07B5D0,000000,40
4537,Rumrill Blvd & Brookside Dr,37.963657,-122.354844,71,71,07B5D0,000000,41
4548,Rumrill Blvd & Road 20,37.965008,-122.353850,71,71,07B5D0,000000,42
4534,Rumrill Blvd & 17th St,37.966505,-122.350620,71,71,07B5D0,000000,43
4535,Rumrill Blvd & 19th St,37.967702,-122.347419,71,71,07B5D0,000000,44
4531,Mission Bell Dr & College Ln,37.968871,-122.342103,71,71,07B5D0,000000,45
4510,Contra Costa College,37.971401,-122.340051,71,71,07B5D0,000000,46
4532,Mission Bell Dr & El Portal Dr,37.967705,-122.343134,71,71,07B5D0,000000,47
4488,Broadway Av & 20th St,37.969454,-122.346116,71,71,07B5D0,000000,48
4486,Broadway Av & 17th St,37.971321,-122.347936,71,71,07B5D0,000000,49
4489,Broadway Av & Rivers St,37.973396,-122.349948,71,71,07B5D0,000000,50
4482,Broadway Av & 11th St,37.974901,-122.351518,71,71,07B5D0,000000,51
4476,11th St & Stonington Av,37.976825,-122.351086,71,71,07B5D0,000000,52
4570,Stanton Av & 11th St,37.978392,-122.350962,71,71,07B5D0,000000,53
4572,Stanton Av & Giant Rd,37.978701,-122.352945,71,71,07B5D0,000000,54
6064,Griffin Dr & McGlothen Way,37.984718,-122.352481,71,71,07B5D0,000000,55
6063,Phanor Dr & McGlothen Way,37.987848,-122.353088,71,71,07B5D0,000000,56
4132,West County Detention Facility,37.993171,-122.354525,71,71,07B5D0,000000,57
4049,Point Pinole Business Park,37.996621,-122.348564,71,71,07B5D0,000000,58
3860,Atlas Rd & UPS Facility,37.994565,-122.341439,71,71,07B5D0,000000,59
4087,Richmond Pkwy & Lakeside Dr,37.989888,-122.328254,71,71,07B5D0,000000,60
4084,3400 Richmond Pkwy,37.988695,-122.321931,71,71,07B5D0,000000,61
4083,Richmond Pkwy Transit Center (Park & Ride),37.985829,-122.316868,71,71,07B5D0,000000,62
2710,Eastmont Transit Center,37.769193,-122.174041,NL,NL,2B589C,FFFFFF,1
2809,Foothill Blvd & Havenscourt Blvd,37.770464,-122.181582,NL,NL,2B589C,FFFFFF,2
2520,Camden St & MacArthur Blvd (Seminary Av Jctn),37.775374,-122.185144,NL,NL,2B589C,FFFFFF,3
3145,MacArthur Blvd & Richard's Gate (Mills College),37.783232,-122.188018,NL,NL,2B589C,FFFFFF,4
3131,MacArthur Blvd & High St,37.787255,-122.194629,NL,NL,2B589C,FFFFFF,5
3085,MacArthur Blvd & 35th Av,37.793658,-122.200436,NL,NL,2B589C,FFFFFF,6
3124,MacArthur Blvd & Coolidge Av,37.798641,-122.208473,NL,NL,2B589C,FFFFFF,7
3128,MacArthur Blvd & Fruitvale Av,37.800546,-122.216622,NL,NL,2B589C,FFFFFF,8
3146,MacArthur Blvd & Randolph Av,37.800866,-122.224800,NL,NL,2B589C,FFFFFF,9
2533,Chatham Rd & Park Blvd,37.804234,-122.232611,NL,NL,2B589C,FFFFFF,10
3114,MacArthur Blvd & Athol Av,37.807074,-122.241306,NL,NL,2B589C,FFFFFF,11
5241,Lake Park Av & Lakeshore Av,37.810381,-122.246930,NL,NL,2B589C,FFFFFF,12
2874,Grand Av & Perkins St,37.809069,-122.255964,NL,NL,2B589C,FFFFFF,13
2101,TL Berkley Way (20th St)  & Webster St (Kaiser Ct),37.808435,-122.265725,NL,NL,2B589C,FFFFFF,14
6107,Thomas L Berkeley Way (20th St) & Telegraph Av,37.809348,-122.268787,NL,NL,2B589C,FFFFFF,15
2099,Thomas L Berkley Way (20th St) & San Pablo Av,37.810217,-122.272968,NL,NL,2B589C,FFFFFF,16
3598,W Grand Av & Market St,37.814503,-122.278269,NL,NL,2B589C,FFFFFF,17
6288,W Grand Av & Adeline St,37.815780,-122.284270,NL,NL,2B589C,FFFFFF,18
3597,W Grand Av & Mandela Pkwy,37.817415,-122.290244,NL,NL,2B589C,FFFFFF,19
5843,Salesforce Transit Center Bay 30,37.789800,-122.395854,NL,NL,2B589C,FFFFFF,20
6164,San Leandro BART,37.721569,-122.160166,1T,1T,782B84,FFFFFF,1
6120,Downtown San Leandro NB,37.725382,-122.157569,1T,1T,782B84,FFFFFF,2
6122,San Leandro Civic Center NB,37.728129,-122.158336,1T,1T,782B84,FFFFFF,3
6124,Georgia Way NB,37.731513,-122.160859,1T,1T,782B84,FFFFFF,4
6126,Durant Avenue,37.735712,-122.164048,1T,1T,782B84,FFFFFF,5
6128,103rd Avenue,37.740733,-122.167784,1T,1T,782B84,FFFFFF,6
6130,98th Avenue,37.743437,-122.169821,1T,1T,782B84,FFFFFF,7
6132,95th Avenue,37.746072,-122.171760,1T,1T,782B84,FFFFFF,8
6134,90th Avenue,37.749397,-122.174228,1T,1T,782B84,FFFFFF,9
6136,86th Avenue,37.752353,-122.176414,1T,1T,782B84,FFFFFF,10
6138,82nd Avenue,37.755763,-122.179821,1T,1T,782B84,FFFFFF,11
6140,77th Avenue,37.758101,-122.184737,1T,1T,782B84,FFFFFF,12
6142,73rd Avenue,37.759900,-122.188523,1T,1T,782B84,FFFFFF,13
6144,67th Avenue,37.761370,-122.191592,1T,1T,782B84,FFFFFF,14
6146,63rd Avenue,37.763503,-122.196132,1T,1T,782B84,FFFFFF,15
6148,Seminary,37.765657,-122.200637,1T,1T,782B84,FFFFFF,16
6185,54th Avenue,37.768075,-122.205828,1T,1T,782B84,FFFFFF,17
6150,48th Avenue,37.769644,-122.209132,1T,1T,782B84,FFFFFF,18
6152,High Street,37.771643,-122.213326,1T,1T,782B84,FFFFFF,19
6183,39th Avenue,37.774503,-122.219345,1T,1T,782B84,FFFFFF,20
6181,Fruitvale,37.776536,-122.223580,1T,1T,782B84,FFFFFF,21
6179,31st  Avenue,37.778128,-122.226931,1T,1T,782B84,FFFFFF,22
6154,28th Avenue,37.780067,-122.230334,1T,1T,782B84,FFFFFF,23
6156,24th Avenue,37.782621,-122.234602,1T,1T,782B84,FFFFFF,24
6158,20th Avenue,37.785698,-122.239742,1T,1T,782B84,FFFFFF,25
6160,14th Avenue NB,37.789312,-122.245784,1T,1T,782B84,FFFFFF,26
6162,10th Avenue NB,37.791956,-122.249475,1T,1T,782B84,FFFFFF,27
6166,5th Avenue NB,37.795996,-122.254033,1T,1T,782B84,FFFFFF,28
6168,2nd Avenue NB,37.797826,-122.256110,1T,1T,782B84,FFFFFF,29
6169,Madison NB,37.800104,-122.264642,1T,1T,782B84,FFFFFF,30
6178,Harrison NB,37.801928,-122.269405,1T,1T,782B84,FFFFFF,31
6175,City Center NB,37.802815,-122.271508,1T,1T,782B84,FFFFFF,32
6173,14th Street NB,37.804576,-122.270895,1T,1T,782B84,FFFFFF,33
6171,Uptown Oakland NB,37.807371,-122.269191,1T,1T,782B84,FFFFFF,34
3770,Highland Way & Highland Av,37.825041,-122.231964,33,33,2B589C,FFFFFF,1
3759,Highland Av & Craig Av,37.825845,-122.232553,33,33,2B589C,FFFFFF,2
3788,Oakland Av & Hillside Av,37.825419,-122.235536,33,33,2B589C,FFFFFF,3
3783,Oakland Av & El Cerrito Av,37.824677,-122.237684,33,33,2B589C,FFFFFF,4
3790,Oakland Av & Latham St,37.823927,-122.239851,33,33,2B589C,FFFFFF,5
3786,Oakland Av & Grand Av,37.822698,-122.243807,33,33,2B589C,FFFFFF,6
3791,Oakland Av & Olive Av,37.821681,-122.247360,33,33,2B589C,FFFFFF,7
3322,Oakland Av & Monte Vista Av,37.821286,-122.248707,33,33,2B589C,FFFFFF,8
2433,Bayo Vista Av & Harrison St,37.821217,-122.250377,33,33,2B589C,FFFFFF,9
2921,Harrison St & Moss Av,37.820621,-122.253114,33,33,2B589C,FFFFFF,10
2923,Harrison St & W MacArthur Blvd,37.820052,-122.253904,33,33,2B589C,FFFFFF,11
2922,Harrison St & Pearl St,37.818358,-122.255774,33,33,2B589C,FFFFFF,12
2916,Harrison St & Frisbie St,37.817515,-122.257124,33,33,2B589C,FFFFFF,13
2914,Harrison St & 29th St,37.815939,-122.258797,33,33,2B589C,FFFFFF,14
2919,Harrison St & Hamilton Pl,37.814881,-122.259572,33,33,2B589C,FFFFFF,15
2924,Harrison St & West Lake Middle School,37.814059,-122.260561,33,33,2B589C,FFFFFF,16
6017,Harrison St & Grand Av,37.810647,-122.262669,33,33,2B589C,FFFFFF,17
2101,TL Berkley Way (20th St)  & Webster St (Kaiser Ct),37.808435,-122.265725,33,33,2B589C,FFFFFF,18
2096,Thomas L Berkley Way & Franklin St (19th St BART),37.808793,-122.267307,33,33,2B589C,FFFFFF,19
5224,Broadway & 17th St (19th St BART),37.806323,-122.270078,33,33,2B589C,FFFFFF,20
6096,Broadway & 13th St,37.803792,-122.271693,33,33,2B589C,FFFFFF,21
2034,11th St & Franklin St,37.801544,-122.270868,33,33,2B589C,FFFFFF,22
3659,11th St & Harrison St,37.800637,-122.268588,33,33,2B589C,FFFFFF,23
6095,11th St & Jackson St,37.799722,-122.266262,33,33,2B589C,FFFFFF,24
2092,1st Av & International Blvd,37.799061,-122.256512,33,33,2B589C,FFFFFF,25
3024,Lakeshore Av & E 18th St,37.800275,-122.254420,33,33,2B589C,FFFFFF,26
2679,E 18th St & 3rd Av,37.799727,-122.252300,33,33,2B589C,FFFFFF,27
3333,4th Av & E 18th St,37.799358,-122.250541,33,33,2B589C,FFFFFF,28
3358,Park Blvd & Newton Av,37.800315,-122.248497,33,33,2B589C,FFFFFF,29
3349,Park Blvd & Ivy Dr,37.801388,-122.246158,33,33,2B589C,FFFFFF,30
6273,Park Blvd & 7th Ave,37.802310,-122.241360,33,33,2B589C,FFFFFF,31
6274,Park Blvd & E 28th St,37.803030,-122.237020,33,33,2B589C,FFFFFF,32
3354,Park Blvd & MacArthur Blvd (Oakland High School),37.803845,-122.233830,33,33,2B589C,FFFFFF,33
3350,Park Blvd & Kingsley St,37.804653,-122.231288,33,33,2B589C,FFFFFF,34
3339,Park Blvd & E 38th St,37.804396,-122.229594,33,33,2B589C,FFFFFF,35
3346,Park Blvd & Greenwood Av,37.804632,-122.228047,33,33,2B589C,FFFFFF,36
3344,Park Blvd & Glen Park Rd,37.806053,-122.225004,33,33,2B589C,FFFFFF,37
3345,Park Blvd & Glenfield Av,37.807258,-122.222379,33,33,2B589C,FFFFFF,38
3342,Park Blvd & Everett Av,37.808655,-122.219005,33,33,2B589C,FFFFFF,39
3332,Park Blvd & Dolores Av,37.810085,-122.216971,33,33,2B589C,FFFFFF,40
3348,Park Blvd & Hollywood Av,37.811593,-122.215330,33,33,2B589C,FFFFFF,41
3351,Park Blvd & Leimert Blvd,37.813059,-122.214022,33,33,2B589C,FFFFFF,42
3362,Park Blvd & Zion Lutheran Church & School,37.818615,-122.209914,33,33,2B589C,FFFFFF,43
3309,Mountain Blvd & Snake Rd,37.824350,-122.208913,33,33,2B589C,FFFFFF,44
3689,Mountain Blvd & Moraga Av,37.825505,-122.209505,33,33,2B589C,FFFFFF,45
3667,Martin Luther King Jr Way & 11th St,37.803960,-122.277255,20,20,07B5D0,000000,1
2033,11th St & Clay St,37.802963,-122.274464,20,20,07B5D0,000000,2
2030,11th St & Broadway (12th St BART),37.802268,-122.272747,20,20,07B5D0,000000,3
5338,Broadway & 9th St,37.801197,-122.273313,20,20,07B5D0,000000,4
2247,7th St & Franklin St,37.799014,-122.273177,20,20,07B5D0,000000,5
210,Webster St & Willie Stargell Av,37.782860,-122.276770,20,20,07B5D0,000000,6
166,Webster St & Ralph Appezzato Memorial Pkwy,37.779082,-122.276692,20,20,07B5D0,000000,7
167,Webster St & Buena Vista Av,37.777035,-122.276769,20,20,07B5D0,000000,8
185,Webster St & Lincoln Av,37.774893,-122.276819,20,20,07B5D0,000000,9
169,Webster St & Santa Clara Av,37.773067,-122.276890,20,20,07B5D0,000000,10
24,Central Av & Webster St,37.771353,-122.276397,20,20,07B5D0,000000,11
19,Central Av & 8th St,37.771233,-122.273248,20,20,07B5D0,000000,12
2,8th St & Portola Av,37.768814,-122.272992,20,20,07B5D0,000000,13
113,Otis Dr & Westline Dr,37.766071,-122.271104,20,20,07B5D0,000000,14
6246,Otis Dr & Larchmont Isle,37.764664,-122.266761,20,20,07B5D0,000000,15
6248,Grand St & Otis Dr,37.762617,-122.262419,20,20,07B5D0,000000,16
48,433 Grand St (Opp. Wood Middle School),37.761634,-122.262987,20,20,07B5D0,000000,17
155,Shoreline Dr & Grand St,37.759281,-122.263768,20,20,07B5D0,000000,18
156,Shoreline Dr & Kitty Hawk Rd,37.758150,-122.260725,20,20,07B5D0,000000,19
174,Willow St & Shoreline Dr,37.757074,-122.256420,20,20,07B5D0,000000,20
172,Willow St & Franciscan Way,37.758264,-122.255749,20,20,07B5D0,000000,21
170,Whitehall Pl & Willow St,37.759409,-122.254771,20,20,07B5D0,000000,22
159,Alameda South Shore Center & Kohl's,37.758749,-122.253198,20,20,07B5D0,000000,23
189,Alameda South Shore Center At Park St,37.756778,-122.249165,20,20,07B5D0,000000,24
124,Park St & Otis Dr,37.757783,-122.248133,20,20,07B5D0,000000,25
126,Park St & San Jose Av,37.760726,-122.245636,20,20,07B5D0,000000,26
184,Park St & Encinal Av,37.762793,-122.243930,20,20,07B5D0,000000,27
182,Park St & Santa Clara Av,37.765601,-122.241575,20,20,07B5D0,000000,28
6016,Park St & Buena Vista Av,37.768309,-122.239272,20,20,07B5D0,000000,29
121,Park St & Clement Av,37.769631,-122.238167,20,20,07B5D0,000000,30
119,Park St & Blanding Av,37.770456,-122.237469,20,20,07B5D0,000000,31
6035,29th Av & Glascock St,37.772679,-122.235384,20,20,07B5D0,000000,32
5745,29th Av & E 10th St,37.776698,-122.231502,20,20,07B5D0,000000,33
2601,E 12th St & 29th Av,37.777883,-122.230065,20,20,07B5D0,000000,34
2841,Fruitvale BART,37.775340,-122.225114,20,20,07B5D0,000000,35
5276,Fruitvale Av & International Blvd,37.777902,-122.225601,20,20,07B5D0,000000,36
5260,Fruitvale Av & E 16th St,37.780577,-122.224272,20,20,07B5D0,000000,37
5261,Fruitvale Av & E 18th St,37.782210,-122.223446,20,20,07B5D0,000000,38
2829,Fruitvale Av & Foothill Blvd,37.783946,-122.222613,20,20,07B5D0,000000,39
2825,Fruitvale Av & E 23rd St,37.785323,-122.222074,20,20,07B5D0,000000,40
5262,Fruitvale Av & Logan St,37.787840,-122.221053,20,20,07B5D0,000000,41
5858,Fruitvale Av & Blossom St,37.789598,-122.220359,20,20,07B5D0,000000,42
5263,Fruitvale Av & Lynde St,37.791395,-122.219632,20,20,07B5D0,000000,43
5264,Fruitvale Av & Brookdale Av,37.793439,-122.218821,20,20,07B5D0,000000,44
2835,Fruitvale Av & School St,37.795589,-122.217971,20,20,07B5D0,000000,45
2834,Fruitvale Av & Pleasant St,37.797024,-122.217400,20,20,07B5D0,000000,46
2831,Fruitvale Av & MacArthur Blvd,37.800099,-122.216343,20,20,07B5D0,000000,47
5308,Foothill Blvd & 108th Av,37.743464,-122.147794,45,45,2B589C,FFFFFF,1
5248,MacArthur Blvd & 108th Av,37.742106,-122.151133,45,45,2B589C,FFFFFF,2
2018,106th Av & Longfellow Av,37.742083,-122.155190,45,45,2B589C,FFFFFF,3
2017,106th Av & Bancroft Av,37.741659,-122.156722,45,45,2B589C,FFFFFF,4
2007,104th Av & Sunnyside St,37.742190,-122.159603,45,45,2B589C,FFFFFF,5
2002,104th Av & Birch St,37.741634,-122.162038,45,45,2B589C,FFFFFF,6
2005,104th Av & Plymouth St,37.741064,-122.164479,45,45,2B589C,FFFFFF,7
5760,International Blvd & 105th Av,37.739333,-122.166963,45,45,2B589C,FFFFFF,8
2012,105th Av & Graffian St,37.738394,-122.168751,45,45,2B589C,FFFFFF,9
2008,105th Av & E St,37.736573,-122.172634,45,45,2B589C,FFFFFF,10
2014,105th Av & San Leandro St,37.735645,-122.174649,45,45,2B589C,FFFFFF,11
2010,105th Av & Edes Av,37.733441,-122.178264,45,45,2B589C,FFFFFF,12
2355,Acalanes Dr & Capistrano Dr,37.732163,-122.177845,45,45,2B589C,FFFFFF,13
2357,Acalanes Dr & Colorados Dr,37.730764,-122.176201,45,45,2B589C,FFFFFF,14
2354,Acalanes Dr & Bergedo Dr,37.730021,-122.175125,45,45,2B589C,FFFFFF,15
2356,Acalanes Dr & Catron Dr,37.728053,-122.172419,45,45,2B589C,FFFFFF,16
2528,Catron Dr & Reposo Dr,37.727146,-122.174122,45,45,2B589C,FFFFFF,17
2527,Catron Dr & Bergedo Dr,37.726123,-122.175516,45,45,2B589C,FFFFFF,18
2747,Estepa Dr & Bergedo Dr,37.728649,-122.175547,45,45,2B589C,FFFFFF,19
2748,Estepa Dr & El Paseo Dr,37.728722,-122.177345,45,45,2B589C,FFFFFF,20
3581,Topanga Dr & Capistrano Dr (James Madison Mid. S),37.728266,-122.179059,45,45,2B589C,FFFFFF,21
2525,Capistrano Dr & Almanza Dr,37.730828,-122.178495,45,45,2B589C,FFFFFF,22
2524,Capistrano Dr & Acalanes Dr,37.732143,-122.178153,45,45,2B589C,FFFFFF,23
2353,Acalanes Dr & 105th Av,37.732904,-122.178389,45,45,2B589C,FFFFFF,24
2718,Edes Av & Hale Av,37.734797,-122.179943,45,45,2B589C,FFFFFF,25
2716,Edes Av & 98th Av,37.736398,-122.182896,45,45,2B589C,FFFFFF,26
2724,Edes Av & Tyler St,37.737093,-122.185479,45,45,2B589C,FFFFFF,27
2717,Edes Av & Clara St,37.737759,-122.187925,45,45,2B589C,FFFFFF,28
2723,Edes Av & Phelps St,37.738670,-122.191238,45,45,2B589C,FFFFFF,29
3694,Edes Av & 85th Av,37.739017,-122.192600,45,45,2B589C,FFFFFF,30
6215,8475 Edes Av,37.740251,-122.194520,45,45,2B589C,FFFFFF,31
2939,Hegenberger Rd & Edes Av,37.745073,-122.195849,45,45,2B589C,FFFFFF,32
2935,Hegenberger Rd & Baldwin St,37.747417,-122.195885,45,45,2B589C,FFFFFF,33
3402,San Leandro St & Coliseum BART,37.753539,-122.196867,45,45,2B589C,FFFFFF,34
3397,San Leandro St & 66th Av,37.756782,-122.200507,45,45,2B589C,FFFFFF,35
3450,Seminary Av & Div 4 Gate (Near San Leandro St),37.761382,-122.204759,45,45,2B589C,FFFFFF,36
3469,Seminary Av & Tevis St,37.762742,-122.202817,45,45,2B589C,FFFFFF,37
3451,Seminary Av & International Blvd,37.764991,-122.199622,45,45,2B589C,FFFFFF,38
3453,Seminary Av & E 17th St,37.766484,-122.197496,45,45,2B589C,FFFFFF,39
3444,Seminary Av & Bromley Av,37.767138,-122.196566,45,45,2B589C,FFFFFF,40
3455,Seminary Av & Harmon Av,37.768124,-122.195161,45,45,2B589C,FFFFFF,41
3458,Seminary Av & Hilton St,37.769435,-122.193300,45,45,2B589C,FFFFFF,42
3443,Seminary Av & Bancroft Av,37.770728,-122.191454,45,45,2B589C,FFFFFF,43
5344,Seminary Av & Foothill Blvd,37.771778,-122.189949,45,45,2B589C,FFFFFF,44
3466,Seminary Av & Roberts Av,37.773725,-122.187243,45,45,2B589C,FFFFFF,45
3446,Seminary Av & Camden St (MacArthur Blvd),37.775283,-122.185413,45,45,2B589C,FFFFFF,46
3460,Seminary Av & MacArthur Blvd,37.776696,-122.183478,45,45,2B589C,FFFFFF,47
3459,Seminary Av & Laird Av,37.777987,-122.181861,45,45,2B589C,FFFFFF,48
3464,Seminary Av & Outlook Av,37.779463,-122.180616,45,45,2B589C,FFFFFF,49
3462,Seminary Av & Oakdale Av,37.779805,-122.178461,45,45,2B589C,FFFFFF,50
3457,Seminary Av & Hillmont Dr,37.779866,-122.177141,45,45,2B589C,FFFFFF,51
2982,Hillmont Dr & Overdale Av,37.779135,-122.174970,45,45,2B589C,FFFFFF,52
2976,Hillmont Dr & Archmont Pl,37.778320,-122.172765,45,45,2B589C,FFFFFF,53
2980,Hillmont Dr & Gardenia Pl,37.777091,-122.171484,45,45,2B589C,FFFFFF,54
2977,Hillmont Dr & Edgemoor Pl,37.775589,-122.170575,45,45,2B589C,FFFFFF,55
2984,Hillmont Dr & Sunkist Dr,37.774546,-122.169749,45,45,2B589C,FFFFFF,56
2711,Eastmont Transit Center,37.768992,-122.173903,45,45,2B589C,FFFFFF,57
1033,Fremont BART,37.557496,-121.976025,801,801,BC8E2D,000000,1
6242,Walnut Av & Paseo Padre Pkwy,37.551602,-121.978228,801,801,BC8E2D,000000,2
1403,Walnut Av & Liberty St,37.549156,-121.980166,801,801,BC8E2D,000000,3
1339,Walnut Av & Fremont Blvd,37.546436,-121.982232,801,801,BC8E2D,000000,4
1046,Fremont Blvd & Beacon Av,37.546940,-121.984824,801,801,BC8E2D,000000,5
1084,Fremont Blvd & Mowry Av,37.548307,-121.987415,801,801,BC8E2D,000000,6
1040,38932 Fremont Blvd (Near Mowry Av),37.549489,-121.989737,801,801,BC8E2D,000000,7
1054,Fremont Blvd & Country Dr,37.551033,-121.992770,801,801,BC8E2D,000000,8
1066,Fremont Blvd & Eggers Dr,37.552947,-121.996513,801,801,BC8E2D,000000,9
1088,Fremont Blvd & Village Ter,37.554474,-121.999485,801,801,BC8E2D,000000,10
1051,Fremont Blvd & Centerville Jr High School,37.555719,-122.001914,801,801,BC8E2D,000000,11
6217,Fremont Blvd:Central Av,37.556817,-122.004060,801,801,BC8E2D,000000,12
1094,Fremont Blvd & Peralta Ct,37.558545,-122.007441,801,801,BC8E2D,000000,13
1043,Fremont Blvd & Alder Av (American Sr High School),37.563424,-122.016985,801,801,BC8E2D,000000,14
1086,Fremont Blvd & Nicolet Av,37.566684,-122.023561,801,801,BC8E2D,000000,15
1101,Fremont Blvd & Tamayo St,37.567837,-122.025898,801,801,BC8E2D,000000,16
1023,Decoto Rd & Fremont Blvd,37.571627,-122.031504,801,801,BC8E2D,000000,17
1412,Decoto Rd & Brookmill Dr,37.574771,-122.028604,801,801,BC8E2D,000000,18
4617,Decoto Rd & Clover St (Royal Ann Dr),37.580556,-122.023761,801,801,BC8E2D,000000,19
4623,Decoto Rd & Perry Rd,37.583326,-122.022780,801,801,BC8E2D,000000,20
4616,Decoto Rd & Alvarado-Niles Rd,37.586541,-122.021692,801,801,BC8E2D,000000,21
4628,Decoto Rd & Union Square,37.590314,-122.020371,801,801,BC8E2D,000000,22
4668,Union City BART,37.589744,-122.016645,801,801,BC8E2D,000000,23
5194,Decoto Rd & Eleventh St,37.594066,-122.019027,801,801,BC8E2D,000000,24
4618,Decoto Rd & Depot Rd,37.595544,-122.018492,801,801,BC8E2D,000000,25
4626,Decoto Rd & Seventh St,37.597397,-122.017837,801,801,BC8E2D,000000,26
4620,Decoto Rd & 3rd St,37.601115,-122.016513,801,801,BC8E2D,000000,27
4646,Mission Blvd & Whipple Rd,37.606819,-122.020454,801,801,BC8E2D,000000,28
4644,Mission Blvd & Tamarack Dr,37.609004,-122.023060,801,801,BC8E2D,000000,29
4642,Mission Blvd & Lafayette Av,37.611818,-122.026254,801,801,BC8E2D,000000,30
1680,Mission Blvd & Blanche St,37.615126,-122.030005,801,801,BC8E2D,000000,31
6218,Mission Blvd:Corrine St(Gresel St),37.618978,-122.034450,801,801,BC8E2D,000000,32
1684,Mission Blvd & Fairway St,37.622610,-122.038581,801,801,BC8E2D,000000,33
1678,Mission Blvd & Arrowhead Way,37.625818,-122.042322,801,801,BC8E2D,000000,34
1686,Mission Blvd & Garin Av,37.627510,-122.044244,801,801,BC8E2D,000000,35
1676,Mission Blvd & Alquire Pkwy,37.630097,-122.047171,801,801,BC8E2D,000000,36
1705,Mission Blvd & Valle Vista Av,37.633872,-122.051510,801,801,BC8E2D,000000,37
1753,South Hayward BART,37.634762,-122.056809,801,801,BC8E2D,000000,38
1702,Mission Blvd & Tennyson Rd,37.636846,-122.054663,801,801,BC8E2D,000000,39
5280,Mission Blvd & Hancock St,37.639140,-122.057155,801,801,BC8E2D,000000,40
1682,Mission Blvd & Calhoun St,37.642274,-122.059749,801,801,BC8E2D,000000,41
1697,Mission Blvd & Sorenson Rd,37.646732,-122.063270,801,801,BC8E2D,000000,42
5223,Mission Blvd & Holy Sepulchre Cemetery,37.648792,-122.064964,801,801,BC8E2D,000000,43
1691,Mission Blvd & Harder Rd,37.651771,-122.067281,801,801,BC8E2D,000000,44
5281,Mission Blvd & Torrano Av,37.655038,-122.069779,801,801,BC8E2D,000000,45
5282,Mission Blvd & Central Blvd,37.657684,-122.071850,801,801,BC8E2D,000000,46
5283,Mission Blvd & Carlos Bee Blvd,37.660689,-122.074048,801,801,BC8E2D,000000,47
1692,Mission Blvd & Highland Blvd,37.663947,-122.076659,801,801,BC8E2D,000000,48
5254,Fletcher Lane & Watkins St,37.666345,-122.079804,801,801,BC8E2D,000000,49
5255,Watkins St & Jackson St,37.668130,-122.081792,801,801,BC8E2D,000000,50
5256,Watkins St & C St,37.670797,-122.084265,801,801,BC8E2D,000000,51
1583,Hayward BART,37.670102,-122.087087,801,801,BC8E2D,000000,52
5257,Main St & B St,37.673237,-122.082963,801,801,BC8E2D,000000,53
1687,Mission Blvd & Grace St,37.674987,-122.087245,801,801,BC8E2D,000000,54
1698,Mission Blvd & Sunset Blvd,37.677816,-122.090728,801,801,BC8E2D,000000,55
4901,Mission Blvd & Grove Way,37.680574,-122.094192,801,801,BC8E2D,000000,56
4895,Mission Blvd & Blossom Way,37.681871,-122.095786,801,801,BC8E2D,000000,57
4898,Mission Blvd & Cherry Way,37.683221,-122.097476,801,801,BC8E2D,000000,58
4903,Mission Blvd & Medford Av,37.684938,-122.099573,801,801,BC8E2D,000000,59
4899,Mission Blvd & E Lewelling Blvd,37.688213,-122.104055,801,801,BC8E2D,000000,60
6250,E 14th St & 170th Av,37.690687,-122.107655,801,801,BC8E2D,000000,61
6252,E 14th St & 167th Av,37.692473,-122.110181,801,801,BC8E2D,000000,62
6254,E 14th St & 164th Av,37.695000,-122.113787,801,801,BC8E2D,000000,63
6255,E 14th St & 163rd Av,37.696313,-122.115654,801,801,BC8E2D,000000,64
4443,E 14th St & Ashland Av,37.698644,-122.119007,801,801,BC8E2D,000000,65
4702,159th Av & E 14th St,37.699342,-122.121197,801,801,BC8E2D,000000,66
4232,Coelho Dr & Mooney Av,37.698392,-122.124750,801,801,BC8E2D,000000,67
5550,Bay Fair BART,37.696787,-122.126088,801,801,BC8E2D,000000,68
4765,Coelho Dr & Mooney Av,37.698266,-122.124512,801,801,BC8E2D,000000,69
5210,E 14th St & 159th Av,37.700267,-122.121250,801,801,BC8E2D,000000,70
4787,E 14th St & Bayfair Dr,37.702164,-122.123931,801,801,BC8E2D,000000,71
4776,E 14th St & 153rd Av,37.703826,-122.126300,801,801,BC8E2D,000000,72
4257,E 14th St & 150th Av,37.706090,-122.129525,801,801,BC8E2D,000000,73
4255,E 14th St & 148th Av,37.708431,-122.132870,801,801,BC8E2D,000000,74
4254,E 14th St & 145th Av,37.710476,-122.135808,801,801,BC8E2D,000000,75
4252,E 14th St & 143rd Av,37.711914,-122.137859,801,801,BC8E2D,000000,76
4250,E 14th St & 141st Av,37.712841,-122.139200,801,801,BC8E2D,000000,77
4274,E 14th St & San Leandro Blvd,37.715513,-122.142831,801,801,BC8E2D,000000,78
4260,E 14th St & Blossom Way,37.718035,-122.146340,801,801,BC8E2D,000000,79
5228,E 14th St & Estabrook St,37.719451,-122.148246,801,801,BC8E2D,000000,80
4278,E 14th St & Sybil Av,37.720667,-122.149883,801,801,BC8E2D,000000,81
4265,E 14th St & Dolores Av,37.723105,-122.153152,801,801,BC8E2D,000000,82
4270,E 14th St & Joaquin Av,37.724218,-122.154681,801,801,BC8E2D,000000,83
5763,Davis St & Clarke St,37.725047,-122.158908,801,801,BC8E2D,000000,84
4369,San Leandro BART,37.721441,-122.160269,801,801,BC8E2D,000000,85
1998,Ohlone College Newark Campus,37.517855,-122.004736,251,251,07B5D0,000000,1
1917,Cherry St & Jasmine Av,37.521718,-122.011831,251,251,07B5D0,000000,2
1918,Cherry St & Moores Av,37.523424,-122.015135,251,251,07B5D0,000000,3
1922,Cherry St & Smith Av,37.525247,-122.018652,251,251,07B5D0,000000,4
1920,Cherry St & Robertson Av,37.527144,-122.022305,251,251,07B5D0,000000,5
1999,Central Av & Cherry St,37.529523,-122.024929,251,251,07B5D0,000000,6
1949,Newark Blvd & Central Av,37.532266,-122.023075,251,251,07B5D0,000000,7
1952,Newark Blvd & Civic Terrace Av,37.536163,-122.028949,251,251,07B5D0,000000,8
1963,Newark Blvd & Thornton Av,37.536712,-122.030010,251,251,07B5D0,000000,9
1978,Thornton Av & Mayhews Landing Rd,37.539423,-122.028425,251,251,07B5D0,000000,10
1983,Thornton Av & Ruschin Dr,37.540766,-122.027332,251,251,07B5D0,000000,11
1332,Thornton Av & Dondero Way,37.549338,-122.020473,251,251,07B5D0,000000,12
1330,Thornton Av & Cabrillo Dr,37.552407,-122.017976,251,251,07B5D0,000000,13
1331,Thornton Av & Contra Costa Av,37.555131,-122.015742,251,251,07B5D0,000000,14
1333,Thornton Av & Dusterberry Way (Thornton Jr High),37.556369,-122.014786,251,251,07B5D0,000000,15
1335,Thornton Av & Fremont Blvd,37.561104,-122.011247,251,251,07B5D0,000000,16
1337,Thornton Av & Moraine St,37.562746,-122.009169,251,251,07B5D0,000000,17
1278,Paseo Padre Pkwy & Sequoia Rd,37.563369,-122.002589,251,251,07B5D0,000000,18
1269,Paseo Padre Pkwy & Peralta Blvd,37.560589,-121.994834,251,251,07B5D0,000000,19
1248,Paseo Padre Pkwy & Eggers Dr,37.558339,-121.990814,251,251,07B5D0,000000,20
1239,Paseo Padre Pkwy & Country Dr,37.556421,-121.986964,251,251,07B5D0,000000,21
6103,Paseo Padre Pkwy & Mowry Av,37.554784,-121.983781,251,251,07B5D0,000000,22
5208,39199 Paseo Padre Pkwy,37.552916,-121.980160,251,251,07B5D0,000000,23
6243,Walnut Av & Paseo Padre Pkwy,37.552276,-121.977420,251,251,07B5D0,000000,24
5547,Fremont BART,37.557205,-121.975609,251,251,07B5D0,000000,25
4733,Castro Valley BART,37.691566,-122.074873,93,93,07B5D0,000000,1
4934,Redwood Rd & Norbridge Av,37.692213,-122.074034,93,93,07B5D0,000000,2
4935,Redwood Rd & Vegas Av,37.689600,-122.073832,93,93,07B5D0,000000,3
4933,Redwood Rd & Lessley Av,37.686982,-122.073794,93,93,07B5D0,000000,4
800,Redwood Rd & Grove Way,37.684510,-122.073746,93,93,07B5D0,000000,5
4833,Grove Way & N 5th St,37.684262,-122.076759,93,93,07B5D0,000000,6
4836,Grove Way & Orange Av,37.684332,-122.079763,93,93,07B5D0,000000,7
4837,Grove Way & Tanglewood Dr,37.684510,-122.082404,93,93,07B5D0,000000,8
4830,Grove Way & Gail Dr,37.685926,-122.086700,93,93,07B5D0,000000,9
4831,Grove Way & Gary Dr,37.685083,-122.088627,93,93,07B5D0,000000,10
1569,Foothill Blvd & Grove Way,37.683307,-122.089987,93,93,07B5D0,000000,11
1498,City Center Dr & Foothill Blvd (N Jctn),37.680340,-122.084622,93,93,07B5D0,000000,12
1496,City Center Dr & Centennial Hall,37.679526,-122.081914,93,93,07B5D0,000000,13
1566,Foothill Blvd & City Center Dr (South Jctn),37.676896,-122.083225,93,93,07B5D0,000000,14
5252,Foothill Blvd & A St,37.675398,-122.082258,93,93,07B5D0,000000,15
1474,B St & Mission Blvd,37.671950,-122.084393,93,93,07B5D0,000000,16
1585,Hayward BART,37.669744,-122.086774,93,93,07B5D0,000000,17
1530,D St & Atherton St,37.668785,-122.084227,93,93,07B5D0,000000,18
1442,A St & Flagg St,37.669886,-122.092856,93,93,07B5D0,000000,19
1441,A St & Filbert St,37.668723,-122.095696,93,93,07B5D0,000000,20
4717,A St & Meekland Av Access Rd,37.667737,-122.097893,93,93,07B5D0,000000,21
1445,A St & Hathaway Av,37.666633,-122.103222,93,93,07B5D0,000000,22
5258,W A St & Arbor Av,37.666513,-122.106085,93,93,07B5D0,000000,23
4979,W A St & Garden Av,37.666265,-122.110372,93,93,07B5D0,000000,24
4981,W A St & Royal Av,37.666082,-122.113618,93,93,07B5D0,000000,25
4980,W A St & Hesperian Blvd,37.665841,-122.117863,93,93,07B5D0,000000,26
4856,Hesperian Blvd & W Sunset Blvd,37.667103,-122.118778,93,93,07B5D0,000000,27
4846,Hesperian Blvd & Bartlett Av,37.669093,-122.120027,93,93,07B5D0,000000,28
5023,Bockman Rd & Via Arriba,37.671314,-122.122717,93,93,07B5D0,000000,29
5024,Bockman Rd & Via Media,37.670942,-122.128017,93,93,07B5D0,000000,30
4724,Bockman Rd & Via Alamitos,37.670635,-122.131089,93,93,07B5D0,000000,31
4727,Bockman Rd & Via Chiquita,37.670334,-122.134109,93,93,07B5D0,000000,32
4723,Bockman Rd & Channel St,37.670164,-122.138168,93,93,07B5D0,000000,33
5025,Bockman Rd & Via Sonora,37.670573,-122.140744,93,93,07B5D0,000000,34
5026,Bockman Rd & Via Toyon,37.671092,-122.144037,93,93,07B5D0,000000,35
5304,Bockman Rd & Via Amigos,37.671379,-122.145865,93,93,07B5D0,000000,36
5042,Bockman Rd & Via Walter,37.671625,-122.147291,93,93,07B5D0,000000,37
5027,Grant Av & Bockman Rd,37.673691,-122.149735,93,93,07B5D0,000000,38
5028,Grant Av &  Via Nueva,37.675037,-122.147034,93,93,07B5D0,000000,39
5029,Grant Av & Channel St,37.677387,-122.142089,93,93,07B5D0,000000,40
5030,Grant Av & Nielson Av,37.678375,-122.139570,93,93,07B5D0,000000,41
4978,Via Alamitos & Grant Av,37.678994,-122.136647,93,93,07B5D0,000000,42
4927,Paseo Grande & Via Olinda,37.676820,-122.134372,93,93,07B5D0,000000,43
4926,Paseo Grande & Via Media,37.678013,-122.130748,93,93,07B5D0,000000,44
4918,Paseo Grande & Hesperian Blvd,37.679504,-122.126227,93,93,07B5D0,000000,45
4928,Paseo Grande & Via Toledo,37.682481,-122.121604,93,93,07B5D0,000000,46
4924,Paseo Grande & Via Cordoba,37.683297,-122.120215,93,93,07B5D0,000000,47
6226,Meekland Av & Paseo Grande,37.684760,-122.116700,93,93,07B5D0,000000,48
4789,E Lewelling Blvd & Meekland Av,37.686732,-122.117394,93,93,07B5D0,000000,49
4718,Ashland Av & E Lewelling Blvd,37.687220,-122.118979,93,93,07B5D0,000000,50
4719,Ashland Av & Galway Dr,37.690371,-122.118908,93,93,07B5D0,000000,51
4774,Delano St & Ashland Av,37.693222,-122.119267,93,93,07B5D0,000000,52
4792,Elgin St & Linnea Av,37.695379,-122.123543,93,93,07B5D0,000000,53
6093,Bay Fair BART,37.696592,-122.125835,93,93,07B5D0,000000,54
5189,Union Landing Transit Center,37.598663,-122.066014,210,210,2B589C,FFFFFF,1
4633,Dyer St & San Carlos Way,37.595799,-122.070806,210,210,2B589C,FFFFFF,2
5891,Dyer St & Santa Susana Av,37.592665,-122.068948,210,210,2B589C,FFFFFF,3
4582,Alvarado Blvd & Dyer St,37.589343,-122.069233,210,210,2B589C,FFFFFF,4
4588,Alvarado Blvd & Galaxy Dr,37.588246,-122.067271,210,210,2B589C,FFFFFF,5
990,Alvarado Blvd & Falcon Dr,37.584580,-122.060671,210,210,2B589C,FFFFFF,6
993,Alvarado Blvd & Merganser Dr,37.582852,-122.057163,210,210,2B589C,FFFFFF,7
989,Alvarado Blvd & Deep Creek Rd,37.580234,-122.051906,210,210,2B589C,FFFFFF,8
1068,Fremont Blvd & Enea Ct,37.575627,-122.042519,210,210,2B589C,FFFFFF,9
1092,Fremont Blvd & Paseo Padre Pkwy,37.574695,-122.040614,210,210,2B589C,FFFFFF,10
1069,Fremont Blvd & Ferry Ln,37.572008,-122.035120,210,210,2B589C,FFFFFF,11
1059,Fremont Blvd & Decoto Rd,37.570184,-122.031460,210,210,2B589C,FFFFFF,12
1100,Fremont Blvd & Tamayo St,37.567713,-122.026433,210,210,2B589C,FFFFFF,13
1085,Fremont Blvd & Nicolet Av,37.565696,-122.022225,210,210,2B589C,FFFFFF,14
1071,Fremont Blvd & Gibraltar Dr,37.564323,-122.019463,210,210,2B589C,FFFFFF,15
1044,Fremont Blvd & Alder Av (American Sr High School),37.562291,-122.015315,210,210,2B589C,FFFFFF,16
6117,Fremont Blvd & Thornton Av,37.560332,-122.011478,210,210,2B589C,FFFFFF,17
1049,Fremont Blvd & Bonde Way,37.558916,-122.008553,210,210,2B589C,FFFFFF,18
6276,Fremont Blvd & Peralta Blvd,37.557886,-122.006580,210,210,2B589C,FFFFFF,19
1052,Fremont Blvd & Central Av,37.556094,-122.003174,210,210,2B589C,FFFFFF,20
1087,Fremont Blvd & Norris Rd,37.554525,-122.000116,210,210,2B589C,FFFFFF,21
1065,Fremont Blvd & Eggers Dr,37.552744,-121.996647,210,210,2B589C,FFFFFF,22
1078,Fremont Blvd & London Com,37.550739,-121.992839,210,210,2B589C,FFFFFF,23
1083,Fremont Blvd & Mowry Av,37.548003,-121.987554,210,210,2B589C,FFFFFF,24
1045,Fremont Blvd & Beacon Av,37.546558,-121.984742,210,210,2B589C,FFFFFF,25
1098,Fremont Blvd & Sundale Dr,37.544786,-121.981343,210,210,2B589C,FFFFFF,26
1047,Fremont Blvd & Bidwell Dr,37.542266,-121.976352,210,210,2B589C,FFFFFF,27
1097,Fremont Blvd & Stevenson Blvd,37.540166,-121.972393,210,210,2B589C,FFFFFF,28
1073,Fremont Blvd & Grimmer Blvd,37.535938,-121.964801,210,210,2B589C,FFFFFF,29
1089,Fremont Blvd & Papazian Way,37.534016,-121.961417,210,210,2B589C,FFFFFF,30
6115,Washington Blvd & Fremont Blvd,37.532617,-121.958363,210,210,2B589C,FFFFFF,31
1373,Washington Blvd & Bruce Dr,37.533320,-121.951992,210,210,2B589C,FFFFFF,32
1385,Washington Blvd & Olive Av,37.533266,-121.949650,210,210,2B589C,FFFFFF,33
1384,Washington Blvd & Meredith Dr,37.531703,-121.944690,210,210,2B589C,FFFFFF,34
1375,Washington Blvd & Castillejo Rd,37.530873,-121.940346,210,210,2B589C,FFFFFF,35
1383,Washington Blvd & Luzon Dr,37.531060,-121.938085,210,210,2B589C,FFFFFF,36
1388,Washington Blvd & Palm Av,37.531843,-121.932262,210,210,2B589C,FFFFFF,37
1380,Washington Blvd & Gallegos Av,37.532157,-121.929452,210,210,2B589C,FFFFFF,38
1382,Washington Blvd & Jerome Av,37.532533,-121.926416,210,210,2B589C,FFFFFF,39
1374,Washington Blvd & Bryant St,37.532951,-121.923013,210,210,2B589C,FFFFFF,40
1008,Bryant St & Cedar St,37.530047,-121.921989,210,210,2B589C,FFFFFF,41
1009,Bryant St & Pine St,37.525866,-121.920699,210,210,2B589C,FFFFFF,42
1222,Ohlone College-Key D,37.530161,-121.911290,210,210,2B589C,FFFFFF,43
1221,Ohlone College-Key C,37.528350,-121.913386,210,210,2B589C,FFFFFF,44
5844,Salesforce Transit Center Bay 32,37.789949,-122.395668,F,F,2B589C,FFFFFF,1
958,Christie St & Powell Street Plaza Shopping Center,37.837433,-122.294490,F,F,2B589C,FFFFFF,2
982,Shellmound St & Bay St,37.833348,-122.293641,F,F,2B589C,FFFFFF,3
971,40th St & Horton St,37.829439,-122.287267,F,F,2B589C,FFFFFF,4
950,40th St & Hollis St,37.829901,-122.284882,F,F,2B589C,FFFFFF,5
948,40th St & Harlan St,37.830189,-122.283446,F,F,2B589C,FFFFFF,6
947,40th St & Emery St,37.830607,-122.281322,F,F,2B589C,FFFFFF,7
974,40th St & San Pablo Av,37.831030,-122.279367,F,F,2B589C,FFFFFF,8
3185,Market St & 40th St,37.830886,-122.273785,F,F,2B589C,FFFFFF,9
3189,Market St & 45th St,37.834341,-122.272910,F,F,2B589C,FFFFFF,10
5880,Market St & 53rd St,37.837797,-122.273517,F,F,2B589C,FFFFFF,11
3194,Market St & 55th St,37.839138,-122.273795,F,F,2B589C,FFFFFF,12
3203,Market St & Arlington Av,37.842233,-122.274463,F,F,2B589C,FFFFFF,13
3197,Market St & 59th St,37.844090,-122.274908,F,F,2B589C,FFFFFF,14
3534,Stanford Av & King St,37.845978,-122.272847,F,F,2B589C,FFFFFF,15
279,Adeline St & Alcatraz Av,37.849115,-122.271091,F,F,2B589C,FFFFFF,16
284,Adeline St & Fairview St,37.851003,-122.270477,F,F,2B589C,FFFFFF,17
283,Adeline St & Ashby BART,37.852913,-122.269542,F,F,2B589C,FFFFFF,18
281,Adeline St & Ashby Av,37.855424,-122.268619,F,F,2B589C,FFFFFF,19
286,Adeline St & Oregon St,37.857758,-122.267728,F,F,2B589C,FFFFFF,20
666,Shattuck Av & Parker St,37.862092,-122.266997,F,F,2B589C,FFFFFF,21
661,Shattuck Av & Dwight Way,37.863909,-122.267216,F,F,2B589C,FFFFFF,22
660,Shattuck Av & Durant Av,37.866604,-122.267517,F,F,2B589C,FFFFFF,23
665,Shattuck Av & Kittredge St,37.868450,-122.267722,F,F,2B589C,FFFFFF,24
6106,Shattuck Av & Allston Way,37.869880,-122.267802,F,F,2B589C,FFFFFF,25
673,Shattuck Av & University Av,37.872541,-122.268319,F,F,2B589C,FFFFFF,26
6118,Hearst Av & Walnut St,37.873981,-122.266985,F,F,2B589C,FFFFFF,27
787,Hearst Av & Arch St,37.874432,-122.264081,F,F,2B589C,FFFFFF,28
511,Hearst Av & Euclid Av,37.874930,-122.260552,F,F,2B589C,FFFFFF,29
512,Hearst Av & Le Roy Av,37.875298,-122.257970,F,F,2B589C,FFFFFF,30
471,Gayley Rd & Greek Theater,37.873472,-122.255228,F,F,2B589C,FFFFFF,31
739,Piedmont Av & UC Faculty Club,37.871005,-122.252833,F,F,2B589C,FFFFFF,32
580,Piedmont Av & Bancroft Way,37.869687,-122.252389,F,F,2B589C,FFFFFF,33
354,Bancroft Way & College Av,37.869294,-122.255129,F,F,2B589C,FFFFFF,34
5599,Bancroft Way & Telegraph Av,37.868614,-122.260522,F,F,2B589C,FFFFFF,35
355,Bancroft Way & Dana St,37.868458,-122.261913,F,F,2B589C,FFFFFF,36
5656,Monroe Av & 10th St,37.884267,-122.298515,52,52,2B589C,FFFFFF,1
235,San Pablo Av & Monroe St,37.884410,-122.297213,52,52,2B589C,FFFFFF,2
635,San Pablo Av & Harrison St,37.882043,-122.296452,52,52,2B589C,FFFFFF,3
630,San Pablo Av & Gilman St,37.879897,-122.295773,52,52,2B589C,FFFFFF,4
640,San Pablo Av & Page St,37.877324,-122.294932,52,52,2B589C,FFFFFF,5
781,Cedar St & San Pablo Av,37.875202,-122.293760,52,52,2B589C,FFFFFF,6
368,Cedar St & Cornell Av,37.875480,-122.291647,52,52,2B589C,FFFFFF,7
5615,Cedar St & Chestnut St,37.875923,-122.288428,52,52,2B589C,FFFFFF,8
362,Cedar St & Acton St,37.876310,-122.285181,52,52,2B589C,FFFFFF,9
597,Sacramento St & Cedar St,37.876438,-122.282755,52,52,2B589C,FFFFFF,10
614,Sacramento St & Francisco St (North Berkeley BART),37.873775,-122.282520,52,52,2B589C,FFFFFF,11
758,University Av & Sacramento St,37.870368,-122.281347,52,52,2B589C,FFFFFF,12
5347,University Av & California St,37.870618,-122.279455,52,52,2B589C,FFFFFF,13
750,University Av & Grant St,37.871215,-122.274892,52,52,2B589C,FFFFFF,14
754,University Av & Martin Luther King Jr Way,37.871544,-122.272672,52,52,2B589C,FFFFFF,15
777,University Av & Kala Bagai Way,37.872119,-122.267985,52,52,2B589C,FFFFFF,16
575,Oxford St & University Av,37.872768,-122.265980,52,52,2B589C,FFFFFF,17
787,Hearst Av & Arch St,37.874432,-122.264081,52,52,2B589C,FFFFFF,18
511,Hearst Av & Euclid Av,37.874930,-122.260552,52,52,2B589C,FFFFFF,19
512,Hearst Av & Le Roy Av,37.875298,-122.257970,52,52,2B589C,FFFFFF,20
471,Gayley Rd & Greek Theater,37.873472,-122.255228,52,52,2B589C,FFFFFF,21
739,Piedmont Av & UC Faculty Club,37.871005,-122.252833,52,52,2B589C,FFFFFF,22
580,Piedmont Av & Bancroft Way,37.869687,-122.252389,52,52,2B589C,FFFFFF,23
354,Bancroft Way & College Av,37.869294,-122.255129,52,52,2B589C,FFFFFF,24
5598,Bancroft Way & Telegraph Av,37.868646,-122.260255,52,52,2B589C,FFFFFF,25
2549,College Av & Miles Av (Claremont Middle School),37.845483,-122.251820,79,79,07B5D0,000000,1
2544,College Av & Chabot Rd,37.847032,-122.251970,79,79,07B5D0,000000,2
3680,Claremont Av & Mystic St,37.850868,-122.251010,79,79,07B5D0,000000,3
378,Claremont Av & Eton Ct,37.852177,-122.249954,79,79,07B5D0,000000,4
380,Claremont Av & The Uplands,37.854324,-122.248245,79,79,07B5D0,000000,5
379,Claremont Av & Hazel Rd,37.856285,-122.246638,79,79,07B5D0,000000,6
376,Claremont Av & Ashby Av,37.858390,-122.244937,79,79,07B5D0,000000,7
357,Belrose Av & Garber St,37.860992,-122.245777,79,79,07B5D0,000000,8
406,Derby St & Claremont Blvd,37.862529,-122.247097,79,79,07B5D0,000000,9
762,Warring St & Derby St,37.862746,-122.250130,79,79,07B5D0,000000,10
764,Warring St & Parker St,37.864538,-122.250266,79,79,07B5D0,000000,11
584,Piedmont Cr & Dwight Way,37.865846,-122.250762,79,79,07B5D0,000000,12
582,Piedmont Av & Channing Way,37.868058,-122.251816,79,79,07B5D0,000000,13
356,Bancroft Way & Piedmont Av,37.869607,-122.252647,79,79,07B5D0,000000,14
354,Bancroft Way & College Av,37.869294,-122.255129,79,79,07B5D0,000000,15
5599,Bancroft Way & Telegraph Av,37.868614,-122.260522,79,79,07B5D0,000000,16
355,Bancroft Way & Dana St,37.868458,-122.261913,79,79,07B5D0,000000,17
786,Bancroft Way & Ellsworth St,37.868169,-122.264083,79,79,07B5D0,000000,18
6090,Shattuck Sq & Center St (Downtown Berkeley BART),37.870194,-122.267730,79,79,07B5D0,000000,19
788,University Av & Shattuck Av,37.872201,-122.268776,79,79,07B5D0,000000,20
5634,Martin Luther King Jr Way & University Av,37.872032,-122.272993,79,79,07B5D0,000000,21
546,Martin Luther King Jr Way & He,37.873625,-122.273174,79,79,07B5D0,000000,22
5710,Martin Luther King Jr Way & Virginia St,37.876513,-122.273503,79,79,07B5D0,000000,23
537,Martin Luther King Jr Way & Cedar St,37.878041,-122.273620,79,79,07B5D0,000000,24
558,Martin Luther King Jr Way & Vine St,37.879809,-122.273829,79,79,07B5D0,000000,25
552,Martin Luther King Jr Way & Rose St,37.881711,-122.274086,79,79,07B5D0,000000,26
536,Martin Luther King Jr Way & Berryman St,37.883525,-122.274261,79,79,07B5D0,000000,27
730,The Alameda & Hopkins St,37.885764,-122.275142,79,79,07B5D0,000000,28
731,The Alameda & Marin Av,37.888682,-122.276371,79,79,07B5D0,000000,29
689,Solano Av & The Alameda,37.891555,-122.277507,79,79,07B5D0,000000,30
682,Solano Av & Colusa Av,37.891439,-122.279695,79,79,07B5D0,000000,31
397,Colusa Av & Tacoma Av,37.893159,-122.280320,79,79,07B5D0,000000,32
401,Colusa Av & Vincente Av,37.894565,-122.282379,79,79,07B5D0,000000,33
399,Colusa Av & Thousand Oaks Blvd,37.896480,-122.285110,79,79,07B5D0,000000,34
403,Colusa Av & Visalia Av,37.898634,-122.285649,79,79,07B5D0,000000,35
5098,Colusa Av & Oak View Av,37.899485,-122.286733,79,79,07B5D0,000000,36
5097,Colusa Av & Lynn Av,37.900983,-122.288292,79,79,07B5D0,000000,37
5096,Colusa Av & Curry Av,37.902874,-122.288523,79,79,07B5D0,000000,38
881,Fairmount Av & Colusa Av,37.904120,-122.291407,79,79,07B5D0,000000,39
879,Fairmount Av & Ashbury Av,37.903256,-122.294163,79,79,07B5D0,000000,40
877,Fairmount Av & Albermarle St,37.902890,-122.295356,79,79,07B5D0,000000,41
882,Fairmount Av & Richmond St,37.902117,-122.297852,79,79,07B5D0,000000,42
874,El Cerrito Plaza BART,37.902537,-122.298706,79,79,07B5D0,000000,43
5603,Hayward BART,37.669504,-122.086192,41,41,07B5D0,000000,1
1530,D St & Atherton St,37.668785,-122.084227,41,41,07B5D0,000000,2
1578,Grand St & Dean St,37.665574,-122.086415,41,41,07B5D0,000000,3
1674,Meek Av & Jackson St,37.664333,-122.083575,41,41,07B5D0,000000,4
1734,Silva Av & Thomas Av,37.662071,-122.081211,41,41,07B5D0,000000,5
1854,Whitman St & Sycamore Av,37.661711,-122.079252,41,41,07B5D0,000000,6
1820,Whitman St & Berry Av,37.655956,-122.074708,41,41,07B5D0,000000,7
1824,Whitman St & Cody Rd,37.652996,-122.072335,41,41,07B5D0,000000,8
1829,Whitman St & Jane Av,37.651125,-122.070912,41,41,07B5D0,000000,9
5813,Harder Rd & Soto Rd,37.649320,-122.077838,41,41,07B5D0,000000,10
1572,Gading Rd & W Harder Rd,37.648227,-122.081889,41,41,07B5D0,000000,11
1571,Gading Rd & Dumont Av,37.644544,-122.081376,41,41,07B5D0,000000,12
1729,Schafer Rd & Gading Rd (Glassbrook School),37.640817,-122.080719,41,41,07B5D0,000000,13
1731,Schafer Rd & Tyrrell Av,37.640870,-122.076775,41,41,07B5D0,000000,14
1671,Manon Av & Schafer Rd,37.640823,-122.073938,41,41,07B5D0,000000,15
1673,Manon Av & Shepherd Av,37.638384,-122.071863,41,41,07B5D0,000000,16
1581,Harris Rd & Manon Av,37.636064,-122.068583,41,41,07B5D0,000000,17
1633,Huntwood Av & Harris Rd,37.636399,-122.066940,41,41,07B5D0,000000,18
1792,W Tennyson Rd & Lustig Ct,37.633789,-122.064121,41,41,07B5D0,000000,19
5605,W Tennyson Rd & Beatron Way,37.634992,-122.061386,41,41,07B5D0,000000,20
1752,South Hayward BART,37.634389,-122.056705,41,41,07B5D0,000000,21
1772,Tennyson Rd & Whitman St,37.635328,-122.061200,41,41,07B5D0,000000,22
1770,Tennyson Rd & Leidig Ct,37.634484,-122.063223,41,41,07B5D0,000000,23
5783,Huntwood Av & W Tennyson Rd,37.633212,-122.064917,41,41,07B5D0,000000,24
5777,Huntwood Av & Celia St,37.630349,-122.062435,41,41,07B5D0,000000,25
5779,Huntwood Av & Folsom Av,37.626430,-122.060614,41,41,07B5D0,000000,26
5781,Huntwood Av & New England Village Dr,37.623630,-122.059312,41,41,07B5D0,000000,27
1634,Huntwood Av & Industrial Pkwy,37.621232,-122.056486,41,41,07B5D0,000000,28
1631,Huntwood Av & Crocker Av,37.617082,-122.054859,41,41,07B5D0,000000,29
1640,Huntwood Av & Zephyr Av,37.611107,-122.054941,41,41,07B5D0,000000,30
1635,Huntwood Av & Salmon Way,37.609719,-122.054978,41,41,07B5D0,000000,31
1637,Huntwood Av & San Luis Obispo Av,37.607573,-122.054931,41,41,07B5D0,000000,32
1814,Whipple Rd & Huntwood Av,37.606184,-122.055286,41,41,07B5D0,000000,33
1816,Whipple Rd & Wiegman Rd,37.606594,-122.061278,41,41,07B5D0,000000,34
4631,Dyer St & Flint St,37.604364,-122.069316,41,41,07B5D0,000000,35
4636,Dyer St & Union Landing Blvd,37.598577,-122.071011,41,41,07B5D0,000000,36
5188,Union Landing Transit Center,37.598648,-122.066237,41,41,07B5D0,000000,37
2844,Fruitvale BART,37.775000,-122.224569,51A,51A,A30D11,FFFFFF,1
2826,Fruitvale Av & E 9th St,37.773790,-122.227856,51A,51A,A30D11,FFFFFF,2
193,Broadway & Blanding Av,37.768590,-122.234222,51A,51A,A30D11,FFFFFF,3
17,Broadway & Tilden Way,37.767460,-122.235163,51A,51A,A30D11,FFFFFF,4
141,Santa Clara Av & Broadway,37.763680,-122.238582,51A,51A,A30D11,FFFFFF,5
147,Santa Clara Av & Park St,37.765284,-122.241692,51A,51A,A30D11,FFFFFF,6
5318,Santa Clara Av & Oak St,37.766168,-122.243600,51A,51A,A30D11,FFFFFF,7
5315,Santa Clara Av & Walnut St,37.767416,-122.246484,51A,51A,A30D11,FFFFFF,8
153,Santa Clara Av & Willow St,37.768483,-122.248904,51A,51A,A30D11,FFFFFF,9
143,Santa Clara Av & Chestnut St,37.769728,-122.251761,51A,51A,A30D11,FFFFFF,10
144,Santa Clara Av & Grand St,37.771552,-122.256026,51A,51A,A30D11,FFFFFF,11
150,Santa Clara Av & Stanton St,37.772913,-122.259887,51A,51A,A30D11,FFFFFF,12
5319,Santa Clara Av & Morton St,37.772979,-122.262376,51A,51A,A30D11,FFFFFF,13
140,Santa Clara Av & Bay St,37.773076,-122.264920,51A,51A,A30D11,FFFFFF,14
5321,Santa Clara Av & Mozart St,37.773203,-122.268865,51A,51A,A30D11,FFFFFF,15
136,Santa Clara Av & 8th St,37.773303,-122.272594,51A,51A,A30D11,FFFFFF,16
188,Webster St & Santa Clara Av,37.773611,-122.276711,51A,51A,A30D11,FFFFFF,17
168,Webster St & Lincoln Av,37.775491,-122.276645,51A,51A,A30D11,FFFFFF,18
5322,Webster St & Buena Vista Av,37.777642,-122.276536,51A,51A,A30D11,FFFFFF,19
203,Webster St & Atlantic Av,37.780202,-122.276366,51A,51A,A30D11,FFFFFF,20
211,Webster St & Willie Stargell Av,37.783169,-122.276388,51A,51A,A30D11,FFFFFF,21
2306,8th St & Harrison St,37.799058,-122.270547,51A,51A,A30D11,FFFFFF,22
2305,8th St & Broadway,37.800170,-122.273479,51A,51A,A30D11,FFFFFF,23
6036,Broadway & 11th St (12th St BART),37.802080,-122.272453,51A,51A,A30D11,FFFFFF,24
6200,Broadway & 15th St,37.805037,-122.270599,51A,51A,A30D11,FFFFFF,25
2486,Broadway & 17th St,37.806506,-122.269710,51A,51A,A30D11,FFFFFF,26
2489,Broadway & 20th St (19th St BART),37.809324,-122.267939,51A,51A,A30D11,FFFFFF,27
2507,Broadway & Grand Av,37.811799,-122.266381,51A,51A,A30D11,FFFFFF,28
2490,Broadway & 25th St,37.814038,-122.264986,51A,51A,A30D11,FFFFFF,29
2491,Broadway & 27th St,37.815425,-122.264113,51A,51A,A30D11,FFFFFF,30
2492,Broadway & 28th St,37.816493,-122.263436,51A,51A,A30D11,FFFFFF,31
5326,Broadway & 30th St,37.818848,-122.262031,51A,51A,A30D11,FFFFFF,32
2509,Broadway & Piedmont Av,37.820723,-122.260797,51A,51A,A30D11,FFFFFF,33
5327,Broadway & Kaiser Hospital Entrance,37.823542,-122.259017,51A,51A,A30D11,FFFFFF,34
3701,Broadway & W MacArthur Blvd,37.824916,-122.258174,51A,51A,A30D11,FFFFFF,35
2496,Broadway & 40th St,37.827341,-122.256671,51A,51A,A30D11,FFFFFF,36
5231,Broadway & Mather St,37.831499,-122.254100,51A,51A,A30D11,FFFFFF,37
5328,Broadway & Pleasant Valley Av,37.834686,-122.251989,51A,51A,A30D11,FFFFFF,38
2542,College Av & Broadway,37.836855,-122.251216,51A,51A,A30D11,FFFFFF,39
2548,College Av & Manila Av,37.840021,-122.251261,51A,51A,A30D11,FFFFFF,40
2547,College Av & Lawton Av,37.842791,-122.251538,51A,51A,A30D11,FFFFFF,41
3720,Keith Av & College Av,37.844096,-122.251433,51A,51A,A30D11,FFFFFF,42
3708,Oakland International Airport,37.712656,-122.212355,73,73,A30D11,FFFFFF,1
2938,Hegenberger Rd & Doolittle Dr,37.727586,-122.201175,73,73,A30D11,FFFFFF,2
2934,Hegenberger Rd & Airport Dr,37.730172,-122.199724,73,73,A30D11,FFFFFF,3
2943,Hegenberger Rd & Hegenberger Pl,37.731940,-122.198761,73,73,A30D11,FFFFFF,4
2941,Hegenberger Rd & Hegenberger Lp (South Jctn),37.734014,-122.197807,73,73,A30D11,FFFFFF,5
2942,Hegenberger Rd & Hegenberger Lp (N Jctn),37.736157,-122.196850,73,73,A30D11,FFFFFF,6
2939,Hegenberger Rd & Edes Av,37.745073,-122.195849,73,73,A30D11,FFFFFF,7
2935,Hegenberger Rd & Baldwin St,37.747417,-122.195885,73,73,A30D11,FFFFFF,8
3404,San Leandro St & Coliseum BART,37.753656,-122.197013,73,73,A30D11,FFFFFF,9
2222,71st Av & Snell St,37.754625,-122.196916,73,73,A30D11,FFFFFF,10
2220,71st Av & Hawley St,37.755504,-122.195520,73,73,A30D11,FFFFFF,11
2223,71st Av & Spencer St,37.756668,-122.193732,73,73,A30D11,FFFFFF,12
3532,Spencer St & 73rd Av,37.755794,-122.192692,73,73,A30D11,FFFFFF,13
2234,73rd Av & Hamilton St,37.756773,-122.190844,73,73,A30D11,FFFFFF,14
2230,73rd Av & International Blvd,37.759365,-122.186627,73,73,A30D11,FFFFFF,15
2239,73rd Av & Orral St,37.760671,-122.184659,73,73,A30D11,FFFFFF,16
2236,73rd Av & Holly St,37.762020,-122.182556,73,73,A30D11,FFFFFF,17
2226,73rd Av & Arthur St,37.763647,-122.180023,73,73,A30D11,FFFFFF,18
2228,73rd Av & Bancroft Av,37.765561,-122.177119,73,73,A30D11,FFFFFF,19
2232,73rd Av & Garfield Av,37.766661,-122.175694,73,73,A30D11,FFFFFF,20
2713,Eastmont Transit Center,37.768955,-122.174367,73,73,A30D11,FFFFFF,21
3611,West Oakland BART,37.804699,-122.295286,14,14,2B589C,FFFFFF,1
2252,7th St & Peralta St,37.806114,-122.297942,14,14,2B589C,FFFFFF,2
2256,7th St & Willow St (Opp. U.S. Post Office),37.806826,-122.301150,14,14,2B589C,FFFFFF,3
3691,Wood St & 8th St,37.808224,-122.301793,14,14,2B589C,FFFFFF,4
3692,Wood St & 12th St,37.811723,-122.298993,14,14,2B589C,FFFFFF,5
3620,14th St & Willow St,37.812442,-122.296294,14,14,2B589C,FFFFFF,6
3621,14th St & Center St,37.810996,-122.292714,14,14,2B589C,FFFFFF,7
2082,14th St & Mandela Pkwy,37.810594,-122.291011,14,14,2B589C,FFFFFF,8
2090,14th St & Poplar St,37.810082,-122.289056,14,14,2B589C,FFFFFF,9
2066,14th St & Adeline St,37.809356,-122.285864,14,14,2B589C,FFFFFF,10
2074,14th St & Filbert St,37.808747,-122.283103,14,14,2B589C,FFFFFF,11
2084,14th St & Market St,37.808164,-122.281155,14,14,2B589C,FFFFFF,12
2070,14th St & Brush St,37.807320,-122.279249,14,14,2B589C,FFFFFF,13
2086,14th St & Martin Luther King Jr Way,37.806195,-122.276160,14,14,2B589C,FFFFFF,14
2072,14th St & Clay St,37.805090,-122.273352,14,14,2B589C,FFFFFF,15
2069,14th St & Broadway (12th St BART),37.804447,-122.271746,14,14,2B589C,FFFFFF,16
2077,14th St & Franklin St,37.803832,-122.270193,14,14,2B589C,FFFFFF,17
2079,14th St & Harrison St,37.802956,-122.267919,14,14,2B589C,FFFFFF,18
2080,14th St & Jackson St,37.801985,-122.265439,14,14,2B589C,FFFFFF,19
2088,14th St & Oak St,37.801061,-122.263084,14,14,2B589C,FFFFFF,20
2092,1st Av & International Blvd,37.799061,-122.256512,14,14,2B589C,FFFFFF,21
3024,Lakeshore Av & E 18th St,37.800275,-122.254420,14,14,2B589C,FFFFFF,22
2679,E 18th St & 3rd Av,37.799727,-122.252300,14,14,2B589C,FFFFFF,23
2680,E 18th St & 6th Av,37.797693,-122.249454,14,14,2B589C,FFFFFF,24
