stop_id,stop_name,stop_lat,stop_lon,stop_code,location_type,parent_station,wheelchair_boarding,intersection_code,stop_place,reference_place,stop_name_short,stop_url
10001,Cabrillo National Monument,32.674457926534,-117.240425731733,10001,0,,1,M-Special_Loc,cabmon,,Cabrillo Natl Monument,https://www.sdmts.com/schedules-real-time?fragment=10001
10003,Pearl St & Draper Av,32.839578288269,-117.276186771308,10003,0,,1,N-E/B,,,Pearl&Draper,https://www.sdmts.com/schedules-real-time?fragment=10003
10004,Pearl St & Fay Av,32.840128483519,-117.273809897096,10004,0,,1,N-E/B,,,Pearl&Fay,https://www.sdmts.com/schedules-real-time?fragment=10004
10006,Torrey Pines Rd & Exchange Pl,32.845846698952,-117.268673216555,10006,0,,1,N-N/B,,,Try Pines&Exchange,https://www.sdmts.com/schedules-real-time?fragment=10006
10007,Torrey Pines Rd & Princess St,32.848825603037,-117.262585430693,10007,0,,0,N-E/B,,,Try Pines&Princess,https://www.sdmts.com/schedules-real-time?fragment=10007
10011,Garnet Av & Everts St,32.798100926571,-117.248250130092,10011,0,,1,N-E/B,,,Garnet&Everts,https://www.sdmts.com/schedules-real-time?fragment=10011
10012,Grand Av & Fanuel St,32.796529037801,-117.245833937188,10012,0,,1,N-E/B,,,Grand&Fanuel,https://www.sdmts.com/schedules-real-time?fragment=10012
10013,Garnet Av & Haines St,32.799293979270,-117.242773582471,10013,0,,1,N-E/B,,,Garnet&Haines,https://www.sdmts.com/schedules-real-time?fragment=10013
10015,Garnet Av & Ingraham St,32.799650170994,-117.241202491565,10015,0,,1,N-E/B,inggar,,Garnet&Ingraham,https://www.sdmts.com/schedules-real-time?fragment=10015
10016,Garnet Av & Jewell St,32.800123586311,-117.239063190962,10016,0,,1,N-E/B,,,Garnet&Jewell,https://www.sdmts.com/schedules-real-time?fragment=10016
10020,Voltaire St & Mendocino St,32.745066706695,-117.235748986364,10020,0,,1,N-E/B,,,Voltaire&Mendocino,https://www.sdmts.com/schedules-real-time?fragment=10020
10023,Garnet Av & Lamont St,32.800877163590,-117.235566670156,10023,0,,1,N-E/B,garlam,,Garnet&Lamont,https://www.sdmts.com/schedules-real-time?fragment=10023
10024,Voltaire St & San Clemente St,32.742869053540,-117.233535634227,10024,0,,1,N-E/B,,,Voltaire&San Clemente,https://www.sdmts.com/schedules-real-time?fragment=10024
10025,Garnet Av & Noyes St,32.801712904636,-117.231748818813,10025,0,,1,N-E/B,,,Garnet&Noyes,https://www.sdmts.com/schedules-real-time?fragment=10025
10026,Chatsworth Bl & Tennyson St,32.738147328283,-117.229704017828,10026,0,,1,N-N/B,,,Chatsworth&Tennyson,https://www.sdmts.com/schedules-real-time?fragment=10026
10027,Voltaire St & Poinsettia Dr,32.740255951982,-117.229294925394,10027,0,,1,N-E/B,volpoi,,Voltaire&Poinsettia,https://www.sdmts.com/schedules-real-time?fragment=10027
10029,West Point Loma Bl & Adrian St,32.752661145154,-117.226733142708,10029,0,,1,N-E/B,,,WPt Loma&Adrian,https://www.sdmts.com/schedules-real-time?fragment=10029
10031,Nimitz Bl & Rosecrans St,32.728942884952,-117.226535304965,10031,0,,0,M-Street-S/B,nimros,,Nimitz&Rosecrans,https://www.sdmts.com/schedules-real-time?fragment=10031
10032,Grand Av & Culver St,32.800913129756,-117.225849446290,10032,0,,1,N-E/B,,,Grand&Culver,https://www.sdmts.com/schedules-real-time?fragment=10032
10033,West Point Loma Bl & Loma Riviera Dr,32.753402254787,-117.224077447036,10033,0,,1,M-Street-E/B,,,WPt Loma&Loma Riviera,https://www.sdmts.com/schedules-real-time?fragment=10033
10034,Nobel Dr & Lebon Dr,32.868293166091,-117.225183244582,10034,0,,1,N-E/B,nobleb,,Nobel&Lebon,https://www.sdmts.com/schedules-real-time?fragment=10034
10036,Garnet Av & Bond St,32.805504003705,-117.221213754121,10036,0,,1,N-E/B,,,Garnet&Bond,https://www.sdmts.com/schedules-real-time?fragment=10036
10038,Sports Arena Bl & Midway Dr,32.755674071580,-117.221093796644,10038,0,,1,M-Street-S/B,,,Sports Arena&Midway,https://www.sdmts.com/schedules-real-time?fragment=10038
10040,Midway Dr & Duke St,32.753929973099,-117.218140675853,10040,0,,1,N-S/B,,,Midway&Duke,https://www.sdmts.com/schedules-real-time?fragment=10040
10043,Midway Dr & Kemper St,32.752436254315,-117.215847441069,10043,0,,1,N-S/B,,,Midway&Kemper,https://www.sdmts.com/schedules-real-time?fragment=10043
10044,Grand Av & Mission Bay Dr,32.802273496111,-117.217839064196,10044,0,,1,N-E/B,,,Grand&Mission Bay,https://www.sdmts.com/schedules-real-time?fragment=10044
10045,Balboa Av & Moraga Av,32.807743886270,-117.210696668387,10045,0,,2,M-Street-E/B,,,Balboa&Moraga,https://www.sdmts.com/schedules-real-time?fragment=10045
10048,Morena Bl & Frankfort St,32.774686407825,-117.206214033210,10048,0,,1,N-S/B,,,Morena&Frankfort,https://www.sdmts.com/schedules-real-time?fragment=10048
10049,Governor Dr & Radcliffe Dr,32.854345080959,-117.206105930234,10049,0,,1,N-E/B,,,Governor&Radcliffe,https://www.sdmts.com/schedules-real-time?fragment=10049
10050,Morena Bl & Knoxville St,32.773326655791,-117.203983727553,10050,0,,1,N-S/B,,,Morena&Knoxville,https://www.sdmts.com/schedules-real-time?fragment=10050
10051,Clairemont Dr & Merrimac Av,32.833071776603,-117.202866708682,10051,0,,1,M-Street-E/B,,,Clairemont&Merrimac,https://www.sdmts.com/schedules-real-time?fragment=10051
10062,Linda Vista Rd & Colusa St,32.768909461015,-117.191137785015,10062,0,,1,N-E/B,,,L Vsta&Colusa,https://www.sdmts.com/schedules-real-time?fragment=10062
10064,Taylor St & I-8 East (Ramp),32.759253228755,-117.190504414917,10064,0,,2,N-E/B,,,Taylor&I-8 E(Ramp),https://www.sdmts.com/schedules-real-time?fragment=10064
10073,Clairemont Mesa Bl & Longford St,32.834321220360,-117.182854914181,10073,0,,1,N-E/B,,,Cmnt Mesa&Longford,https://www.sdmts.com/schedules-real-time?fragment=10073
10074,Miramar Rd & Miramar Mall,32.876883801908,-117.182990257740,10074,0,,1,N-E/B,mirmal,,Miramar&Miramar Mall,https://www.sdmts.com/schedules-real-time?fragment=10074
10075,N Harbor Dr & Laurel St (Coast Guard),32.727781812025,-117.182286477046,10075,0,,1,M-Street-E/B,,,N Harbor&Laurel (Coast Guard),https://www.sdmts.com/schedules-real-time?fragment=10075
10076,Lewis St & Stephens St,32.751710668283,-117.178610582365,10076,0,,0,N-E/B,lewste,,Lewis&Stephens,https://www.sdmts.com/schedules-real-time?fragment=10076
10077,Clairemont Mesa Bl & Limerick Av,32.834277373331,-117.179191882308,10077,0,,1,N-E/B,,,Cmnt Mesa&Limerick,https://www.sdmts.com/schedules-real-time?fragment=10077
10080,Lewis St & Ingalls St,32.751728297067,-117.175166302988,10080,0,,0,N-E/B,,,Lewis&Ingalls,https://www.sdmts.com/schedules-real-time?fragment=10080
10085,Miramar Rd & Milch Rd,32.877936693522,-117.168656585129,10085,0,,1,N-E/B,,,Miramar&Milch,https://www.sdmts.com/schedules-real-time?fragment=10085
10086,Broadway & State St,32.715568901987,-117.166684700734,10086,0,,1,N-E/B,amplza,,Brdwy&State,https://www.sdmts.com/schedules-real-time?fragment=10086
10088,Washington St & Albatross St,32.749774211069,-117.166312021188,10088,0,,1,N-E/B,,,Wshngtn&Albatross,https://www.sdmts.com/schedules-real-time?fragment=10088
10090,Broadway & Front St,32.715598258630,-117.164952101716,10090,0,,0,N-E/B,brofro,,Brdwy&Front,https://www.sdmts.com/schedules-real-time?fragment=10090
10091,Clairemont Mesa Bl & Shawline St (Kaiser),32.832818055693,-117.162957284952,10091,0,,1,N-W/B,clasha,,Cmnt Mesa&Shawline (Kaiser),https://www.sdmts.com/schedules-real-time?fragment=10091
10092,University Av & 3rd Av,32.748196925631,-117.162926100152,10092,0,,1,N-E/B,,,Univ&3rd,https://www.sdmts.com/schedules-real-time?fragment=10092
10093,Genesee Av & Richland St,32.791162358585,-117.163215303176,10093,0,,1,N-E/B,,,Gnsee&Richland,https://www.sdmts.com/schedules-real-time?fragment=10093
10094,Broadway & 3rd Av,32.715613832073,-117.162107439238,10094,0,,0,N-E/B,3rdbro,,Brdwy&3rd,https://www.sdmts.com/schedules-real-time?fragment=10094
10095,Miramar Rd & Distribution Av,32.878962730203,-117.162608786801,10095,0,,1,N-E/B,,,Miramar&Distribution,https://www.sdmts.com/schedules-real-time?fragment=10095
10097,Broadway & 5th Av,32.715660190144,-117.160296984597,10097,0,,0,N-E/B,5thbro,,Brdwy&5th,https://www.sdmts.com/schedules-real-time?fragment=10097
10098,University Av & 5th Av,32.748208756998,-117.160581220837,10098,0,,1,N-E/B,5thuni,,Univ&5th,https://www.sdmts.com/schedules-real-time?fragment=10098
10099,Broadway & 6th Av,32.715663509792,-117.159474458090,10099,0,,0,N-E/B,bro6th,,Brdwy&6th,https://www.sdmts.com/schedules-real-time?fragment=10099
10100,Camino De La Reina & Camino Del Arroyo,32.766746620325,-117.158463133863,10100,0,,1,N-E/B,,,Cmo De La Reina&Cmo Del Arroyo,https://www.sdmts.com/schedules-real-time?fragment=10100
10105,Market St & 10th Av,32.711435881462,-117.155796139696,10105,0,,0,N-E/B,,,Mrkt&10th,https://www.sdmts.com/schedules-real-time?fragment=10105
10106,University Av & 10th Av,32.748317886514,-117.155463019372,10106,0,,1,N-E/B,,,Univ&10th,https://www.sdmts.com/schedules-real-time?fragment=10106
10107,Miramar Rd & Carroll Rd,32.881777283086,-117.156250286622,10107,0,,1,N-E/B,,,Miramar&Carroll,https://www.sdmts.com/schedules-real-time?fragment=10107
10108,Market St & Park Bl,32.711468381528,-117.153988877451,10108,0,marpar,1,N-E/B,marpar,,Mrkt&Park,https://www.sdmts.com/schedules-real-time?fragment=10108
10109,Broadway & Park Bl,32.715700915474,-117.154012779416,10109,0,citcol,1,N-E/B,citcol,,Brdwy&Park,https://www.sdmts.com/schedules-real-time?fragment=10109
10110,Vista Hill Av & Meadowlark Dr,32.794851177395,-117.154587750679,10110,0,,1,N-E/B,,,Vista Hill&Meadowlark,https://www.sdmts.com/schedules-real-time?fragment=10110
10111,University Av & Vermont St,32.748347561952,-117.153664728889,10111,0,,1,N-E/B,,,Univ&Vermont,https://www.sdmts.com/schedules-real-time?fragment=10111
10114,University Av & Richmond St,32.748361823063,-117.151339385584,10114,0,,1,N-E/B,,,Univ&Richmond,https://www.sdmts.com/schedules-real-time?fragment=10114
10115,Imperial Av & 16th St,32.706214340429,-117.149702354402,10115,0,,1,N-E/B,imp16,,Imperial&16th,https://www.sdmts.com/schedules-real-time?fragment=10115
10116,Market St & 16th St,32.711428992326,-117.149602779995,10116,0,,1,N-E/B,16mar,,Mrkt&16th,https://www.sdmts.com/schedules-real-time?fragment=10116
10117,Logan Av & Sigsbee St,32.703815304544,-117.147759904420,10117,0,,1,N-E/B,,,Logan&Sigsbee,https://www.sdmts.com/schedules-real-time?fragment=10117
10118,Market St & 19th St,32.711440801542,-117.146849244632,10118,0,,1,N-E/B,,,Mrkt&19th,https://www.sdmts.com/schedules-real-time?fragment=10118
10119,Broadway & 20th St,32.715721272065,-117.145949943068,10119,0,,1,N-E/B,,,Brdwy&20th,https://www.sdmts.com/schedules-real-time?fragment=10119
10122,Logan Av & Cesar E Chavez Pkwy,32.701541388493,-117.144479542011,10122,0,,1,N-E/B,logces,,Logan&Cesar E Chavez,https://www.sdmts.com/schedules-real-time?fragment=10122
10123,Imperial Av & 22nd St,32.706216787421,-117.144075112148,10123,0,,1,N-E/B,,,Imperial&22nd,https://www.sdmts.com/schedules-real-time?fragment=10123
10124,Miramar Rd & Dowdy Dr,32.888037418723,-117.145450693499,10124,0,,1,F-E/B,,,Miramar&Dowdy,https://www.sdmts.com/schedules-real-time?fragment=10124
10127,Imperial Av & 24th St,32.706225082731,-117.142550535508,10127,0,,1,N-E/B,,,Imperial&24th,https://www.sdmts.com/schedules-real-time?fragment=10127
10128,Clairemont Mesa Bl & 8303,32.832660879154,-117.146140748222,10128,0,,1,M-Street-E/B,,,Cmnt Mesa&8303,https://www.sdmts.com/schedules-real-time?fragment=10128
10129,El Cajon Bl & Alabama St,32.755139711724,-117.142636245027,10129,0,,1,N-E/B,,,El Cjn&Alabama,https://www.sdmts.com/schedules-real-time?fragment=10129
10130,University Av & Alabama St,32.748372123666,-117.142740061079,10130,0,,1,M-Street-E/B,,,Univ&Alabama,https://www.sdmts.com/schedules-real-time?fragment=10130
10132,Miramar Rd & Cabot Dr,32.889576559565,-117.142795086489,10132,0,,1,N-E/B,,,Miramar&Cabot,https://www.sdmts.com/schedules-real-time?fragment=10132
10133,Market St & 25th St,32.711515041964,-117.140396624008,10133,0,,1,N-E/B,,,Mrkt&25th,https://www.sdmts.com/schedules-real-time?fragment=10133
10134,Broadway & 25th St,32.715753335044,-117.140764561471,10134,0,,1,N-E/B,,,Brdwy&25th,https://www.sdmts.com/schedules-real-time?fragment=10134
10136,University Av & Louisiana St,32.748374080073,-117.140186922995,10136,0,,1,N-E/B,,,Univ&Louisiana,https://www.sdmts.com/schedules-real-time?fragment=10136
10137,Imperial Av & 26th St,32.706303066021,-117.138221155682,10137,0,,1,N-E/B,,,Imperial&26th,https://www.sdmts.com/schedules-real-time?fragment=10137
10138,C St & 26th St,32.716804613157,-117.138291219401,10138,0,,1,N-E/B,,,C&26th,https://www.sdmts.com/schedules-real-time?fragment=10138
10139,El Cajon Bl & Arizona St,32.755164196858,-117.137718439776,10139,0,,1,N-E/B,,,El Cjn&Arizona,https://www.sdmts.com/schedules-real-time?fragment=10139
10140,Adams Av & Arizona St,32.762805183116,-117.137701101189,10140,0,,1,N-E/B,,,Adams&Arizona,https://www.sdmts.com/schedules-real-time?fragment=10140
10142,Mira Mesa Bl & Reagan Rd (E),32.912668897019,-117.139070430009,10142,0,,1,N-E/B,,,Mra Msa&Reagan (E),https://www.sdmts.com/schedules-real-time?fragment=10142
10143,Main St & 27th St,32.692724897811,-117.136004120326,10143,0,,2,N-E/B,,,Main&27th,https://www.sdmts.com/schedules-real-time?fragment=10143
10145,Ocean View Bl & Sampson St,32.702145085857,-117.135474659177,10145,0,,1,N-S/B,,,Ocn Vw&Sampson,https://www.sdmts.com/schedules-real-time?fragment=10145
10147,Imperial Av & Hensley St,32.706320383584,-117.134664870149,10147,0,,1,N-E/B,,,Imperial&Hensley,https://www.sdmts.com/schedules-real-time?fragment=10147
10148,C St & 28th St,32.716830506993,-117.134305429306,10148,0,,1,N-E/B,,,C&28th,https://www.sdmts.com/schedules-real-time?fragment=10148
10149,Mira Mesa Bl & Westonhill Dr,32.912744787454,-117.135773587016,10149,0,,1,N-E/B,,,Mra Msa&Westonhill,https://www.sdmts.com/schedules-real-time?fragment=10149
10150,El Cajon Bl & Utah St,32.755177213491,-117.132839551001,10150,0,,1,N-E/B,,,El Cjn&Utah,https://www.sdmts.com/schedules-real-time?fragment=10150
10151,University Av & Utah St,32.748360233894,-117.132933867235,10151,0,,1,N-E/B,,,Univ&Utah,https://www.sdmts.com/schedules-real-time?fragment=10151
10154,National Av & 29th St,32.695852279884,-117.132229225003,10154,0,,1,N-E/B,,,Natl&29th,https://www.sdmts.com/schedules-real-time?fragment=10154
10156,Balboa Av & Ponderosa Av,32.822112872378,-117.131906008178,10156,0,,1,F-E/B,balpon,,Balboa&Ponderosa,https://www.sdmts.com/schedules-real-time?fragment=10156
10157,Aero Dr & Corporate Ct,32.809743645032,-117.132035981309,10157,0,,1,N-E/B,,,Aero&Corporate,https://www.sdmts.com/schedules-real-time?fragment=10157
10158,Market St & 30th St,32.711564589443,-117.130432592894,10158,0,,1,N-E/B,mark30,,Mrkt&30th,https://www.sdmts.com/schedules-real-time?fragment=10158
10159,Clairemont Mesa Bl & Overland Av,32.831264513696,-117.131261954726,10159,0,,1,N-E/B,claove,,Cmnt Mesa&Overland,https://www.sdmts.com/schedules-real-time?fragment=10159
10160,Adams Av & 30th St,32.762827429406,-117.130375654743,10160,0,,1,N-E/B,30ada,,Adams&30th,https://www.sdmts.com/schedules-real-time?fragment=10160
10161,University Av & 30th St,32.748335502040,-117.130240610331,10161,0,,1,N-E/B,uni30t,,Univ&30th,https://www.sdmts.com/schedules-real-time?fragment=10161
10162,Upas St & 30th St,32.741029882479,-117.129481425667,10162,0,,1,N-E/B,,,Upas&30th,https://www.sdmts.com/schedules-real-time?fragment=10162
10163,Ocean View Bl & 30th St,32.701114724836,-117.129668339271,10163,0,,1,N-E/B,,,Ocn Vw&30th,https://www.sdmts.com/schedules-real-time?fragment=10163
10164,Imperial Av & 30th St,32.706342707064,-117.129622983605,10164,0,,1,N-E/B,,,Imperial&30th,https://www.sdmts.com/schedules-real-time?fragment=10164
10165,Main St & 30th St,32.692750932542,-117.129295605476,10165,0,,1,F-E/B,,,Main&30th,https://www.sdmts.com/schedules-real-time?fragment=10165
10166,C St & 30th St,32.716808970585,-117.130400446013,10166,0,,1,M-Street-E/B,c_30st,,C&30th,https://www.sdmts.com/schedules-real-time?fragment=10166
10167,Beech St & Fern St,32.721221171153,-117.129511360833,10167,0,,1,F-E/B,,,Beech&Fern,https://www.sdmts.com/schedules-real-time?fragment=10167
10168,Mira Mesa Bl & Marbury Av,32.915894781832,-117.129972378499,10168,0,,1,N-E/B,,,Mra Msa&Marbury,https://www.sdmts.com/schedules-real-time?fragment=10168
10169,Adams Av & Boundary St,32.762836211517,-117.128371918422,10169,0,,1,N-E/B,,,Adams&Boundary,https://www.sdmts.com/schedules-real-time?fragment=10169
10171,Market St & 31st St,32.711577011647,-117.127532763037,10171,0,,1,N-E/B,,,Mrkt&31st,https://www.sdmts.com/schedules-real-time?fragment=10171
10176,Balboa Av & Ruffin Rd,32.822198615548,-117.128746111756,10176,0,,2,N-E/B,balruf,,Balboa&Ruffin,https://www.sdmts.com/schedules-real-time?fragment=10176
10177,Ocean View Bl & 32nd St,32.701136597410,-117.125436166908,10177,0,,1,N-E/B,,,Ocn Vw&32nd,https://www.sdmts.com/schedules-real-time?fragment=10177
10178,Imperial Av & 32nd St,32.706372799942,-117.125393892763,10178,0,,1,N-E/B,imp32,,Imperial&32nd,https://www.sdmts.com/schedules-real-time?fragment=10178
10179,Market St & 32nd St,32.711594915602,-117.125400239732,10179,0,,1,N-E/B,,,Mrkt&32nd,https://www.sdmts.com/schedules-real-time?fragment=10179
10180,Clairemont Mesa Bl & Ruffin Rd,32.831275493864,-117.127016905439,10180,0,,1,N-E/B,,,Cmnt Mesa&Ruffin,https://www.sdmts.com/schedules-real-time?fragment=10180
10182,Camino Del Rio N & Mission City Pkwy,32.775515960293,-117.127089628874,10182,0,,1,N-E/B,mispky,,Cmo Del Rio N&Mission City,https://www.sdmts.com/schedules-real-time?fragment=10182
10183,Clairemont Mesa Bl & Ruffin Rd,32.831327553111,-117.126265405585,10183,0,,0,F-E/B,,,Cmnt Mesa&Ruffin,https://www.sdmts.com/schedules-real-time?fragment=10183
10184,Market St & 33rd St,32.711682090849,-117.122406868203,10184,0,,0,N-E/B,,,Mrkt&33rd,https://www.sdmts.com/schedules-real-time?fragment=10184
10186,Ocean View Bl & 33rd St,32.701153133656,-117.122715508832,10186,0,,1,N-E/B,,,Ocn Vw&33rd,https://www.sdmts.com/schedules-real-time?fragment=10186
10187,Imperial Av & 33rd St,32.706669387066,-117.122714856170,10187,0,,0,N-E/B,,,Imperial&33rd,https://www.sdmts.com/schedules-real-time?fragment=10187
10188,Adams Av & 33rd St,32.763294928202,-117.122989562055,10188,0,,2,N-E/B,,,Adams&33rd,https://www.sdmts.com/schedules-real-time?fragment=10188
10189,El Cajon Bl & 33rd St,32.755154568151,-117.122499063543,10189,0,,1,N-E/B,,,El Cjn&33rd,https://www.sdmts.com/schedules-real-time?fragment=10189
10190,El Cajon Bl & 35th St,32.755153927489,-117.117522464319,10190,0,,0,F-E/B,,,El Cjn&35th,https://www.sdmts.com/schedules-real-time?fragment=10190
10191,Aero Dr & West Canyon Av,32.808355732788,-117.123130394848,10191,0,,1,N-E/B,,,Aero&WCyn,https://www.sdmts.com/schedules-real-time?fragment=10191
10194,Camino Del Rio S & Scheidler Wy,32.776671022089,-117.120392474295,10194,0,,1,N-E/B,,,Cmo Del Rio S&Scheidler,https://www.sdmts.com/schedules-real-time?fragment=10194
10195,National Av & 35th St,32.695940538280,-117.119026609891,10195,0,,1,N-E/B,,,Natl&35th,https://www.sdmts.com/schedules-real-time?fragment=10195
10196,El Cajon Bl & 35th St,32.755130022545,-117.118185774355,10196,0,,1,N-E/B,,,El Cjn&35th,https://www.sdmts.com/schedules-real-time?fragment=10196
10197,National Av & 36th St,32.695947901857,-117.117199906947,10197,0,,1,N-E/B,,,Natl&36th,https://www.sdmts.com/schedules-real-time?fragment=10197
10198,Adams Av & 35th St,32.763251794452,-117.117413536965,10198,0,,1,N-E/B,,,Adams&35th,https://www.sdmts.com/schedules-real-time?fragment=10198
10201,El Cajon Bl & 36th St,32.755112581730,-117.115582488490,10201,0,,1,F-E/B,,,El Cjn&36th,https://www.sdmts.com/schedules-real-time?fragment=10201
10203,Imperial Av & 37th St,32.704804099656,-117.114777399565,10203,0,,0,N-E/B,,,Imperial&37th,https://www.sdmts.com/schedules-real-time?fragment=10203
10204,El Cajon Bl & 37th St,32.755099920613,-117.113859423889,10204,0,,1,N-E/B,,,El Cjn&37th,https://www.sdmts.com/schedules-real-time?fragment=10204
10205,National Av & 38th St,32.695977663152,-117.112565000208,10205,0,,1,N-E/B,,,Natl&38th,https://www.sdmts.com/schedules-real-time?fragment=10205
10206,Ocean View Bl & 38th St,32.701210270793,-117.112642204192,10206,0,,1,N-E/B,,,Ocn Vw&38th,https://www.sdmts.com/schedules-real-time?fragment=10206
10207,Imperial Av & 38th St,32.704810676101,-117.112661182917,10207,0,,1,N-E/B,,,Imperial&38th,https://www.sdmts.com/schedules-real-time?fragment=10207
10208,University Av & 38th St,32.749646323438,-117.111974813139,10208,0,,1,N-E/B,,,Univ&38th,https://www.sdmts.com/schedules-real-time?fragment=10208
10210,Camino Del Rio S & 3661,32.777857706520,-117.115406805095,10210,0,,1,M-Street-E/B,,,Cmo Del Rio S&3661,https://www.sdmts.com/schedules-real-time?fragment=10210
10214,National Av & 40th St,32.696013052309,-117.108281199739,10214,0,,1,N-E/B,,,Natl&40th,https://www.sdmts.com/schedules-real-time?fragment=10214
10215,Carmel Mountain Rd & Freeport Rd,32.960685952217,-117.111005830532,10215,0,,1,M-Street-E/B,cmrfre,,Carmel Mtn&Freeport,https://www.sdmts.com/schedules-real-time?fragment=10215
10216,Imperial Av & 40th St,32.704755293559,-117.108782420910,10216,0,,2,M-Street-E/B,,,Imperial&40th,https://www.sdmts.com/schedules-real-time?fragment=10216
10219,Home Av & Hixson Av,32.724346446220,-117.105247061310,10219,0,,1,N-E/B,,,Home&Hixson,https://www.sdmts.com/schedules-real-time?fragment=10219
10220,National Av & 41st St,32.696024946203,-117.106174997819,10220,0,,1,N-E/B,,,Natl&41st,https://www.sdmts.com/schedules-real-time?fragment=10220
10221,Market St & Morrison St,32.711389569545,-117.105706535894,10221,0,,1,N-E/B,,,Mrkt&Morrison,https://www.sdmts.com/schedules-real-time?fragment=10221
10223,Ocean View Bl & San Miguel Av,32.700482971648,-117.104596217472,10223,0,,1,N-E/B,,,Ocn Vw&San Miguel,https://www.sdmts.com/schedules-real-time?fragment=10223
10224,Adams Av & Biona Dr,32.763172756310,-117.104316306384,10224,0,,1,N-E/B,,,Adams&Biona,https://www.sdmts.com/schedules-real-time?fragment=10224
10225,Market St & Denby St,32.711397830257,-117.102926962838,10225,0,,1,N-E/B,,,Mrkt&Denby,https://www.sdmts.com/schedules-real-time?fragment=10225
10227,National Av & San Pasqual St,32.696414824056,-117.103061550778,10227,0,,1,F-W/B,,,Natl&San Pasqual,https://www.sdmts.com/schedules-real-time?fragment=10227
10228,8th St & F Av,32.677561977961,-117.100406062056,10228,0,,1,F-E/B,,,8th&F,https://www.sdmts.com/schedules-real-time?fragment=10228
10229,Carmel Mountain Rd & Stoney Creek Rd,32.963370846671,-117.103128977858,10229,0,,1,M-Street-N/B,cmrsck,,Carmel Mtn&Stoney Creek,https://www.sdmts.com/schedules-real-time?fragment=10229
10230,Home Av & Fairmount Av,32.728333995895,-117.100154606123,10230,0,,1,N-E/B,,,Home&Fairmnt,https://www.sdmts.com/schedules-real-time?fragment=10230
10231,Ocean View Bl & Elizabeth St,32.700453616636,-117.099297369760,10231,0,,1,N-E/B,,,Ocn Vw&Elizabeth,https://www.sdmts.com/schedules-real-time?fragment=10231
10232,Imperial Av & 45th St,32.704062077813,-117.098145598481,10232,0,,0,N-E/B,,,Imperial&45th,https://www.sdmts.com/schedules-real-time?fragment=10232
10235,Logan Av & 47th St,32.696708014862,-117.093202330819,10235,0,,1,F-E/B,47log,,Logan&47th,https://www.sdmts.com/schedules-real-time?fragment=10235
10236,Ocean View Bl & 47th St,32.700404906941,-117.093982089231,10236,0,,1,N-E/B,,,Ocn Vw&47th,https://www.sdmts.com/schedules-real-time?fragment=10236
10237,Zion Av & Crawford St (Kaiser),32.792895582406,-117.094256725218,10237,0,,1,N-E/B,kaihos,,Zion&Crawford (Kaiser),https://www.sdmts.com/schedules-real-time?fragment=10237
10238,University Av & 47th St,32.749474274044,-117.093521918875,10238,0,,1,N-E/B,,,Univ&47th,https://www.sdmts.com/schedules-real-time?fragment=10238
10242,University Av & Estrella Av,32.749452957892,-117.090200955776,10242,0,,1,N-E/B,,,Univ&Estrella,https://www.sdmts.com/schedules-real-time?fragment=10242
10247,El Cajon Bl & 50th St,32.756690005618,-117.086929426782,10247,0,,1,N-E/B,,,El Cjn&50th,https://www.sdmts.com/schedules-real-time?fragment=10247
10250,El Cajon Bl & 54th St,32.757875674967,-117.078626620281,10250,0,,0,F-E/B,,,El Cjn&54th,https://www.sdmts.com/schedules-real-time?fragment=10250
10252,University Av & 52nd St,32.748993610241,-117.083769755515,10252,0,,1,N-E/B,,,Univ&52nd,https://www.sdmts.com/schedules-real-time?fragment=10252
10253,Zion Av & 51st St,32.792835557764,-117.083677204332,10253,0,,1,N-E/B,,,Zion&51st,https://www.sdmts.com/schedules-real-time?fragment=10253
10254,E St & 3rd Av,32.644514819301,-117.081771934372,10254,0,,1,N-E/B,e3rd,,E&3rd,https://www.sdmts.com/schedules-real-time?fragment=10254
10255,Olvera Av & Gwen St,32.697845446212,-117.081530724496,10255,0,,1,N-E/B,,,Olvera&Gwen,https://www.sdmts.com/schedules-real-time?fragment=10255
10256,Zion Av & Waring Rd,32.792800441395,-117.081548719275,10256,0,,1,M-Street-E/B,,,Zion&Waring,https://www.sdmts.com/schedules-real-time?fragment=10256
10257,El Cajon Bl & 54th St,32.757676101539,-117.079694900509,10257,0,,1,N-E/B,elc54,,El Cjn&54th,https://www.sdmts.com/schedules-real-time?fragment=10257
10258,Montezuma Rd & 54th St,32.771052986141,-117.079703781438,10258,0,,2,N-E/B,,,Mntzma&54th,https://www.sdmts.com/schedules-real-time?fragment=10258
10259,Olvera Av & San Onofre Ter,32.698805636170,-117.077710591061,10259,0,,1,N-E/B,,,Olvera&San Onofre,https://www.sdmts.com/schedules-real-time?fragment=10259
10260,El Cajon Bl & Dayton St,32.758148417342,-117.076892203779,10260,0,,1,F-E/B,elc54,,El Cjn&Dayton,https://www.sdmts.com/schedules-real-time?fragment=10260
10261,Grape St & 55th St,32.727606441253,-117.076992585443,10261,0,,0,M-Street-E/B,,,Grape&55th,https://www.sdmts.com/schedules-real-time?fragment=10261
10262,College Av & El Cajon Bl,32.761953170390,-117.066863400578,10262,0,,0,F-N/B,elccol,,Coll&El Cjn,https://www.sdmts.com/schedules-real-time?fragment=10262
10263,Olvera Av & Las Flores Ter,32.699354859293,-117.074910475312,10263,0,,1,N-E/B,,,Olvera&Las Flores,https://www.sdmts.com/schedules-real-time?fragment=10263
10264,Roswell St & Kelton Rd,32.715818145903,-117.075350660389,10264,0,,0,N-E/B,,,Roswell&Kelton,https://www.sdmts.com/schedules-real-time?fragment=10264
10266,Streamview Dr & Lynn St,32.743408497924,-117.071296312694,10266,0,,2,F-E/B,,,Strmvw&Lynn,https://www.sdmts.com/schedules-real-time?fragment=10266
10267,Market St & Merlin Dr,32.709999717279,-117.071625805033,10267,0,,0,N-E/B,,,Mrkt&Merlin,https://www.sdmts.com/schedules-real-time?fragment=10267
10268,Skyline Dr & Radio Dr,32.701419691639,-117.071097244298,10268,0,,1,N-E/B,,,Skyline&Radio,https://www.sdmts.com/schedules-real-time?fragment=10268
10271,Rancho Bernardo Rd & Acena Dr,33.022667271146,-117.070534340421,10271,0,,1,N-E/B,,,Rcho Bdo&Acena,https://www.sdmts.com/schedules-real-time?fragment=10271
10272,Del Sol Bl & Ocean Bluffs,32.573762035964,-117.063038204109,10272,0,,1,M-Street-E/B,,,Del Sol&Ocean Bluffs,https://www.sdmts.com/schedules-real-time?fragment=10272
10273,Imperial Av & 62nd St,32.709672868372,-117.064132492025,10273,0,,1,M-Street-E/B,imp62,,Imperial&62nd,https://www.sdmts.com/schedules-real-time?fragment=10273
10274,Montezuma Rd & 63rd St,32.770410656235,-117.064729636883,10274,0,,1,N-E/B,,,Mntzma&63rd,https://www.sdmts.com/schedules-real-time?fragment=10274
10276,Imperial Av & 63rd St,32.709878397525,-117.062557660057,10276,0,,1,N-E/B,,,Imperial&63rd,https://www.sdmts.com/schedules-real-time?fragment=10276
10277,Rancho Bernardo Rd & Bernardo Oaks Dr,33.019289954838,-117.065459054841,10277,0,,1,N-E/B,,,Rcho Bdo&Bdo Oaks,https://www.sdmts.com/schedules-real-time?fragment=10277
10278,Streamview Dr & Hasty Dr,32.743990015155,-117.061294886657,10278,0,,1,N-E/B,,,Strmvw&Hasty,https://www.sdmts.com/schedules-real-time?fragment=10278
10279,Rancho Bernardo Rd & Meandro Dr,33.018543719810,-117.063165174787,10279,0,,1,N-E/B,,,Rcho Bdo&Meandro,https://www.sdmts.com/schedules-real-time?fragment=10279
10280,Skyline Dr & Detroit Pl,32.701229658801,-117.059097245188,10280,0,,1,N-E/B,,,Skyline&Detroit,https://www.sdmts.com/schedules-real-time?fragment=10280
10284,Montezuma Rd & Reservoir Dr,32.769071193819,-117.057345555638,10284,0,,1,M-Street-E/B,,,Mntzma&Reservoir,https://www.sdmts.com/schedules-real-time?fragment=10284
10286,Imperial Av & Woodman St,32.710718112352,-117.055637476865,10286,0,,1,M-Street-E/B,,,Imperial&Woodman,https://www.sdmts.com/schedules-real-time?fragment=10286
10287,Skyline Dr & Woodman St,32.701171466502,-117.055390950020,10287,0,,1,N-E/B,woosky,,Skyline&Woodman,https://www.sdmts.com/schedules-real-time?fragment=10287
10288,University Av & Aragon Dr,32.755230596683,-117.053852219538,10288,0,,1,F-E/B,,,Univ&Aragon,https://www.sdmts.com/schedules-real-time?fragment=10288
10290,El Cajon Bl & Montezuma Rd,32.768138923390,-117.054480755759,10290,0,,1,M-Street-E/B,,,El Cjn&Mntzma,https://www.sdmts.com/schedules-real-time?fragment=10290
10291,Imperial Av & 68th St,32.711254657904,-117.051328252609,10291,0,,1,N-E/B,,,Imperial&68th,https://www.sdmts.com/schedules-real-time?fragment=10291
10292,Imperial Av & 69th St,32.711802228493,-117.049538646513,10292,0,,1,N-E/B,,,Imperial&69th,https://www.sdmts.com/schedules-real-time?fragment=10292
10293,Skyline Dr & 69th St,32.702517534119,-117.049584465953,10293,0,,1,N-E/B,,,Skyline&69th,https://www.sdmts.com/schedules-real-time?fragment=10293
10294,University Av & 69th St,32.755068435256,-117.049622288662,10294,0,,1,N-E/B,uni69t,,Univ&69th,https://www.sdmts.com/schedules-real-time?fragment=10294
10296,Skyline Dr & Buccaneer Dr,32.702750899471,-117.044947800249,10296,0,,1,N-E/B,,,Skyline&Buccaneer,https://www.sdmts.com/schedules-real-time?fragment=10296
10299,Skyline Dr & Sychar Rd,32.703165047111,-117.042949080320,10299,0,,1,N-E/B,,,Skyline&Sychar,https://www.sdmts.com/schedules-real-time?fragment=10299
10303,El Cajon Bl & 73rd St,32.768729074116,-117.040565881203,10303,0,,1,N-E/B,elc73,,El Cjn&73rd,https://www.sdmts.com/schedules-real-time?fragment=10303
10306,El Cajon Bl & Jessie Av,32.768632890724,-117.037985267873,10306,0,,1,N-E/B,,,El Cjn&Jessie,https://www.sdmts.com/schedules-real-time?fragment=10306
10307,Skyline Dr & Siena St,32.702879607222,-117.037309753025,10307,0,,1,N-E/B,,,Skyline&Siena,https://www.sdmts.com/schedules-real-time?fragment=10307
10308,University Av & Lowell St,32.757400485993,-117.037448936474,10308,0,,1,N-E/B,,,Univ&Lowell,https://www.sdmts.com/schedules-real-time?fragment=10308
10310,El Cajon Bl & Parks Av,32.768199133083,-117.033589654332,10310,0,,1,F-E/B,,,El Cjn&Parks,https://www.sdmts.com/schedules-real-time?fragment=10310
10311,Jackson Dr & Lake Shore Dr,32.797858783030,-117.035210591067,10311,0,,1,N-E/B,,,Jackson&Lake Shore,https://www.sdmts.com/schedules-real-time?fragment=10311
10312,Jamacha Rd & Glencoe Dr,32.715366711615,-117.032011317892,10312,0,,1,M-Street-E/B,,,Jamacha&Glencoe,https://www.sdmts.com/schedules-real-time?fragment=10312
10313,Main St & Broadway (Lemon Grove Depot),32.742495727622,-117.030915435813,10313,0,,2,N-N/B,brotro,,Main&Brdwy (Lmn Grv Depot),https://www.sdmts.com/schedules-real-time?fragment=10313
10314,University Av & Maple Av,32.761958235935,-117.030408101923,10314,0,,1,N-E/B,,,Univ&Maple,https://www.sdmts.com/schedules-real-time?fragment=10314
10315,Jackson Dr & Cowles Mountain Bl,32.795305004743,-117.028334609316,10315,0,,1,N-E/B,,,Jackson&Cowles Mtn,https://www.sdmts.com/schedules-real-time?fragment=10315
10317,University Av & La Mesa Bl,32.764145435832,-117.027018350169,10317,0,,1,M-Street-E/B,,,Univ&La Mesa,https://www.sdmts.com/schedules-real-time?fragment=10317
10318,Paradise Valley Rd & Meadowbrook Dr,32.697677057967,-117.025109550520,10318,0,,1,M-Street-E/B,,,Pdse Vly&Mdwbrk,https://www.sdmts.com/schedules-real-time?fragment=10318
10319,Jamacha Rd & Cardiff St,32.717545017161,-117.026116593943,10319,0,,1,N-E/B,carjam,,Jamacha&Cardiff,https://www.sdmts.com/schedules-real-time?fragment=10319
10320,University Av & Allison Av,32.765776683685,-117.025048381689,10320,0,,1,N-E/B,,,Univ&Allison,https://www.sdmts.com/schedules-real-time?fragment=10320
10321,San Vicente St & Cardiff St,32.712156969229,-117.024967041412,10321,0,,2,M-Street-E/B,,,San Vicente&Cardiff,https://www.sdmts.com/schedules-real-time?fragment=10321
10322,Jackson Dr & Lake Badin Av,32.794044892345,-117.024171255254,10322,0,,2,N-E/B,,,Jackson&Lake Badin,https://www.sdmts.com/schedules-real-time?fragment=10322
10324,Allison Av & Spring St,32.765963720165,-117.021517214500,10324,0,,1,N-E/B,lamtre,,Allison&Spring,https://www.sdmts.com/schedules-real-time?fragment=10324
10325,Jackson Dr & Boulder Lake Av,32.793546877009,-117.020743596491,10325,0,,2,N-E/B,,,Jackson&Boulder Lake,https://www.sdmts.com/schedules-real-time?fragment=10325
10326,Allison Av & Palm Av,32.765915301391,-117.019587732973,10326,0,,1,N-E/B,allpal,,Allison&Palm,https://www.sdmts.com/schedules-real-time?fragment=10326
10328,La Mesa Bl & University Av,32.767804650975,-117.015427236696,10328,0,,1,N-N/B,,,La Mesa&Univ,https://www.sdmts.com/schedules-real-time?fragment=10328
10330,Sweetwater Rd & Jamacha Rd,32.714228222008,-117.012799979009,10330,0,,1,F-S/B,,,Swtwter&Jamacha,https://www.sdmts.com/schedules-real-time?fragment=10330
10331,La Mesa Bl & Glen St,32.769343678008,-117.011003281865,10331,0,,1,N-E/B,,,La Mesa&Glen,https://www.sdmts.com/schedules-real-time?fragment=10331
10332,Orville St & Brucker Av,32.709168154075,-117.009254916452,10332,0,,1,M-Street-E/B,orvbru,,Orville&Brucker,https://www.sdmts.com/schedules-real-time?fragment=10332
10333,La Mesa Bl & Jackson Dr,32.770425454198,-117.008507654202,10333,0,,1,N-E/B,,,La Mesa&Jackson,https://www.sdmts.com/schedules-real-time?fragment=10333
10334,Navajo Rd & Jaffe Ct,32.802796098892,-117.008672590848,10334,0,,1,N-E/B,nav125,,Navajo&Jaffe,https://www.sdmts.com/schedules-real-time?fragment=10334
10336,La Mesa Bl & Garfield St,32.772304059006,-117.006041577576,10336,0,,1,N-E/B,,,La Mesa&Garfield,https://www.sdmts.com/schedules-real-time?fragment=10336
10346,Pearl St & La Jolla Bl,32.839151562693,-117.277923661848,10346,0,,1,F-E/B,,,Pearl&LJ,https://www.sdmts.com/schedules-real-time?fragment=10346
10347,Silverado St & Herschel Av,32.845183652736,-117.273406343783,10347,0,,1,N-N/B,silher,,Silverado&Herschel,https://www.sdmts.com/schedules-real-time?fragment=10347
10349,Torrey Pines Rd & Prospect St,32.847411136409,-117.266942784415,10349,0,,1,F-N/B,,,Try Pines&Prospect,https://www.sdmts.com/schedules-real-time?fragment=10349
10351,Turquoise St & La Jolla Bl,32.808123397965,-117.261262015434,10351,0,,1,F-E/B,,,Turquoise&LJ,https://www.sdmts.com/schedules-real-time?fragment=10351
10357,Grand Av & Bayard St,32.795030478379,-117.252699590305,10357,0,,1,F-E/B,grabay,,Grand&Bayard,https://www.sdmts.com/schedules-real-time?fragment=10357
10358,Garnet Av & Cass St,32.797376321102,-117.251518966758,10358,0,,1,F-E/B,garcas,,Garnet&Cass,https://www.sdmts.com/schedules-real-time?fragment=10358
10359,W Mission Bay Dr & Mission Bl,32.771914474054,-117.250425894694,10359,0,,1,F-S/B,mismis,,W Mission Bay&Mission,https://www.sdmts.com/schedules-real-time?fragment=10359
10360,Grand Av & Cass St,32.795427119447,-117.250901280079,10360,0,,1,F-E/B,,,Grand&Cass,https://www.sdmts.com/schedules-real-time?fragment=10360
10361,W Mission Bay Dr & Mariners Wy,32.770880841312,-117.246711909321,10361,0,,1,F-E/B,,,W Mission Bay&Mariners,https://www.sdmts.com/schedules-real-time?fragment=10361
10363,Garnet Av & Fanuel St,32.798559182012,-117.245961033726,10363,0,,1,F-E/B,,,Garnet&Fanuel,https://www.sdmts.com/schedules-real-time?fragment=10363
10364,Voltaire St & Sunset Cliffs Bl,32.749744318899,-117.242995868850,10364,0,,1,F-E/B,,,Voltaire&Sunset Cliffs,https://www.sdmts.com/schedules-real-time?fragment=10364
10365,West Point Loma Bl & Sunset Cliffs Bl,32.750763850836,-117.241992564737,10365,0,,1,F-E/B,wplsun,,WPt Loma&Sunset Cliffs,https://www.sdmts.com/schedules-real-time?fragment=10365
10366,Voltaire St & Ebers St,32.748680746384,-117.241273082887,10366,0,,1,F-E/B,,,Voltaire&Ebers,https://www.sdmts.com/schedules-real-time?fragment=10366
10368,La Jolla Village Dr & N. Torrey Pines Rd,32.869972231061,-117.241792762727,10368,0,,1,F-S/B,,,LJ Vlge&N. Try Pines,https://www.sdmts.com/schedules-real-time?fragment=10368
10369,Voltaire St & Froude St,32.747542998239,-117.239543000867,10369,0,,1,F-E/B,,,Voltaire&Froude,https://www.sdmts.com/schedules-real-time?fragment=10369
10370,Grand Av & Ingraham St,32.797864434447,-117.239730979461,10370,0,,1,F-E/B,graing,,Grand&Ingraham,https://www.sdmts.com/schedules-real-time?fragment=10370
10371,Voltaire St & Soto St,32.746232251158,-117.237446757913,10371,0,,1,M-Street-E/B,,,Voltaire&Soto,https://www.sdmts.com/schedules-real-time?fragment=10371
10372,W Mission Bay Dr & Quivira Rd,32.765237133394,-117.237601234212,10372,0,,1,F-E/B,,,W Mission Bay&Quivira,https://www.sdmts.com/schedules-real-time?fragment=10372
10374,Gilman Dr & Myers Dr,32.876948628177,-117.235532875052,10374,0,,1,F-E/B,gilmye,,Gilman&Myers,https://www.sdmts.com/schedules-real-time?fragment=10374
10375,Grand Av & Lamont St,32.799062060948,-117.234322727408,10375,0,,1,F-E/B,,,Grand&Lamont,https://www.sdmts.com/schedules-real-time?fragment=10375
10378,La Jolla Village Dr & Villa La Jolla Dr,32.871495623332,-117.233107207817,10378,0,,1,F-E/B,lajvil,,LJ Vlge&Villa LJ,https://www.sdmts.com/schedules-real-time?fragment=10378
10379,West Point Loma Bl & Temecula St,32.752249037328,-117.232596261185,10379,0,,1,N-E/B,,,WPt Loma&Temecula,https://www.sdmts.com/schedules-real-time?fragment=10379
10381,Voltaire St & Las Lomas St,32.741333200292,-117.231046822219,10381,0,,1,F-E/B,,,Voltaire&Las Lomas,https://www.sdmts.com/schedules-real-time?fragment=10381
10382,Macaulay St & Tustin St,32.732805395683,-117.231280325848,10382,0,,2,N-E/B,,,Macaulay&Tustin,https://www.sdmts.com/schedules-real-time?fragment=10382
10383,Garnet Av & Olney St,32.802197794816,-117.229528185685,10383,0,,1,F-E/B,,,Garnet&Olney,https://www.sdmts.com/schedules-real-time?fragment=10383
10384,Grand Av & Olney St,32.800262947076,-117.228819990362,10384,0,,1,F-E/B,,,Grand&Olney,https://www.sdmts.com/schedules-real-time?fragment=10384
10386,Garnet Av & Fogg St,32.803448392691,-117.225708309854,10386,0,,2,F-E/B,,,Garnet&Fogg,https://www.sdmts.com/schedules-real-time?fragment=10386
10390,Garnet Av & Soledad Mountain Rd,32.804964528149,-117.223404620409,10390,0,,1,M-Street-E/B,,,Garnet&Soledad Mtn,https://www.sdmts.com/schedules-real-time?fragment=10390
10391,La Jolla Village Dr & Lebon Dr,32.870592454978,-117.223248031703,10391,0,,1,F-E/B,,,LJ Vlge&Lebon,https://www.sdmts.com/schedules-real-time?fragment=10391
10392,West Point Loma Bl & Groton St,32.754362274384,-117.221537964610,10392,0,,1,F-E/B,wplgro,,WPt Loma&Groton,https://www.sdmts.com/schedules-real-time?fragment=10392
10395,Grand Av & Bond St,32.802185350057,-117.219615019325,10395,0,,1,F-E/B,,,Grand&Bond,https://www.sdmts.com/schedules-real-time?fragment=10395
10396,Garnet Av & Mission Bay Dr,32.806444964715,-117.216889009841,10396,0,,1,M-Street-E/B,,,Garnet&Mission Bay,https://www.sdmts.com/schedules-real-time?fragment=10396
10399,Nobel Dr & Regents Rd,32.867231652751,-117.218618705349,10399,0,,1,F-E/B,regnob,,Nobel&Rgnts,https://www.sdmts.com/schedules-real-time?fragment=10399
10400,La Jolla Village Dr & Regents Rd,32.871464830371,-117.217860828310,10400,0,,1,F-E/B,lajreE,,LJ Vlge&Rgnts,https://www.sdmts.com/schedules-real-time?fragment=10400
10401,Governor Dr & Regents Rd,32.851275863032,-117.216235350303,10401,0,,1,F-E/B,,,Governor&Rgnts,https://www.sdmts.com/schedules-real-time?fragment=10401
10404,Governor Dr & Scripps St,32.850950294185,-117.214987891425,10404,0,,1,F-E/B,,,Governor&Scripps,https://www.sdmts.com/schedules-real-time?fragment=10404
10407,Clairemont Mesa Bl & Moraga Av,32.828416854288,-117.213002487271,10407,0,,1,F-E/B,,,Cmnt Mesa&Moraga,https://www.sdmts.com/schedules-real-time?fragment=10407
10408,Governor Dr & Stadium St,32.850724249135,-117.212960035897,10408,0,,1,F-E/B,,,Governor&Stadium,https://www.sdmts.com/schedules-real-time?fragment=10408
10409,La Jolla Village Dr & Executive Wy,32.873693585001,-117.209087964695,10409,0,,1,F-E/B,,,LJ Vlge&Executive,https://www.sdmts.com/schedules-real-time?fragment=10409
10410,Midway Dr & East Dr,32.750284537163,-117.209104145705,10410,0,,1,F-S/B,,,Midway&East,https://www.sdmts.com/schedules-real-time?fragment=10410
10412,Governor Dr & Mercer St,32.851882864131,-117.209944377658,10412,0,,1,N-E/B,,,Governor&Mercer,https://www.sdmts.com/schedules-real-time?fragment=10412
10413,Clairemont Mesa Bl & Pocahontas Av,32.827605226366,-117.208514209741,10413,0,,1,F-E/B,,,Cmnt Mesa&Pocahontas,https://www.sdmts.com/schedules-real-time?fragment=10413
10419,Clairemont Dr & Denver St,32.790261251692,-117.202797239928,10419,0,,1,F-E/B,,,Clairemont&Denver,https://www.sdmts.com/schedules-real-time?fragment=10419
10421,Balboa Av & Clairemont Dr,32.811618078095,-117.200557975568,10421,0,,1,F-E/B,clabal,,Balboa&Clairemont,https://www.sdmts.com/schedules-real-time?fragment=10421
10422,Mira Mesa Bl & Scranton Rd,32.892517914668,-117.200950040583,10422,0,,0,F-E/B,mirscr,,Mra Msa&Scranton,https://www.sdmts.com/schedules-real-time?fragment=10422
10426,Clairemont Mesa Bl & Dubois Dr,32.834369724651,-117.197424333319,10426,0,,1,F-E/B,,,Cmnt Mesa&Dubois,https://www.sdmts.com/schedules-real-time?fragment=10426
10428,Clairemont Mesa Bl & Genesee Av,32.834353181872,-117.194201089247,10428,0,,1,F-E/B,clagnE,clagen,Cmnt Mesa&Gnsee,https://www.sdmts.com/schedules-real-time?fragment=10428
10432,Clairemont Mesa Bl & Frink Av,32.834384486388,-117.191180207352,10432,0,,1,F-E/B,,,Cmnt Mesa&Frink,https://www.sdmts.com/schedules-real-time?fragment=10432
10433,Hotel Circle S & I-8 West (Ramp),32.759260634703,-117.188448695618,10433,0,,2,N-E/B,,,Hotel Cir S&I-8 W(Ramp),https://www.sdmts.com/schedules-real-time?fragment=10433
10434,Linda Vista Rd & Goshen St,32.770327466153,-117.187919200618,10434,0,,1,F-E/B,,,L Vsta&Goshen,https://www.sdmts.com/schedules-real-time?fragment=10434
10436,Clairemont Mesa Bl & Diane Av,32.834355380670,-117.186693651257,10436,0,,1,F-E/B,,,Cmnt Mesa&Diane,https://www.sdmts.com/schedules-real-time?fragment=10436
10437,Balboa Av & Mt Everest Bl,32.818075239433,-117.184964539974,10437,0,,1,F-E/B,,,Balboa&Mt Everest,https://www.sdmts.com/schedules-real-time?fragment=10437
10441,Balboa Av & Genesee Av,32.819356063325,-117.181325960448,10441,0,,1,F-E/B,balgen,,Balboa&Gnsee,https://www.sdmts.com/schedules-real-time?fragment=10441
10442,Linda Vista Rd & Via Las Cumbres,32.771515270539,-117.179870179466,10442,0,,1,F-E/B,,,L Vsta&Via Las Cumbres,https://www.sdmts.com/schedules-real-time?fragment=10442
10444,Miramar Rd & Miramar Pl,32.877589312793,-117.177994652861,10444,0,,1,F-E/B,,,Miramar&Miramar,https://www.sdmts.com/schedules-real-time?fragment=10444
10446,Balboa Av & Mt Alifan Dr,32.820161368727,-117.175478568110,10446,0,,1,F-E/B,,,Balboa&Mt Alifan,https://www.sdmts.com/schedules-real-time?fragment=10446
10447,Clairemont Mesa Bl & Doliva Dr,32.834225229457,-117.175154372639,10447,0,,1,F-E/B,,,Cmnt Mesa&Doliva,https://www.sdmts.com/schedules-real-time?fragment=10447
10449,Broadway & N Harbor Dr,32.715599813959,-117.172491716735,10449,0,,1,F-E/B,brohar,,Brdwy&N Harbor,https://www.sdmts.com/schedules-real-time?fragment=10449
10450,Miramar Rd & Frost Mar Pl,32.877607569996,-117.172252371872,10450,0,,1,F-E/B,,,Miramar&Frost Mar,https://www.sdmts.com/schedules-real-time?fragment=10450
10451,Balboa Av & Mt Albertine Av,32.820168809253,-117.171175415471,10451,0,,1,F-E/B,,,Balboa&Mt Albertine,https://www.sdmts.com/schedules-real-time?fragment=10451
10452,Washington St & Falcon St,32.749745407812,-117.170182182745,10452,0,,1,F-E/B,,,Wshngtn&Falcon,https://www.sdmts.com/schedules-real-time?fragment=10452
10454,Broadway & Kettner Bl,32.715621740043,-117.168818056504,10454,0,broket,1,F-E/B,broket,,Brdwy&Kettner,https://www.sdmts.com/schedules-real-time?fragment=10454
10456,Washington St & Dove St,32.749748371497,-117.168308780200,10456,0,,1,F-E/B,wasdov,,Wshngtn&Dove,https://www.sdmts.com/schedules-real-time?fragment=10456
10460,Balboa Av & Hathaway St,32.820544451654,-117.166495251264,10460,0,,1,F-E/B,balhat,,Balboa&Hathaway,https://www.sdmts.com/schedules-real-time?fragment=10460
10461,Genesee Av & Linda Vista Rd,32.791217331395,-117.165070663952,10461,0,,1,F-E/B,genlvS,,Gnsee&L Vsta,https://www.sdmts.com/schedules-real-time?fragment=10461
10464,Miramar Rd & Production Av,32.878677814113,-117.164341947409,10464,0,,1,F-E/B,,,Miramar&Production,https://www.sdmts.com/schedules-real-time?fragment=10464
10466,Clairemont Mesa Bl & Shawline St (Kaiser),32.832477795041,-117.162882133944,10466,0,,1,F-E/B,clasha,,Cmnt Mesa&Shawline (Kaiser),https://www.sdmts.com/schedules-real-time?fragment=10466
10467,Mesa College Dr & Armstrong St,32.802783886216,-117.163108019122,10467,0,,1,F-E/B,,,Mesa Coll&Armstrong,https://www.sdmts.com/schedules-real-time?fragment=10467
10468,Washington St & 4th Av,32.749804071347,-117.162282497356,10468,0,,1,N-E/B,,,Wshngtn&4th,https://www.sdmts.com/schedules-real-time?fragment=10468
10471,Metropolitan Dr & Mission Valley Rd,32.777937957628,-117.157426814549,10471,0,,1,F-W/B,,,Metropolitan&MV,https://www.sdmts.com/schedules-real-time?fragment=10471
10474,Market St & 6th Av,32.711435889481,-117.158783874753,10474,0,,1,F-E/B,,,Mrkt&6th,https://www.sdmts.com/schedules-real-time?fragment=10474
10475,Metropolitan Dr & Murray Canyon Rd,32.777295448754,-117.157713010471,10475,0,,1,F-E/B,,,Metropolitan&Murray Cyn,https://www.sdmts.com/schedules-real-time?fragment=10475
10476,Mesa College Dr & Ashford St,32.801720987477,-117.160024837694,10476,0,,1,F-W/B,,,Mesa Coll&Ashford,https://www.sdmts.com/schedules-real-time?fragment=10476
10477,Clairemont Mesa Bl & Ruffner St,32.832544277361,-117.158712469499,10477,0,,1,F-E/B,,,Cmnt Mesa&Ruffner,https://www.sdmts.com/schedules-real-time?fragment=10477
10478,University Av & 7th Av,32.748267660349,-117.158929594407,10478,0,,1,N-E/B,uni6th,,Univ&7th,https://www.sdmts.com/schedules-real-time?fragment=10478
10479,Camino De La Reina & Camino De La Siesta,32.766324226900,-117.160208944531,10479,0,,1,F-E/B,,,Cmo De La Reina&Cmo De La Siesta,https://www.sdmts.com/schedules-real-time?fragment=10479
10481,Vista Hill Av & Health Center Dr,32.794867731862,-117.156826776894,10481,0,,1,F-E/B,,,Vista Hill&Health Ctr,https://www.sdmts.com/schedules-real-time?fragment=10481
10482,Genesee Av & Health Center Dr,32.792407469935,-117.156498815295,10482,0,,1,M-Street-E/B,,,Gnsee&Health Ctr,https://www.sdmts.com/schedules-real-time?fragment=10482
10483,Murray Canyon Rd & Mission Heights Rd,32.776069440135,-117.157736163981,10483,0,,1,F-N/B,,,Murray Cyn&Mission Heights,https://www.sdmts.com/schedules-real-time?fragment=10483
10484,Mira Mesa Bl & Parkdale Av,32.910661483813,-117.155114213830,10484,0,,1,F-E/B,,,Mra Msa&Parkdale,https://www.sdmts.com/schedules-real-time?fragment=10484
10485,Camino De La Reina & Mission Center Rd,32.768191792506,-117.153295744451,10485,0,,1,F-E/B,,,Cmo De La Reina&Mission Ctr,https://www.sdmts.com/schedules-real-time?fragment=10485
10486,Clairemont Mesa Bl & Convoy St,32.832612999537,-117.152338818484,10486,0,,1,F-E/B,clacne,,Cmnt Mesa&Convoy,https://www.sdmts.com/schedules-real-time?fragment=10486
10487,G St & 14th St,32.712554868449,-117.151623457422,10487,0,,1,F-E/B,,,G&14th,https://www.sdmts.com/schedules-real-time?fragment=10487
10488,Market St & 14th St,32.711450952380,-117.151488625018,10488,0,,1,F-E/B,,,Mrkt&14th,https://www.sdmts.com/schedules-real-time?fragment=10488
10489,Broadway & 15th St,32.715696919921,-117.150049492078,10489,0,,1,F-E/B,15bro,,Brdwy&15th,https://www.sdmts.com/schedules-real-time?fragment=10489
10493,Kearny Villa Rd & I-805,32.804616055533,-117.149780265593,10493,0,,1,F-N/B,,,Kearny Villa&I-805,https://www.sdmts.com/schedules-real-time?fragment=10493
10494,University Av & Herbert St,32.748351850586,-117.148938988781,10494,0,,1,F-E/B,,,Univ&Herbert,https://www.sdmts.com/schedules-real-time?fragment=10494
10495,Clairemont Mesa Bl & Mercury St,32.832645080694,-117.148315291883,10495,0,,2,F-E/B,,,Cmnt Mesa&Mercury,https://www.sdmts.com/schedules-real-time?fragment=10495
10496,Aero Dr & Aero Ct,32.809476681179,-117.148098442575,10496,0,,1,F-E/B,aeraer,,Aero&Aero,https://www.sdmts.com/schedules-real-time?fragment=10496
10498,Mira Mesa Bl & Reagan Rd (W),32.912368199777,-117.148725571934,10498,0,,1,F-E/B,,,Mra Msa&Reagan (W),https://www.sdmts.com/schedules-real-time?fragment=10498
10499,Imperial Av & 19th St,32.706211262581,-117.146350669208,10499,0,,1,F-E/B,,,Imperial&19th,https://www.sdmts.com/schedules-real-time?fragment=10499
10500,Camino De La Reina & Michaels,32.770627670872,-117.147172072540,10500,0,,1,M-Street-E/B,,,Cmo De La Reina&Michaels,https://www.sdmts.com/schedules-real-time?fragment=10500
10501,Logan Av & Beardsley St,32.702395296585,-117.145736488632,10501,0,,1,F-E/B,,,Logan&Beardsley,https://www.sdmts.com/schedules-real-time?fragment=10501
10502,El Cajon Bl & Park Bl,32.755120186518,-117.145709830005,10502,0,,1,M-Street-E/B,,,El Cjn&Park,https://www.sdmts.com/schedules-real-time?fragment=10502
10503,Market St & 22nd St,32.711463833739,-117.143676435067,10503,0,,1,F-E/B,,,Mrkt&22nd,https://www.sdmts.com/schedules-real-time?fragment=10503
10504,Broadway & 22nd St,32.715734586843,-117.143735992834,10504,0,,1,F-E/B,,,Brdwy&22nd,https://www.sdmts.com/schedules-real-time?fragment=10504
10505,Camino De La Reina & Camino Del Este,32.770726735172,-117.144505410835,10505,0,,1,N-E/B,,,Cmo De La Reina&Cmo Del Este,https://www.sdmts.com/schedules-real-time?fragment=10505
10506,Aero Dr & Afton Rd,32.809551866565,-117.144177306194,10506,0,,1,F-E/B,,,Aero&Afton,https://www.sdmts.com/schedules-real-time?fragment=10506
10507,Adams Av & Florida St,32.762411471479,-117.143506899862,10507,0,,1,F-E/B,,,Adams&Florida,https://www.sdmts.com/schedules-real-time?fragment=10507
10510,Logan Av & Cesar E Chavez Pkwy (Chicano Park),32.700116065439,-117.142423671486,10510,0,,1,F-E/B,,,Logan&Cesar E Chavez (Chicano Park),https://www.sdmts.com/schedules-real-time?fragment=10510
10511,Mira Mesa Bl & Camino Ruiz,32.912582598179,-117.143035155806,10511,0,,1,F-E/B,mircru,,Mra Msa&Cmo Ruiz,https://www.sdmts.com/schedules-real-time?fragment=10511
10513,Balboa Av & 8611 (Kyocera),32.820547641506,-117.141658870196,10513,0,,2,N-E/B,,,Balboa&8611 (Kyocera),https://www.sdmts.com/schedules-real-time?fragment=10513
10515,Imperial Av & 25th St,32.706271684072,-117.139524440905,10515,0,,1,F-E/B,imp25,,Imperial&25th,https://www.sdmts.com/schedules-real-time?fragment=10515
10516,Ocean View Bl & Commercial St,32.705164354740,-117.139861106501,10516,0,,1,F-S/B,25tro,,Ocn Vw&Commercial,https://www.sdmts.com/schedules-real-time?fragment=10516
10517,El Cajon Bl & Louisiana St,32.755141638690,-117.139705599685,10517,0,,1,F-E/B,,,El Cjn&Louisiana,https://www.sdmts.com/schedules-real-time?fragment=10517
10518,Adams Av & Louisiana St,32.762803650128,-117.139822017264,10518,0,,1,F-E/B,,,Adams&Louisiana,https://www.sdmts.com/schedules-real-time?fragment=10518
10519,Logan Av & Sampson St,32.697842007712,-117.139143584363,10519,0,,1,F-E/B,,,Logan&Sampson,https://www.sdmts.com/schedules-real-time?fragment=10519
10520,Aero Dr & Sandrock Rd,32.809625442335,-117.139699595673,10520,0,,1,F-E/B,,,Aero&Sandrock,https://www.sdmts.com/schedules-real-time?fragment=10520
10521,Kearny Villa Rd & Kearny Villa Way,32.830821483114,-117.139767331290,10521,0,,1,F-N/B,,,Kearny Villa&Kearny Villa Way,https://www.sdmts.com/schedules-real-time?fragment=10521
10523,University Av & Texas St,32.748378025238,-117.138495699235,10523,0,,1,F-E/B,,,Univ&Texas,https://www.sdmts.com/schedules-real-time?fragment=10523
10524,Market St & 26th St,32.711530761643,-117.137834939318,10524,0,,1,F-E/B,,,Mrkt&26th,https://www.sdmts.com/schedules-real-time?fragment=10524
10525,Gramercy Dr & Sandrock Rd,32.802943611047,-117.138200126684,10525,0,,1,F-E/B,,,Gramercy&Sandrock,https://www.sdmts.com/schedules-real-time?fragment=10525
10527,University Av & Arnold Av,32.748395067296,-117.136508636251,10527,0,,1,F-E/B,,,Univ&Arnold,https://www.sdmts.com/schedules-real-time?fragment=10527
10529,National Av & 27th St,32.695798027051,-117.135579936125,10529,0,,1,F-E/B,,,Natl&27th,https://www.sdmts.com/schedules-real-time?fragment=10529
10530,Market St & 27th St,32.711532003667,-117.135751016064,10530,0,,1,F-E/B,,,Mrkt&27th,https://www.sdmts.com/schedules-real-time?fragment=10530
10532,C St & 27th St,32.716819425198,-117.135849668715,10532,0,,1,F-E/B,,,C&27th,https://www.sdmts.com/schedules-real-time?fragment=10532
10533,El Cajon Bl & Oregon St,32.755163305354,-117.134781261026,10533,0,,1,F-E/B,elcorg,,El Cjn&Oregon,https://www.sdmts.com/schedules-real-time?fragment=10533
10534,University Av & Pershing Av,32.748394098075,-117.134345760822,10534,0,,1,F-E/B,,,Univ&Pershing,https://www.sdmts.com/schedules-real-time?fragment=10534
10535,Ocean View Bl & 28th St,32.701099787466,-117.133295953245,10535,0,,1,F-E/B,,,Ocn Vw&28th,https://www.sdmts.com/schedules-real-time?fragment=10535
10537,Market St & 28th St,32.711544972340,-117.133559925373,10537,0,,1,F-E/B,,,Mrkt&28th,https://www.sdmts.com/schedules-real-time?fragment=10537
10539,Gramercy Dr & Pasternack Pl,32.802418559016,-117.133999876481,10539,0,,1,F-E/B,,,Gramercy&Pasternack,https://www.sdmts.com/schedules-real-time?fragment=10539
10540,Adams Av & Idaho St,32.762818201421,-117.133589488188,10540,0,,1,F-E/B,,,Adams&Idaho,https://www.sdmts.com/schedules-real-time?fragment=10540
10542,Mira Mesa Bl & Greenford Dr,32.913950447452,-117.132445714847,10542,0,,1,F-E/B,,,Mra Msa&Greenford,https://www.sdmts.com/schedules-real-time?fragment=10542
10543,El Cajon Bl & 30th St,32.755210090105,-117.129775855774,10543,0,,1,F-E/B,elc30,,El Cjn&30th,https://www.sdmts.com/schedules-real-time?fragment=10543
10544,National Av & 30th St,32.695898604775,-117.129206731256,10544,0,,1,F-E/B,,,Natl&30th,https://www.sdmts.com/schedules-real-time?fragment=10544
10546,Aero Dr & Ruffin Rd,32.809789779858,-117.129035613610,10546,0,,1,F-E/B,,,Aero&Ruffin,https://www.sdmts.com/schedules-real-time?fragment=10546
10547,University Av & Grim Av,32.748404449948,-117.127893045918,10547,0,,1,F-E/B,,,Univ&Grim,https://www.sdmts.com/schedules-real-time?fragment=10547
10548,El Cajon Bl & Illinois St,32.755191245017,-117.127404464813,10548,0,,1,F-E/B,,,El Cjn&Illinois,https://www.sdmts.com/schedules-real-time?fragment=10548
10549,Adams Av & W Mountain View Dr,32.763242034331,-117.126573816294,10549,0,,1,N-E/B,,,Adams&W Mtn View,https://www.sdmts.com/schedules-real-time?fragment=10549
10550,University Av & Herman Av,32.748425916359,-117.125645831722,10550,0,,1,F-E/B,,,Univ&Herman,https://www.sdmts.com/schedules-real-time?fragment=10550
10551,Main St & 32nd St,32.691966011402,-117.124883558688,10551,0,,1,F-S/B,main32,,Main&32nd,https://www.sdmts.com/schedules-real-time?fragment=10551
10552,National Av & 32nd St,32.695921637650,-117.124809045800,10552,0,,1,F-E/B,nat32,,Natl&32nd,https://www.sdmts.com/schedules-real-time?fragment=10552
10553,Mira Mesa Bl & Rickert Rd,32.916992546812,-117.126721441501,10553,0,,1,F-E/B,,,Mra Msa&Rickert,https://www.sdmts.com/schedules-real-time?fragment=10553
10554,Adams Av & 32nd St,32.763312928480,-117.124717071396,10554,0,,1,F-E/B,,,Adams&32nd,https://www.sdmts.com/schedules-real-time?fragment=10554
10555,National Av & 33rd St,32.695900765103,-117.122712272638,10555,0,,1,F-E/B,,,Natl&33rd,https://www.sdmts.com/schedules-real-time?fragment=10555
10556,Camino Del Rio S & Mission City Pkwy,32.774683105540,-117.123609960404,10556,0,,1,M-Street-E/B,mispky,,Cmo Del Rio S&Mission City,https://www.sdmts.com/schedules-real-time?fragment=10556
10560,University Av & 33rd St,32.748736169316,-117.121811036910,10560,0,,1,M-Street-E/B,,,Univ&33rd,https://www.sdmts.com/schedules-real-time?fragment=10560
10563,36th St & Imperial Av,32.705303222273,-117.116892087665,10563,0,,0,F-S/B,,,36th&Imperial,https://www.sdmts.com/schedules-real-time?fragment=10563
10564,Adams Av & 34th St,32.763270392182,-117.120237301910,10564,0,,1,F-E/B,,,Adams&34th,https://www.sdmts.com/schedules-real-time?fragment=10564
10568,Ocean View Bl & 35th St,32.701176003691,-117.118307808204,10568,0,,1,F-E/B,,,Ocn Vw&35th,https://www.sdmts.com/schedules-real-time?fragment=10568
10570,Ocean View Bl & 36th St,32.701169044030,-117.116562123099,10570,0,,1,F-E/B,,,Ocn Vw&36th,https://www.sdmts.com/schedules-real-time?fragment=10570
10571,Market St & 36th St,32.711434901123,-117.116142876945,10571,0,,0,F-E/B,,,Mrkt&36th,https://www.sdmts.com/schedules-real-time?fragment=10571
10572,University Av & Wilson Av,32.749689159685,-117.116453885942,10572,0,,1,F-E/B,35univ,,Univ&Wilson,https://www.sdmts.com/schedules-real-time?fragment=10572
10576,Market St & Gateway Center Dr,32.711411458513,-117.113606820066,10576,0,,0,M-Street-E/B,,,Mrkt&Gateway Ctr,https://www.sdmts.com/schedules-real-time?fragment=10576
10577,Adams Av & Cherokee Av,32.763238417099,-117.113835135562,10577,0,,1,F-S/B,cheada,,Adams&Cherokee,https://www.sdmts.com/schedules-real-time?fragment=10577
10578,Market St & Gateway Center Wy,32.711385398555,-117.111831487006,10578,0,,0,M-Street-E/B,,,Mrkt&Gateway Ctr,https://www.sdmts.com/schedules-real-time?fragment=10578
10579,Carmel Mountain Rd & Paseo Cardiel,32.960732440994,-117.113011358368,10579,0,,1,F-E/B,cmrpas,,Carmel Mtn&Paseo Cardiel,https://www.sdmts.com/schedules-real-time?fragment=10579
10581,Adams Av & 39th St,32.763220807552,-117.110848735563,10581,0,,1,F-E/B,ada39E,,Adams&39th,https://www.sdmts.com/schedules-real-time?fragment=10581
10582,Ocean View Bl & 39th St,32.701222416282,-117.110116542350,10582,0,,1,F-E/B,,,Ocn Vw&39th,https://www.sdmts.com/schedules-real-time?fragment=10582
10585,Willow Creek Rd & Business Park Av,32.901634653806,-117.110975131169,10585,0,,1,F-E/B,,,Willow Creek&Business Park,https://www.sdmts.com/schedules-real-time?fragment=10585
10587,Market St & 40th St,32.711411251366,-117.108518911238,10587,0,,1,M-Street-E/B,,,Mrkt&40th,https://www.sdmts.com/schedules-real-time?fragment=10587
10588,Rancho Mission Rd & Friars Rd,32.787806836468,-117.108388335869,10588,0,,1,M-Street-S/B,,,Rcho Mission&Friars,https://www.sdmts.com/schedules-real-time?fragment=10588
10591,Rancho Penasquitos Bl & Calle De Las Rosas,32.956054721638,-117.109822689722,10591,0,,1,F-E/B,,,Rcho Pnsqts&Calle De Las Rosas,https://www.sdmts.com/schedules-real-time?fragment=10591
10592,Home Av & Gateway Dr,32.723407670601,-117.107052288438,10592,0,,1,F-E/B,homgat,,Home&Gateway,https://www.sdmts.com/schedules-real-time?fragment=10592
10593,8th St & National City Bl,32.675972795565,-117.106045301491,10593,0,,1,F-E/B,8thnat,,8th&Natl City,https://www.sdmts.com/schedules-real-time?fragment=10593
10594,Adams Av & Kensington Dr,32.763198257365,-117.106980734796,10594,0,,1,F-E/B,,,Adams&Kensington,https://www.sdmts.com/schedules-real-time?fragment=10594
10598,Imperial Av & Messina Wy,32.704081844718,-117.105232502052,10598,0,,1,F-E/B,,,Imperial&Messina,https://www.sdmts.com/schedules-real-time?fragment=10598
10599,University Av & Marlborough Av,32.749568799313,-117.105342276599,10599,0,,1,F-E/B,,,Univ&Marlborough,https://www.sdmts.com/schedules-real-time?fragment=10599
10600,8th St & C Av,32.676534561568,-117.103909155749,10600,0,,1,N-E/B,,,8th&C,https://www.sdmts.com/schedules-real-time?fragment=10600
10603,Ocean View Bl & San Pasqual Dr,32.700457396708,-117.101936935631,10603,0,,1,F-E/B,ecc,,Ocn Vw&San Pasqual,https://www.sdmts.com/schedules-real-time?fragment=10603
10604,Willow Creek Rd & Caminito Covewood,32.898306155523,-117.104648161325,10604,0,,1,F-E/B,,,Willow Creek&Cmto Covewood,https://www.sdmts.com/schedules-real-time?fragment=10604
10605,Tierrasanta Bl & Santo Rd,32.823193109951,-117.103339531514,10605,0,,1,F-E/B,santie,,Trasnta&Santo,https://www.sdmts.com/schedules-real-time?fragment=10605
10607,El Cajon Bl & Menlo Av,32.755876734470,-117.094752562581,10607,0,,0,F-W/B,,,El Cjn&Menlo,https://www.sdmts.com/schedules-real-time?fragment=10607
10609,El Cajon Bl & 43rd St,32.755012574404,-117.101514697386,10609,0,,1,F-E/B,43ecaj,,El Cjn&43rd,https://www.sdmts.com/schedules-real-time?fragment=10609
10611,University Av & Fairmount Av,32.749530334968,-117.100170486963,10611,0,,1,M-Street-E/B,unifai,,Univ&Fairmnt,https://www.sdmts.com/schedules-real-time?fragment=10611
10612,El Cajon Bl & Fairmount Av,32.755003755808,-117.100402200848,10612,0,,1,F-E/B,,,El Cjn&Fairmnt,https://www.sdmts.com/schedules-real-time?fragment=10612
10613,Logan Av & 44th St,32.696761874879,-117.100168699133,10613,0,,0,M-Street-E/B,,,Logan&44th,https://www.sdmts.com/schedules-real-time?fragment=10613
10615,Camino Del Rio S & Caminito Pintoresco,32.776688273729,-117.100572518746,10615,0,,1,F-S/B,,,Cmo Del Rio S&Cmto Pintoresco,https://www.sdmts.com/schedules-real-time?fragment=10615
10616,University Av & Highland Av,32.749520549125,-117.098397800861,10616,0,,1,F-E/B,,,Univ&Highland,https://www.sdmts.com/schedules-real-time?fragment=10616
10618,Imperial Av & Greenwood Cemetery,32.704016132838,-117.101223647958,10618,0,,0,F-E/B,,,Imperial&Greenwood Cemetery,https://www.sdmts.com/schedules-real-time?fragment=10618
10619,Market St & 45th St,32.711352382766,-117.097559033387,10619,0,,1,F-E/B,,,Mrkt&45th,https://www.sdmts.com/schedules-real-time?fragment=10619
10620,El Cajon Bl & 45th St,32.755266507294,-117.097366739705,10620,0,,1,F-E/B,,,El Cjn&45th,https://www.sdmts.com/schedules-real-time?fragment=10620
10621,University Av & Chamoune Av,32.749483830499,-117.096140240108,10621,0,,1,F-E/B,,,Univ&Chamoune,https://www.sdmts.com/schedules-real-time?fragment=10621
10622,Logan Av & 46th St,32.696716100478,-117.095633791518,10622,0,,1,F-E/B,,,Logan&46th,https://www.sdmts.com/schedules-real-time?fragment=10622
10623,El Cajon Bl & Menlo Av,32.755722746066,-117.094160722935,10623,0,,1,F-E/B,,,El Cjn&Menlo,https://www.sdmts.com/schedules-real-time?fragment=10623
10624,Imperial Av & 47th St,32.704025666784,-117.092631921403,10624,0,,1,M-Street-E/B,imp47,,Imperial&47th,https://www.sdmts.com/schedules-real-time?fragment=10624
10625,Market St & 47th St,32.711216195580,-117.092967244923,10625,0,,1,F-E/B,,,Mrkt&47th,https://www.sdmts.com/schedules-real-time?fragment=10625
10628,Zion Av & Cartwright St,32.792899618759,-117.090443003127,10628,0,,1,F-E/B,,,Zion&Cartwright,https://www.sdmts.com/schedules-real-time?fragment=10628
10629,Logan Av & 49th St,32.696719218773,-117.089142548718,10629,0,,1,F-E/B,,,Logan&49th,https://www.sdmts.com/schedules-real-time?fragment=10629
10632,Zion Av & Estrella Av,32.792869610893,-117.087579143811,10632,0,,1,F-E/B,,,Zion&Estrella,https://www.sdmts.com/schedules-real-time?fragment=10632
10633,University Av & 50th St,32.749147822059,-117.086568317070,10633,0,,1,F-E/B,,,Univ&50th,https://www.sdmts.com/schedules-real-time?fragment=10633
10634,Montezuma Rd & Collwood Bl,32.770324271440,-117.085054980259,10634,0,,2,F-E/B,,,Mntzma&Collwood,https://www.sdmts.com/schedules-real-time?fragment=10634
10635,Olvera Av & Euclid Av,32.697458597516,-117.084277030024,10635,0,,1,F-E/B,,,Olvera&Euclid,https://www.sdmts.com/schedules-real-time?fragment=10635
10636,Imperial Av & Euclid Av,32.704700289076,-117.084365070139,10636,0,,0,F-E/B,,,Imperial&Euclid,https://www.sdmts.com/schedules-real-time?fragment=10636
10637,Federal Bl & Euclid Av,32.721273566877,-117.084388657408,10637,0,,1,F-E/B,,,Federal&Euclid,https://www.sdmts.com/schedules-real-time?fragment=10637
10638,Roswell St & 51st St,32.711708485272,-117.084028276100,10638,0,,0,N-E/B,,,Roswell&51st,https://www.sdmts.com/schedules-real-time?fragment=10638
10639,El Cajon Bl & 52nd St,32.757241961741,-117.082940301532,10639,0,,1,F-E/B,,,El Cjn&52nd,https://www.sdmts.com/schedules-real-time?fragment=10639
10640,Grape St & 54th St,32.725657550819,-117.082742594205,10640,0,,0,F-E/B,,,Grape&54th,https://www.sdmts.com/schedules-real-time?fragment=10640
10641,Imperial Av & San Jacinto Dr,32.705789182077,-117.082259076992,10641,0,,0,F-E/B,,,Imperial&San Jacinto,https://www.sdmts.com/schedules-real-time?fragment=10641
10642,Federal Bl & Pentecost Wy,32.721410246801,-117.082465110440,10642,0,,1,F-E/B,,,Federal&Pentecost,https://www.sdmts.com/schedules-real-time?fragment=10642
10647,Olvera Av & Santa Isabel Dr,32.698657271746,-117.079747311854,10647,0,,1,F-E/B,,,Olvera&Santa Isabel,https://www.sdmts.com/schedules-real-time?fragment=10647
10648,Grape St & Champion St,32.725984208821,-117.079949314466,10648,0,,2,F-E/B,,,Grape&Champion,https://www.sdmts.com/schedules-real-time?fragment=10648
10650,Imperial Av & 54th St,32.707079564674,-117.078386445042,10650,0,,1,F-E/B,,,Imperial&54th,https://www.sdmts.com/schedules-real-time?fragment=10650
10651,Roswell St & Derby St,32.714997331901,-117.077664318532,10651,0,,0,F-E/B,,,Roswell&Derby,https://www.sdmts.com/schedules-real-time?fragment=10651
10652,Streamview Dr & 55th St,32.742448721180,-117.076933501701,10652,0,,1,F-E/B,,,Strmvw&55th,https://www.sdmts.com/schedules-real-time?fragment=10652
10653,Imperial Av & 55th St,32.707636509538,-117.076077030354,10653,0,,0,F-E/B,,,Imperial&55th,https://www.sdmts.com/schedules-real-time?fragment=10653
10654,Montezuma Rd & 55th St,32.770597929018,-117.075837905697,10654,0,,1,F-E/B,,,Mntzma&55th,https://www.sdmts.com/schedules-real-time?fragment=10654
10655,El Cajon Bl & 56th St,32.758418791638,-117.074686100881,10655,0,,1,F-E/B,,,El Cjn&56th,https://www.sdmts.com/schedules-real-time?fragment=10655
10658,Imperial Av & Valencia Pkwy,32.708682786320,-117.072510791776,10658,0,,1,F-E/B,,,Imperial&Valencia,https://www.sdmts.com/schedules-real-time?fragment=10658
10659,El Cajon Bl & 58th St,32.758715525642,-117.072642870630,10659,0,,1,F-E/B,,,El Cjn&58th,https://www.sdmts.com/schedules-real-time?fragment=10659
10660,Waring Rd & Birchwood St,32.797687774003,-117.072860502840,10660,0,,1,M-Street-E/B,,,Waring&Birchwood,https://www.sdmts.com/schedules-real-time?fragment=10660
10661,University Av & 58th St,32.749096345960,-117.072146504342,10661,0,,1,F-E/B,,,Univ&58th,https://www.sdmts.com/schedules-real-time?fragment=10661
10662,Rancho Bernardo Rd & Bernardo Center Dr,33.022758280056,-117.073797763200,10662,0,,1,F-E/B,berran,,Rcho Bdo&Bdo Ctr,https://www.sdmts.com/schedules-real-time?fragment=10662
10664,Imperial Av & Linnet St,32.709049835499,-117.070222288785,10664,0,,0,F-E/B,,,Imperial&Linnet,https://www.sdmts.com/schedules-real-time?fragment=10664
10665,El Cajon Bl & 59th St,32.759726550997,-117.070228951851,10665,0,,1,M-Street-E/B,elc59,,El Cjn&59th,https://www.sdmts.com/schedules-real-time?fragment=10665
10666,Waring Rd & Eldridge St,32.796226348786,-117.070679563231,10666,0,,1,F-E/B,,,Waring&Eldridge,https://www.sdmts.com/schedules-real-time?fragment=10666
10668,Del Sol Bl & Beyer Bl,32.574102956538,-117.065930275516,10668,0,,1,F-E/B,,,Del Sol&Beyer,https://www.sdmts.com/schedules-real-time?fragment=10668
10669,Imperial Av & 60th St,32.709284739388,-117.067545675593,10669,0,,0,M-Street-E/B,,,Imperial&60th,https://www.sdmts.com/schedules-real-time?fragment=10669
10671,Navajo Rd & College Av,32.794002821824,-117.066949171233,10671,0,,2,F-E/B,,,Navajo&Coll,https://www.sdmts.com/schedules-real-time?fragment=10671
10672,Skyline Dr & 61st St,32.701328307498,-117.067062303876,10672,0,,1,N-E/B,,,Skyline&61st,https://www.sdmts.com/schedules-real-time?fragment=10672
10673,El Cajon Bl & College Av,32.761502279573,-117.066468872215,10673,0,,1,F-E/B,elccol,,El Cjn&Coll,https://www.sdmts.com/schedules-real-time?fragment=10673
10675,Streamview Dr & Glade St,32.744238867721,-117.064406336376,10675,0,,1,F-E/B,,,Strmvw&Glade,https://www.sdmts.com/schedules-real-time?fragment=10675
10676,University Av & College Av,32.752891588527,-117.063920370269,10676,0,,1,F-E/B,unicol,,Univ&Coll,https://www.sdmts.com/schedules-real-time?fragment=10676
10677,Navajo Rd & Camino Estrellado,32.796537360893,-117.063972321267,10677,0,,1,F-E/B,,,Navajo&Cmo Estrellado,https://www.sdmts.com/schedules-real-time?fragment=10677
10678,Skyline Dr & O'Meara St,32.701248563567,-117.062075033576,10678,0,,1,F-E/B,,,Skyline&O'Meara,https://www.sdmts.com/schedules-real-time?fragment=10678
10679,El Cajon Bl & 63rd St,32.763737314315,-117.062644566847,10679,0,,1,F-E/B,,,El Cjn&63rd,https://www.sdmts.com/schedules-real-time?fragment=10679
10682,El Cajon Bl & Art St,32.765043575262,-117.060444559593,10682,0,,1,F-E/B,,,El Cjn&Art,https://www.sdmts.com/schedules-real-time?fragment=10682
10683,University Av & Bonillo Dr,32.754223416482,-117.059505849930,10683,0,,1,F-E/B,,,Univ&Bonillo,https://www.sdmts.com/schedules-real-time?fragment=10683
10684,Del Sol Bl & Del Sur Bl,32.573130165778,-117.057566198611,10684,0,,1,F-E/B,,,Del Sol&Del Sur,https://www.sdmts.com/schedules-real-time?fragment=10684
10685,College Av & Streamview Dr,32.745467077042,-117.058192781072,10685,0,,1,F-S/B,,,Coll&Strmvw,https://www.sdmts.com/schedules-real-time?fragment=10685
10686,Imperial Av & 65th St,32.710459455491,-117.057784030432,10686,0,,1,F-E/B,,,Imperial&65th,https://www.sdmts.com/schedules-real-time?fragment=10686
10688,El Cajon Bl & Rolando Bl,32.767032057003,-117.056887698868,10688,0,,1,F-E/B,,,El Cjn&Rolando,https://www.sdmts.com/schedules-real-time?fragment=10688
10690,Skyline Dr & Rio Lindo Dr,32.701909268798,-117.052254269489,10690,0,,1,F-E/B,,,Skyline&Rio Lindo,https://www.sdmts.com/schedules-real-time?fragment=10690
10691,El Cajon Bl & 68th St,32.768555821284,-117.050811753283,10691,0,,1,F-E/B,,,El Cjn&68th,https://www.sdmts.com/schedules-real-time?fragment=10691
10692,Federal Bl & College Av,32.741402179005,-117.048890120576,10692,0,,1,F-E/B,,,Federal&Coll,https://www.sdmts.com/schedules-real-time?fragment=10692
10693,Navajo Rd & Park Ridge Bl,32.801597390080,-117.050090370935,10693,0,,1,N-E/B,,,Navajo&Park Ridge,https://www.sdmts.com/schedules-real-time?fragment=10693
10696,University Av & Lois St,32.754963734037,-117.047113545102,10696,0,,1,F-E/B,,,Univ&Lois,https://www.sdmts.com/schedules-real-time?fragment=10696
10697,El Cajon Bl & 70th St,32.768621415155,-117.046622286521,10697,0,,1,F-E/B,elc701,,El Cjn&70th,https://www.sdmts.com/schedules-real-time?fragment=10697
10698,Lisbon St & 71st St,32.711977018114,-117.045034257667,10698,0,,2,M-Street-E/B,,,Lisbon&71st,https://www.sdmts.com/schedules-real-time?fragment=10698
10700,University Av & Massachusetts Av,32.755149616570,-117.042577771480,10700,0,,1,F-E/B,,,Univ&Mass,https://www.sdmts.com/schedules-real-time?fragment=10700
10701,Broadway & Massachusetts Av,32.742444600424,-117.042382188026,10701,0,,1,F-E/B,,,Brdwy&Mass,https://www.sdmts.com/schedules-real-time?fragment=10701
10703,Lake Murray Bl & Kiowa Dr,32.779336101721,-117.039613444147,10703,0,,1,M-Street-N/B,,,Lake Murray&Kiowa,https://www.sdmts.com/schedules-real-time?fragment=10703
10704,Lisbon St & Tibbett St,32.712036797715,-117.039579510234,10704,0,,0,F-E/B,,,Lisbon&Tibbett,https://www.sdmts.com/schedules-real-time?fragment=10704
10705,Broadway & West St,32.742688035118,-117.038706144373,10705,0,,1,F-W/B,,,Brdwy&West,https://www.sdmts.com/schedules-real-time?fragment=10705
10706,Jackson Dr & Golfcrest Dr,32.800967527505,-117.039488488960,10706,0,,1,F-E/B,,,Jackson&Golfcrest,https://www.sdmts.com/schedules-real-time?fragment=10706
10707,Lisbon St & Jamacha Rd,32.712044866660,-117.038318169590,10707,0,,0,F-E/B,,,Lisbon&Jamacha,https://www.sdmts.com/schedules-real-time?fragment=10707
10708,Broadway & West St,32.742495584694,-117.038284889579,10708,0,,1,F-E/B,,,Brdwy&West,https://www.sdmts.com/schedules-real-time?fragment=10708
10711,Lake Murray Bl & Shasta Ln,32.779828461175,-117.035677789868,10711,0,,1,F-N/B,,,Lake Murray&Shasta,https://www.sdmts.com/schedules-real-time?fragment=10711
10712,San Vicente St & Meadowbrook Dr,32.708798210370,-117.034979673714,10712,0,,0,F-E/B,,,San Vicente&Mdwbrk,https://www.sdmts.com/schedules-real-time?fragment=10712
10713,Skyline Dr & Deerock Pl,32.702104621712,-117.034708775521,10713,0,,1,F-E/B,,,Skyline&Deerock,https://www.sdmts.com/schedules-real-time?fragment=10713
10714,Jamacha Rd & Beacon Dr,32.713919592552,-117.034830215105,10714,0,,0,F-E/B,,,Jamacha&Beacon,https://www.sdmts.com/schedules-real-time?fragment=10714
10715,San Vicente St & San Vicente Ct,32.709599566759,-117.033006967494,10715,0,,1,M-Street-E/B,,,San Vicente&San Vicente,https://www.sdmts.com/schedules-real-time?fragment=10715
10717,University Av & Parks Av,32.760433782825,-117.032860256525,10717,0,,1,F-E/B,,,Univ&Parks,https://www.sdmts.com/schedules-real-time?fragment=10717
10719,San Vicente St & Rytko St,32.710823011032,-117.031649156904,10719,0,,2,F-E/B,,,San Vicente&Rytko,https://www.sdmts.com/schedules-real-time?fragment=10719
10720,Brookhaven Rd & Woodway Ct,32.699103210296,-117.030388036229,10720,0,,0,M-Street-E/B,,,Brookhaven&Woodway,https://www.sdmts.com/schedules-real-time?fragment=10720
10721,Jackson Dr & Twin Lake Dr,32.796579087676,-117.031137959267,10721,0,,1,F-E/B,,,Jackson&Twin Lake,https://www.sdmts.com/schedules-real-time?fragment=10721
10722,Paradise Valley Rd & Deep Dell Rd,32.695498012898,-117.028955179237,10722,0,,1,F-E/B,deepar,,Pdse Vly&Deep Dell,https://www.sdmts.com/schedules-real-time?fragment=10722
10724,Broadway & Grove St,32.742673884892,-117.027076176021,10724,0,,1,F-E/B,,,Brdwy&Grove,https://www.sdmts.com/schedules-real-time?fragment=10724
10725,San Vicente St & Sawtelle Av,32.711856015000,-117.026495641980,10725,0,,2,F-E/B,,,San Vicente&Sawtelle,https://www.sdmts.com/schedules-real-time?fragment=10725
10728,Jamacha Rd & Osage Dr,32.718435105625,-117.023120233626,10728,0,,2,M-Street-E/B,,,Jamacha&Osage,https://www.sdmts.com/schedules-real-time?fragment=10728
10730,Jamacha Rd & Elkelton Bl,32.714634408819,-117.016883692641,10730,0,,1,F-E/B,elkjam,,Jamacha&Elkelton,https://www.sdmts.com/schedules-real-time?fragment=10730
10733,La Mesa Bl & Randlett Dr,32.768789004050,-117.012699888598,10733,0,,1,M-Street-E/B,,,La Mesa&Randlett,https://www.sdmts.com/schedules-real-time?fragment=10733
10734,Navajo Rd & Medford St,32.802261556543,-117.003955632257,10734,0,,1,N-E/B,,,Navajo&Medford,https://www.sdmts.com/schedules-real-time?fragment=10734
10735,La Mesa Bl & Grossmont Bl,32.773283464832,-117.005438360389,10735,0,,1,F-W/B,,,La Mesa&Grossmont,https://www.sdmts.com/schedules-real-time?fragment=10735
10736,Navajo Rd & Medford St,32.801883213040,-117.002448872567,10736,0,,1,F-E/B,,,Navajo&Medford,https://www.sdmts.com/schedules-real-time?fragment=10736
10759,Turquoise St & La Jolla Bl,32.808293311705,-117.261322551144,10759,0,,1,N-W/B,,,Turquoise&LJ,https://www.sdmts.com/schedules-real-time?fragment=10759
10760,Torrey Pines Rd & Viking Way,32.849762362107,-117.261102258915,10760,0,,1,N-S/B,,,Try Pines&Viking Way,https://www.sdmts.com/schedules-real-time?fragment=10760
10762,Grand Av & Bayard St,32.795226372402,-117.252945885252,10762,0,,1,N-W/B,grabay,,Grand&Bayard,https://www.sdmts.com/schedules-real-time?fragment=10762
10763,W Mission Bay Dr & Mission Bl,32.772153870353,-117.250731174210,10763,0,,1,N-W/B,mismis,,W Mission Bay&Mission,https://www.sdmts.com/schedules-real-time?fragment=10763
10764,Garnet Av & Fanuel St,32.798748525041,-117.245998972773,10764,0,,1,N-W/B,,,Garnet&Fanuel,https://www.sdmts.com/schedules-real-time?fragment=10764
10765,Voltaire St & Sunset Cliffs Bl,32.749817187663,-117.242821054441,10765,0,,1,N-W/B,,,Voltaire&Sunset Cliffs,https://www.sdmts.com/schedules-real-time?fragment=10765
10768,Garnet Av & Jewell St,32.800334046448,-117.238867037881,10768,0,,1,N-W/B,,,Garnet&Jewell,https://www.sdmts.com/schedules-real-time?fragment=10768
10769,Voltaire St & Soto St,32.746434739446,-117.237559608304,10769,0,,2,N-W/B,,,Voltaire&Soto,https://www.sdmts.com/schedules-real-time?fragment=10769
10772,Gilman Dr & Myers Dr,32.877182642543,-117.235828646115,10772,0,,1,N-W/B,gilmye,,Gilman&Myers,https://www.sdmts.com/schedules-real-time?fragment=10772
10774,Garnet Av & Morrell St,32.801566506760,-117.233221439147,10774,0,,1,N-W/B,,,Garnet&Morrell,https://www.sdmts.com/schedules-real-time?fragment=10774
10776,Chatsworth Bl & Poe St,32.736952789399,-117.230952526235,10776,0,,1,N-S/B,,,Chatsworth&Poe,https://www.sdmts.com/schedules-real-time?fragment=10776
10778,Macaulay St & Clove St,32.732216479012,-117.229989283829,10778,0,,2,N-W/B,,,Macaulay&Clove,https://www.sdmts.com/schedules-real-time?fragment=10778
10779,Chatsworth Bl & Tennyson St,32.738425241225,-117.229664830531,10779,0,,1,N-S/B,,,Chatsworth&Tennyson,https://www.sdmts.com/schedules-real-time?fragment=10779
10780,Lowell St & Willow St,32.730366986928,-117.228570447098,10780,0,,2,N-W/B,,,Lowell&Willow,https://www.sdmts.com/schedules-real-time?fragment=10780
10782,West Point Loma Bl & Rue D'Orleans,32.752837061516,-117.226731840321,10782,0,,1,F-W/B,,,WPt Loma&Rue D'Orleans,https://www.sdmts.com/schedules-real-time?fragment=10782
10783,Garnet Av & Donaldson Dr,32.803545299139,-117.225966488518,10783,0,,0,N-W/B,,,Garnet&Donaldson,https://www.sdmts.com/schedules-real-time?fragment=10783
10787,West Point Loma Bl & Groton St,32.754753265649,-117.221099910632,10787,0,,1,N-W/B,wplgro,,WPt Loma&Groton,https://www.sdmts.com/schedules-real-time?fragment=10787
10790,Garnet Av & Mission Bay Dr,32.806447670228,-117.217946783467,10790,0,,1,M-Street-W/B,,,Garnet&Mission Bay,https://www.sdmts.com/schedules-real-time?fragment=10790
10793,La Jolla Village Dr & Regents Rd,32.871503025601,-117.218668659572,10793,0,,1,N-W/B,lajreW,,LJ Vlge&Rgnts,https://www.sdmts.com/schedules-real-time?fragment=10793
10796,Midway Dr & Kemper St,32.751994744706,-117.214665165409,10796,0,,1,N-N/B,,,Midway&Kemper,https://www.sdmts.com/schedules-real-time?fragment=10796
10798,Governor Dr & Scripps St,32.851206165323,-117.214954878303,10798,0,,1,N-W/B,,,Governor&Scripps,https://www.sdmts.com/schedules-real-time?fragment=10798
10800,Clairemont Mesa Bl & Moraga Av,32.828675549402,-117.212959741474,10800,0,,1,N-W/B,,,Cmnt Mesa&Moraga,https://www.sdmts.com/schedules-real-time?fragment=10800
10802,Rosecrans St & Midway Dr,32.750633845416,-117.205530162895,10802,0,,1,M-Street-S/B,rosmid,,Rosecrans&Midway,https://www.sdmts.com/schedules-real-time?fragment=10802
10806,Morena Bl & Buenos Av,32.769068197615,-117.200193162763,10806,0,,1,N-N/B,,,Morena&Buenos,https://www.sdmts.com/schedules-real-time?fragment=10806
10815,Clairemont Mesa Bl & Frink Av,32.834622571271,-117.191316233941,10815,0,,1,N-W/B,,,Cmnt Mesa&Frink,https://www.sdmts.com/schedules-real-time?fragment=10815
10816,Taylor St & I-8 East (Ramp),32.759408325958,-117.189988867350,10816,0,,1,F-W/B,,,Taylor&I-8 E(Ramp),https://www.sdmts.com/schedules-real-time?fragment=10816
10818,Hotel Circle N & Hotel Circle Pl,32.760287527313,-117.186416824128,10818,0,,1,N-W/B,,,Hotel Cir N&Hotel Cir,https://www.sdmts.com/schedules-real-time?fragment=10818
10824,Linda Vista Rd & Via Las Cumbres,32.771639112045,-117.179484344107,10824,0,,1,N-W/B,twain,,L Vsta&Via Las Cumbres,https://www.sdmts.com/schedules-real-time?fragment=10824
10825,Lewis St & Hermosa Wy,32.751850482586,-117.180117995475,10825,0,,0,N-W/B,,,Lewis&Hermosa,https://www.sdmts.com/schedules-real-time?fragment=10825
10826,Lewis St & Lark St,32.751863727872,-117.175798723398,10826,0,,0,N-W/B,,,Lewis&Lark,https://www.sdmts.com/schedules-real-time?fragment=10826
10827,Clairemont Mesa Bl & Doliva Dr,32.834521492434,-117.174864480447,10827,0,,1,N-W/B,,,Cmnt Mesa&Doliva,https://www.sdmts.com/schedules-real-time?fragment=10827
10828,Broadway & Pacific Hwy,32.715844239434,-117.171782253686,10828,0,,1,F-W/B,brohar,,Brdwy&Pcfc Hwy,https://www.sdmts.com/schedules-real-time?fragment=10828
10831,Comstock St & Linda Vista Rd,32.783320220523,-117.171434250045,10831,0,,1,N-W/B,comstk,,Comstock&L Vsta,https://www.sdmts.com/schedules-real-time?fragment=10831
10833,Broadway & Kettner Bl,32.715857222106,-117.168937555827,10833,0,broket,1,N-W/B,broket,,Brdwy&Kettner,https://www.sdmts.com/schedules-real-time?fragment=10833
10834,Washington St & Dove St,32.749983636343,-117.168457594650,10834,0,,1,N-W/B,wasdov,,Wshngtn&Dove,https://www.sdmts.com/schedules-real-time?fragment=10834
10836,Broadway & Columbia St,32.715803726111,-117.167262611633,10836,0,,1,N-W/B,,,Brdwy&Columbia,https://www.sdmts.com/schedules-real-time?fragment=10836
10837,Balboa Av & Charger Bl,32.820921646020,-117.166408034730,10837,0,,1,M-Street-W/B,balcha,,Balboa&Charger,https://www.sdmts.com/schedules-real-time?fragment=10837
10838,Washington St & Albatross St,32.750007966507,-117.165924152545,10838,0,,1,N-W/B,,,Wshngtn&Albatross,https://www.sdmts.com/schedules-real-time?fragment=10838
10839,Broadway & Union St,32.715828014994,-117.165917502810,10839,0,,1,N-W/B,brouni,,Brdwy&Union,https://www.sdmts.com/schedules-real-time?fragment=10839
10840,Broadway & 1st Av,32.715855125716,-117.163670529632,10840,0,,1,N-W/B,bro1st,,Brdwy&1st,https://www.sdmts.com/schedules-real-time?fragment=10840
10841,Broadway & 4th Av,32.715790560610,-117.160880301784,10841,0,,1,N-W/B,bro4th,,Brdwy&4th,https://www.sdmts.com/schedules-real-time?fragment=10841
10846,Market St & 6th Av,32.711579800680,-117.159022687142,10846,0,,0,N-W/B,,,Mrkt&6th,https://www.sdmts.com/schedules-real-time?fragment=10846
10847,University Av & 7th Av,32.748474489222,-117.158089346416,10847,0,,1,N-W/B,uni7th,,Univ&7th,https://www.sdmts.com/schedules-real-time?fragment=10847
10848,Market St & 8th Av,32.711627213398,-117.157062775430,10848,0,,0,N-W/B,,,Mrkt&8th,https://www.sdmts.com/schedules-real-time?fragment=10848
10850,Vista Hill Av & Health Center Dr,32.795013869313,-117.157137426683,10850,0,,1,N-W/B,,,Vista Hill&Health Ctr,https://www.sdmts.com/schedules-real-time?fragment=10850
10852,University Av & 9th Av,32.748494141325,-117.156164105011,10852,0,,1,N-W/B,,,Univ&9th,https://www.sdmts.com/schedules-real-time?fragment=10852
10853,Balboa Av & Terry Bennett Drwy,32.821906894142,-117.158423635720,10853,0,,1,M-Street-W/B,,,Balboa&Terry Bennett,https://www.sdmts.com/schedules-real-time?fragment=10853
10854,Starling Dr & Health Center Dr,32.792929289334,-117.156178778697,10854,0,,1,N-W/B,,,Starling&Health Ctr,https://www.sdmts.com/schedules-real-time?fragment=10854
10856,Market St & 10th Av,32.711624528996,-117.155183624474,10856,0,,0,N-W/B,,,Mrkt&10th,https://www.sdmts.com/schedules-real-time?fragment=10856
10858,Market St & Park Bl,32.711646235005,-117.154097987048,10858,0,marpar,1,F-W/B,marpar,,Mrkt&Park,https://www.sdmts.com/schedules-real-time?fragment=10858
10859,Mira Mesa Bl & Parkdale Av,32.910548284951,-117.155934173589,10859,0,,1,F-W/B,,,Mra Msa&Parkdale,https://www.sdmts.com/schedules-real-time?fragment=10859
10860,Camino De La Reina & Mission Center Rd,32.768492786647,-117.153103640373,10860,0,,1,N-W/B,,,Cmo De La Reina&Mission Ctr,https://www.sdmts.com/schedules-real-time?fragment=10860
10862,University Av & Richmond St,32.748674353621,-117.151072629866,10862,0,,1,N-W/B,,,Univ&Richmond,https://www.sdmts.com/schedules-real-time?fragment=10862
10863,Broadway & 15th St,32.715846937912,-117.150207083138,10863,0,,1,N-W/B,15bro,,Brdwy&15th,https://www.sdmts.com/schedules-real-time?fragment=10863
10865,University Av & Normal St,32.748497581138,-117.149308001001,10865,0,,1,N-W/B,,,Univ&Normal,https://www.sdmts.com/schedules-real-time?fragment=10865
10866,Market St & 16th St,32.711638339504,-117.149162770078,10866,0,,1,N-W/B,16mar,,Mrkt&16th,https://www.sdmts.com/schedules-real-time?fragment=10866
10868,Logan Av & Sigsbee St,32.703820111327,-117.147477134789,10868,0,,1,N-W/B,,,Logan&Sigsbee,https://www.sdmts.com/schedules-real-time?fragment=10868
10869,Aero Dr & Aero Ct,32.809727673823,-117.147599779171,10869,0,,2,N-W/B,aeraer,,Aero&Aero,https://www.sdmts.com/schedules-real-time?fragment=10869
10870,Mira Mesa Bl & Reagan Rd,32.912763410277,-117.148426569091,10870,0,,1,N-W/B,,,Mra Msa&Reagan,https://www.sdmts.com/schedules-real-time?fragment=10870
10871,Imperial Av & 19th St,32.706374979530,-117.146514878054,10871,0,,1,N-W/B,,,Imperial&19th,https://www.sdmts.com/schedules-real-time?fragment=10871
10873,Broadway & 20th St,32.715871758627,-117.145665364309,10873,0,,1,N-W/B,,,Brdwy&20th,https://www.sdmts.com/schedules-real-time?fragment=10873
10874,Imperial Av & 21st St,32.706379884095,-117.144704186562,10874,0,,1,N-W/B,,,Imperial&21st,https://www.sdmts.com/schedules-real-time?fragment=10874
10876,Logan Av & Cesar Chavez Pkwy,32.701793619683,-117.144566619837,10876,0,,1,F-W/B,logces,,Logan&Cesar Chavez,https://www.sdmts.com/schedules-real-time?fragment=10876
10877,Murray Ridge Rd & Mission Center Rd,32.789932960135,-117.144938029013,10877,0,,0,N-W/B,,,Murray Ridge&Mission Ctr,https://www.sdmts.com/schedules-real-time?fragment=10877
10878,Broadway & 22nd St,32.715879446150,-117.143848003568,10878,0,,1,N-W/B,,,Brdwy&22nd,https://www.sdmts.com/schedules-real-time?fragment=10878
10879,Camino De La Reina & Camino Del Este,32.771091619308,-117.143838942578,10879,0,,1,N-W/B,,,Cmo De La Reina&Cmo Del Este,https://www.sdmts.com/schedules-real-time?fragment=10879
10880,Aero Dr & Glen H Curtis Rd,32.809789767484,-117.144345711915,10880,0,,1,N-W/B,,,Aero&Glen H Curtis,https://www.sdmts.com/schedules-real-time?fragment=10880
10882,Imperial Av & 24th St,32.706427826297,-117.142260008864,10882,0,,1,N-W/B,,,Imperial&24th,https://www.sdmts.com/schedules-real-time?fragment=10882
10884,Logan Av & I-5 Ramp,32.700235018892,-117.142317604061,10884,0,,1,N-W/B,,,Logan&I-5 Ramp,https://www.sdmts.com/schedules-real-time?fragment=10884
10885,University Av & Alabama St,32.748552602676,-117.142107664464,10885,0,,1,N-W/B,,,Univ&Alabama,https://www.sdmts.com/schedules-real-time?fragment=10885
10889,Imperial Av & 25th St,32.706436258555,-117.139951967248,10889,0,,1,N-W/B,imp25,,Imperial&25th,https://www.sdmts.com/schedules-real-time?fragment=10889
10890,Ocean View Bl & Commercial St,32.705104074998,-117.139454143808,10890,0,,0,N-W/B,25tro,,Ocn Vw&Commercial,https://www.sdmts.com/schedules-real-time?fragment=10890
10892,University Av & Louisiana St,32.748538576483,-117.139863341332,10892,0,,1,N-W/B,,,Univ&Louisiana,https://www.sdmts.com/schedules-real-time?fragment=10892
10893,Ocean View Bl & Dewey St,32.704443148678,-117.138488486469,10893,0,,0,N-W/B,,,Ocn Vw&Dewey,https://www.sdmts.com/schedules-real-time?fragment=10893
10894,El Cajon Bl & Texas St,32.755457746281,-117.138557339197,10894,0,,1,N-W/B,,,El Cjn&Texas,https://www.sdmts.com/schedules-real-time?fragment=10894
10895,National Av & 26th St,32.695993168435,-117.137873496576,10895,0,,1,N-W/B,,,Natl&26th,https://www.sdmts.com/schedules-real-time?fragment=10895
10896,Imperial Av & 26th St,32.706455955334,-117.137982130878,10896,0,,1,N-W/B,,,Imperial&26th,https://www.sdmts.com/schedules-real-time?fragment=10896
10897,Market St & 26th St,32.711743959523,-117.137999640625,10897,0,,1,N-W/B,,,Mrkt&26th,https://www.sdmts.com/schedules-real-time?fragment=10897
10899,University Av & Arizona St,32.748549700558,-117.137173688982,10899,0,,1,N-W/B,,,Univ&Arizona,https://www.sdmts.com/schedules-real-time?fragment=10899
10900,Adams Av & Arizona St,32.762964725346,-117.136918743555,10900,0,,1,N-W/B,,,Adams&Arizona,https://www.sdmts.com/schedules-real-time?fragment=10900
10902,Main St & 27th St,32.692874987755,-117.135771601171,10902,0,,1,N-W/B,,,Main&27th,https://www.sdmts.com/schedules-real-time?fragment=10902
10903,Market St & 27th St,32.711746441876,-117.135743417664,10903,0,,1,N-W/B,,,Mrkt&27th,https://www.sdmts.com/schedules-real-time?fragment=10903
10904,C St & 27th St,32.716970465505,-117.135867443089,10904,0,,1,N-W/B,,,C&27th,https://www.sdmts.com/schedules-real-time?fragment=10904
10907,Ocean View Bl & Sampson St,32.702103446537,-117.135149168757,10907,0,,0,N-W/B,,,Ocn Vw&Sampson,https://www.sdmts.com/schedules-real-time?fragment=10907
10909,University Av & Oregon St,32.748549256198,-117.134939261330,10909,0,,1,N-W/B,,,Univ&Oregon,https://www.sdmts.com/schedules-real-time?fragment=10909
10910,National Av & 28th St,32.696018001041,-117.133651350445,10910,0,,1,N-W/B,,,Natl&28th,https://www.sdmts.com/schedules-real-time?fragment=10910
10911,Imperial Av & 28th St,32.706475691048,-117.133704167515,10911,0,,1,N-W/B,,,Imperial&28th,https://www.sdmts.com/schedules-real-time?fragment=10911
10912,Ocean View Bl & 28th St,32.701248010130,-117.133707025295,10912,0,,0,N-W/B,,,Ocn Vw&28th,https://www.sdmts.com/schedules-real-time?fragment=10912
10913,Main St & 28th St,32.692911550109,-117.133356934213,10913,0,,1,N-W/B,main28,,Main&28th,https://www.sdmts.com/schedules-real-time?fragment=10913
10914,Market St & 28th St,32.711764883744,-117.133555627582,10914,0,,1,N-W/B,,,Mrkt&28th,https://www.sdmts.com/schedules-real-time?fragment=10914
10915,University Av & Utah St,32.748559365899,-117.132376443914,10915,0,,1,N-W/B,,,Univ&Utah,https://www.sdmts.com/schedules-real-time?fragment=10915
10918,Ocean View Bl & 29th St,32.701266601758,-117.131493491664,10918,0,,0,N-W/B,,,Ocn Vw&29th,https://www.sdmts.com/schedules-real-time?fragment=10918
10921,Balboa Av & Ponderosa Av,32.822413228957,-117.131798341504,10921,0,,1,N-W/B,balpon,,Balboa&Ponderosa,https://www.sdmts.com/schedules-real-time?fragment=10921
10923,Market St & 30th St,32.711806115895,-117.130480520453,10923,0,,1,N-W/B,mark30,,Mrkt&30th,https://www.sdmts.com/schedules-real-time?fragment=10923
10924,Upas St & 30th St,32.741179625401,-117.129681302108,10924,0,,1,N-W/B,,,Upas&30th,https://www.sdmts.com/schedules-real-time?fragment=10924
10925,Ocean View Bl & 30th St,32.701270971718,-117.129341578747,10925,0,,0,N-W/B,,,Ocn Vw&30th,https://www.sdmts.com/schedules-real-time?fragment=10925
10926,Imperial Av & 30th St,32.706492924119,-117.129370913762,10926,0,,1,N-W/B,,,Imperial&30th,https://www.sdmts.com/schedules-real-time?fragment=10926
10927,Main St & 30th St,32.692918533074,-117.129303777781,10927,0,,1,N-W/B,,,Main&30th,https://www.sdmts.com/schedules-real-time?fragment=10927
10928,Aero Dr & Ruffin Rd,32.810052019091,-117.129262806398,10928,0,,1,M-Street-W/B,,,Aero&Ruffin,https://www.sdmts.com/schedules-real-time?fragment=10928
10933,Adams Av & W Mountain View Dr,32.763485272237,-117.126381057556,10933,0,,1,N-W/B,,,Adams&W Mtn View,https://www.sdmts.com/schedules-real-time?fragment=10933
10934,University Av & Iowa St,32.748581462778,-117.126190534057,10934,0,,1,N-W/B,,,Univ&Iowa,https://www.sdmts.com/schedules-real-time?fragment=10934
10935,Market St & 32nd St,32.711796767558,-117.125616815442,10935,0,,1,F-W/B,,,Mrkt&32nd,https://www.sdmts.com/schedules-real-time?fragment=10935
10936,Clairemont Mesa Bl & Ruffin Rd,32.831602222948,-117.126290928334,10936,0,,1,N-W/B,,,Cmnt Mesa&Ruffin,https://www.sdmts.com/schedules-real-time?fragment=10936
10937,Adams Av & 32nd St,32.763491223100,-117.124767636511,10937,0,,1,N-W/B,,,Adams&32nd,https://www.sdmts.com/schedules-real-time?fragment=10937
10938,Imperial Av & 33rd St,32.706857778314,-117.122115305969,10938,0,,1,N-W/B,,,Imperial&33rd,https://www.sdmts.com/schedules-real-time?fragment=10938
10939,Adams Av & 33rd St,32.763451019581,-117.122682075576,10939,0,,1,N-W/B,,,Adams&33rd,https://www.sdmts.com/schedules-real-time?fragment=10939
10941,Aero Dr & West Canyon Av,32.808484767241,-117.122373341916,10941,0,,1,M-Street-W/B,,,Aero&WCyn,https://www.sdmts.com/schedules-real-time?fragment=10941
10942,El Cajon Bl & 33rd St,32.755420325064,-117.121841400255,10942,0,,1,N-W/B,,,El Cjn&33rd,https://www.sdmts.com/schedules-real-time?fragment=10942
10943,University Av & Wabash Av,32.749412116726,-117.120669605680,10943,0,,1,N-W/B,,,Univ&Wabash,https://www.sdmts.com/schedules-real-time?fragment=10943
10946,National Av & 35th St,32.696110246611,-117.118735738067,10946,0,,1,N-W/B,,,Natl&35th,https://www.sdmts.com/schedules-real-time?fragment=10946
10947,Adams Av & Hawley Bl,32.763433924040,-117.119263023141,10947,0,,1,N-W/B,,,Adams&Hawley,https://www.sdmts.com/schedules-real-time?fragment=10947
10948,National Av & 36th St,32.696103446377,-117.116577341794,10948,0,,1,N-W/B,,,Natl&36th,https://www.sdmts.com/schedules-real-time?fragment=10948
10949,Ocean View Bl & 36th St,32.701341685215,-117.116635335292,10949,0,,0,N-W/B,,,Ocn Vw&36th,https://www.sdmts.com/schedules-real-time?fragment=10949
10950,Imperial Av & 36th St,32.704969230379,-117.116703506297,10950,0,,1,N-W/B,,,Imperial&36th,https://www.sdmts.com/schedules-real-time?fragment=10950
10951,Market St & 36th St,32.711669726266,-117.116363006057,10951,0,,1,M-Street-W/B,,,Mrkt&36th,https://www.sdmts.com/schedules-real-time?fragment=10951
10953,Imperial Av & 37th St,32.704905500319,-117.114427305786,10953,0,,2,M-Street-W/B,,,Imperial&37th,https://www.sdmts.com/schedules-real-time?fragment=10953
10956,Ocean View Bl & 38th St,32.701366063402,-117.112373921534,10956,0,,0,N-W/B,,,Ocn Vw&38th,https://www.sdmts.com/schedules-real-time?fragment=10956
10960,El Cajon Bl & 37th St,32.755363901964,-117.113448921770,10960,0,,1,N-W/B,,,El Cjn&37th,https://www.sdmts.com/schedules-real-time?fragment=10960
10962,Ocean View Bl & 39th St,32.701380979601,-117.110238364890,10962,0,,0,N-W/B,,,Ocn Vw&39th,https://www.sdmts.com/schedules-real-time?fragment=10962
10963,Market St & Quail St,32.711626505639,-117.109577604239,10963,0,,1,N-E/B,,,Mrkt&Quail,https://www.sdmts.com/schedules-real-time?fragment=10963
10966,W 8th St & Roosevelt Av,32.675702799330,-117.107719546854,10966,0,,1,N-W/B,,,W 8th&Roosevelt,https://www.sdmts.com/schedules-real-time?fragment=10966
10967,National Av & 40th St,32.696160726159,-117.107993343295,10967,0,,1,N-W/B,,,Natl&40th,https://www.sdmts.com/schedules-real-time?fragment=10967
10968,Rancho Mission Rd & Friars Rd,32.788483194542,-117.108355881337,10968,0,,1,M-Street-N/B,,,Rcho Mission&Friars,https://www.sdmts.com/schedules-real-time?fragment=10968
10970,University Av & Van Dyke Av,32.749725520142,-117.103746834918,10970,0,,1,F-W/B,,,Univ&Van Dyke,https://www.sdmts.com/schedules-real-time?fragment=10970
10973,Adams Av & Kensington Dr,32.763342720908,-117.107154547765,10973,0,,1,N-W/B,,,Adams&Kensington,https://www.sdmts.com/schedules-real-time?fragment=10973
10975,National Av & 41st St,32.696194962617,-117.105835346822,10975,0,,1,N-W/B,,,Natl&41st,https://www.sdmts.com/schedules-real-time?fragment=10975
10977,Market St & Morrison St,32.711610784539,-117.105910249426,10977,0,,1,F-W/B,,,Mrkt&Morrison,https://www.sdmts.com/schedules-real-time?fragment=10977
10978,University Av & Marlborough Av,32.749751673945,-117.105526190356,10978,0,,1,N-W/B,,,Univ&Marlborough,https://www.sdmts.com/schedules-real-time?fragment=10978
10979,Willow Creek Rd & Appaloosa Rd,32.899140411696,-117.106581091320,10979,0,,2,N-W/B,,,Willow Creek&Appaloosa,https://www.sdmts.com/schedules-real-time?fragment=10979
10980,Poplar St & Snowdrop St,32.734928123444,-117.105255452813,10980,0,,1,N-W/B,,,Poplar&Snowdrop,https://www.sdmts.com/schedules-real-time?fragment=10980
10981,Poplar St & Marlborough Av,32.735961581629,-117.104062256739,10981,0,,2,N-W/B,,,Poplar&Marlborough,https://www.sdmts.com/schedules-real-time?fragment=10981
10982,Ocean View Bl & Marketplace Av,32.700608265092,-117.101184240986,10982,0,,1,F-W/B,ecc,,Ocn Vw&Mrktplace,https://www.sdmts.com/schedules-real-time?fragment=10982
10983,Market St & Denby St,32.711588738842,-117.102346869845,10983,0,,1,M-Street-W/B,,,Mrkt&Denby,https://www.sdmts.com/schedules-real-time?fragment=10983
10986,El Cajon Bl & 43rd St,32.755288875183,-117.101702770347,10986,0,,1,N-W/B,faielc,,El Cjn&43rd,https://www.sdmts.com/schedules-real-time?fragment=10986
10987,Logan Av & Dominion St,32.696945320292,-117.101067612396,10987,0,,1,N-W/B,,,Logan&Dominion,https://www.sdmts.com/schedules-real-time?fragment=10987
10989,University Av & Fairmount Av,32.749720520769,-117.100491064110,10989,0,,2,N-W/B,unifai,,Univ&Fairmnt,https://www.sdmts.com/schedules-real-time?fragment=10989
10990,Tierrasanta Bl & Espledente Bl,32.823132878297,-117.100516704848,10990,0,,1,N-W/B,,,Trasnta&Espledente,https://www.sdmts.com/schedules-real-time?fragment=10990
10992,University Av & Highland Av,32.749704440587,-117.098435348720,10992,0,,1,N-W/B,,,Univ&Highland,https://www.sdmts.com/schedules-real-time?fragment=10992
10993,Imperial Av & 45th St,32.704254103388,-117.097799611335,10993,0,,1,N-W/B,,,Imperial&45th,https://www.sdmts.com/schedules-real-time?fragment=10993
10994,University Av & Chamoune Av,32.749690762125,-117.096425192024,10994,0,,1,N-W/B,,,Univ&Chamoune,https://www.sdmts.com/schedules-real-time?fragment=10994
10997,Imperial Av & 47th St,32.704285061391,-117.093284559132,10997,0,,1,N-W/B,imp47,,Imperial&47th,https://www.sdmts.com/schedules-real-time?fragment=10997
10998,Market St & 47th St,32.711524977753,-117.093230282565,10998,0,,1,N-W/B,,,Mrkt&47th,https://www.sdmts.com/schedules-real-time?fragment=10998
10999,University Av & 47th St,32.749654960172,-117.093224421913,10999,0,,1,N-W/B,,,Univ&47th,https://www.sdmts.com/schedules-real-time?fragment=10999
11000,Logan Av & Jarrett Ct,32.696922229137,-117.090811997289,11000,0,,1,M-Street-W/B,,,Logan&Jarrett,https://www.sdmts.com/schedules-real-time?fragment=11000
11005,University Av & Estrella Av,32.749647111945,-117.089942610106,11005,0,,1,N-W/B,,,Univ&Estrella,https://www.sdmts.com/schedules-real-time?fragment=11005
11007,Imperial Av & 50th St,32.704228761886,-117.086619904330,11007,0,,1,N-W/B,,,Imperial&50th,https://www.sdmts.com/schedules-real-time?fragment=11007
11008,E St & 4th Av,32.643824967279,-117.085020487677,11008,0,,1,N-W/B,,,E&4th,https://www.sdmts.com/schedules-real-time?fragment=11008
11009,Montezuma Rd & Collwood Bl,32.770277717270,-117.085841819312,11009,0,,1,N-W/B,,,Mntzma&Collwood,https://www.sdmts.com/schedules-real-time?fragment=11009
11010,El Cajon Bl & Altadena Av,32.757078620398,-117.085553957800,11010,0,,1,N-W/B,,,El Cjn&Altadena,https://www.sdmts.com/schedules-real-time?fragment=11010
11011,Olvera Av & Euclid Av,32.697414799182,-117.084656928238,11011,0,,1,N-W/B,,,Olvera&Euclid,https://www.sdmts.com/schedules-real-time?fragment=11011
11012,Roswell St & 51st St,32.711770927146,-117.084142654198,11012,0,,2,N-W/B,,,Roswell&51st,https://www.sdmts.com/schedules-real-time?fragment=11012
11013,El Cajon Bl & 52nd St,32.757401235899,-117.083367917459,11013,0,,1,N-W/B,,,El Cjn&52nd,https://www.sdmts.com/schedules-real-time?fragment=11013
11014,University Av & 52nd St,32.749175239445,-117.083329141741,11014,0,,1,N-W/B,,,Univ&52nd,https://www.sdmts.com/schedules-real-time?fragment=11014
11015,Imperial Av & San Jacinto Dr,32.705833906833,-117.082555326208,11015,0,,1,N-W/B,,,Imperial&San Jacinto,https://www.sdmts.com/schedules-real-time?fragment=11015
11016,Zion Av & 51st St,32.792961514145,-117.082933216490,11016,0,,1,N-W/B,,,Zion&51st,https://www.sdmts.com/schedules-real-time?fragment=11016
11017,University Av & Shiloh Rd,32.749204849778,-117.081384459159,11017,0,,1,M-Street-W/B,,,Univ&Shiloh,https://www.sdmts.com/schedules-real-time?fragment=11017
11019,Roswell St & Hilltop Dr,32.714065219220,-117.080581599649,11019,0,,2,N-W/B,,,Roswell&Hilltop,https://www.sdmts.com/schedules-real-time?fragment=11019
11020,Grape St & Champion St,32.726093747938,-117.080008874678,11020,0,,2,M-Street-W/B,,,Grape&Champion,https://www.sdmts.com/schedules-real-time?fragment=11020
11021,University Av & 54th St,32.748625971397,-117.078367252415,11021,0,,1,M-Street-W/B,univ54,,Univ&54th,https://www.sdmts.com/schedules-real-time?fragment=11021
