stop_id,stop_name,stop_lat,stop_lon,route_short_name,route_id,route_color,route_text_color,stop_sequence
80136,Expo / Bundy Station,34.031705,-118.452896,806,806,5BC2E7,0,1
80135,Expo / Sepulveda Station,34.035408,-118.434234,806,806,5BC2E7,0,2
80134,Westwood / Rancho Park Station,34.036816,-118.424576,806,806,5BC2E7,0,3
80133,Palms Station,34.029323,-118.404255,806,806,5BC2E7,0,4
80132,Culver City Station,34.027896,-118.388986,806,806,5BC2E7,0,5
80131,La Cienega / Jefferson Station,34.026355,-118.37212,806,806,5BC2E7,0,6
80130,Expo / La Brea / Ethel Bradley Station,34.024803,-118.355159,806,806,5BC2E7,0,7
80129,Farmdale Station,34.023981,-118.346095,806,806,5BC2E7,0,8
80128,Expo / Crenshaw Station,34.022526,-118.335078,806,806,5BC2E7,0,9
80127,Expo / Western Station,34.018331,-118.30891,806,806,5BC2E7,0,10
80126,Expo / Vermont Station,34.018245,-118.29154,806,806,5BC2E7,0,11
80125,Expo Park / USC Station,34.018227,-118.285734,806,806,5BC2E7,0,12
80124,Jefferson / USC Station,34.022123,-118.278118,806,806,5BC2E7,0,13
80123,LATTC / Ortho Institute Station,34.029112,-118.273603,806,806,5BC2E7,0,14
80121,Pico Station,34.040735,-118.266118,806,806,5BC2E7,0,15
80122,7th Street / Metro Center Station - Metro A Line (Blue) & E Line (Expo),34.04861,-118.258822,806,806,5BC2E7,0,16
80101,Downtown Long Beach Station,33.768071,-118.192921,801,801,0072BC,FFFFFF,1
80102,Pacific Ave Station,33.772258,-118.1937,801,801,0072BC,FFFFFF,2
80105,Anaheim Street Station,33.78183,-118.189384,801,801,0072BC,FFFFFF,3
80106,Pacific Coast Hwy Station,33.78909,-118.189382,801,801,0072BC,FFFFFF,4
80107,Willow Street Station,33.807079,-118.189834,801,801,0072BC,FFFFFF,5
80108,Wardlow Station,33.819865,-118.19609,801,801,0072BC,FFFFFF,6
80109,Del Amo Station,33.848222,-118.211017,801,801,0072BC,FFFFFF,7
80110,Artesia Station,33.876082,-118.222503,801,801,0072BC,FFFFFF,8
80111,Compton Station,33.89749,-118.224249,801,801,0072BC,FFFFFF,9
80112,Willowbrook - Rosa Parks Station - Metro A Line (Blue),33.928048,-118.237555,801,801,0072BC,FFFFFF,10
80113,103rd Street / Watts Towers  Station,33.94222,-118.243159,801,801,0072BC,FFFFFF,11
80114,Firestone Station,33.959611,-118.243205,801,801,0072BC,FFFFFF,12
80115,Florence Station,33.97374,-118.243271,801,801,0072BC,FFFFFF,13
80116,Slauson Station,33.98876,-118.243398,801,801,0072BC,FFFFFF,14
80117,Vernon Station,34.00292,-118.243303,801,801,0072BC,FFFFFF,15
80118,Washington Station,34.01965,-118.243084,801,801,0072BC,FFFFFF,16
80119,San Pedro Street Station,34.026807,-118.255505,801,801,0072BC,FFFFFF,17
80120,Grand / LATTC Station,34.033155,-118.269333,801,801,0072BC,FFFFFF,18
80121,Pico Station,34.040735,-118.266118,801,801,0072BC,FFFFFF,19
80122,7th Street / Metro Center Station - Metro A Line (Blue) & E Line (Expo),34.04861,-118.258822,801,801,0072BC,FFFFFF,20
80214,Union Station - Metro Red & Purple Lines,34.056197,-118.234249,802,802,EB131B,FFFFFF,1
80213,Civic Center / Grand Park Station,34.0549,-118.246057,802,802,EB131B,FFFFFF,2
80212,Pershing Square Station,34.049316,-118.251259,802,802,EB131B,FFFFFF,3
80211,7th Street / Metro Center Station - Metro Red & Purple Lines,34.048634,-118.258682,802,802,EB131B,FFFFFF,4
80210,Westlake / MacArthur Park Station,34.056368,-118.274879,802,802,EB131B,FFFFFF,5
80209,Wilshire / Vermont Station,34.062701,-118.290082,802,802,EB131B,FFFFFF,6
80208,Vermont / Beverly Station,34.076526,-118.291686,802,802,EB131B,FFFFFF,7
80207,Vermont / Santa Monica Station,34.08991,-118.29173,802,802,EB131B,FFFFFF,8
80206,Vermont / Sunset Station,34.097708,-118.291756,802,802,EB131B,FFFFFF,9
80205,Hollywood / Western Station,34.101737,-118.308117,802,802,EB131B,FFFFFF,10
80204,Hollywood / Vine Station,34.10163,-118.32518,802,802,EB131B,FFFFFF,11
80203,Hollywood / Highland Station,34.101547,-118.338549,802,802,EB131B,FFFFFF,12
80202,Universal / Studio City Station,34.140002,-118.362699,802,802,EB131B,FFFFFF,13
80201,North Hollywood Station,34.168504,-118.376808,802,802,EB131B,FFFFFF,14
80209,Wilshire / Vermont Station,34.062701,-118.290082,805,805,A05DA5,FFFFFF,1
80215,Wilshire / Normandie Station,34.061753,-118.301458,805,805,A05DA5,FFFFFF,2
80216,Wilshire / Western Station,34.061689,-118.308756,805,805,A05DA5,FFFFFF,3
80301,Redondo Beach Station,33.89464,-118.369196,803,803,58A738,FFFFFF,1
80302,Douglas Station,33.905299,-118.383113,803,803,58A738,FFFFFF,2
80303,El Segundo Station,33.916063,-118.386539,803,803,58A738,FFFFFF,3
80304,Mariposa Station,33.9232,-118.387572,803,803,58A738,FFFFFF,4
80305,Aviation / LAX Station,33.929621,-118.377134,803,803,58A738,FFFFFF,5
80306,Hawthorne / Lennox Station,33.933408,-118.351602,803,803,58A738,FFFFFF,6
80307,Crenshaw Station,33.925201,-118.32655,803,803,58A738,FFFFFF,7
80308,Vermont / Athens Station,33.928683,-118.291733,803,803,58A738,FFFFFF,8
80309,Harbor Freeway Station,33.928714,-118.2811,803,803,58A738,FFFFFF,9
80310,Avalon Station,33.927465,-118.265217,803,803,58A738,FFFFFF,10
80311,Willowbrook - Rosa Parks Station - Metro Green Line,33.928258,-118.238052,803,803,58A738,FFFFFF,11
80312,Long Beach Blvd Station,33.92488,-118.209945,803,803,58A738,FFFFFF,12
80313,Lakewood Blvd Station,33.91307,-118.1406,803,803,58A738,FFFFFF,13
80314,Norwalk Station,33.914033,-118.104717,803,803,58A738,FFFFFF,14
80407,Pico / Aliso Station,34.047634,-118.22594,804,804,FDB913,0,1
80406,Mariachi Plaza / Boyle Heights Station,34.047215,-118.219648,804,804,FDB913,0,2
80405,Soto Station,34.043747,-118.210061,804,804,FDB913,0,3
80404,Indiana Station,34.0343,-118.192182,804,804,FDB913,0,4
80403,Maravilla Station,34.033319,-118.16814,804,804,FDB913,0,5
80402,East LA Civic Center Station,34.033364,-118.161206,804,804,FDB913,0,6
80401,Atlantic Station,34.033398,-118.154469,804,804,FDB913,0,7
