stop_lat,route_color,stop_lon,route_text_color,route_id,fips,stop_sequence,stop_id,route_short_name,stop_name
43.072025,E3D23E,-89.428286,000000,1826,550250009023008,1,2561,01,UNIV AVE & HIGHLAND (EB)
43.072282,E3D23E,-89.42482,000000,1826,550250009023004,2,2605,01,UNIV AVE & WALNUT (EB)
43.072703,E3D23E,-89.421277,000000,1826,550250009022001,3,2717,01,UNIV AVE & FOREST (EB)
43.073222,E3D23E,-89.417524,000000,1826,550250009021006,4,2921,01,UNIV AVE & PRINCETON (EB)
43.073337,E3D23E,-89.413257,000000,1826,550250011012009,5,133,01,UNIV AVE & BREESE (EB)
43.073266,E3D23E,-89.411092,000000,1826,550250011012003,6,809,01,CAMPUS & BABCOCK RR (EB)
43.072094,E3D23E,-89.406012,000000,1826,550250011012006,7,581,01,W JOHNSON & CHARTER (EB)
43.072093,E3D23E,-89.404315,000000,1826,550250011011003,8,741,01,W JOHNSON & MILLS (EB)
43.072027,E3D23E,-89.400138,000000,1826,550250016064002,9,455,01,W JOHNSON & N PARK (EB)
43.071984,E3D23E,-89.39718,000000,1826,550250016064000,10,435,01,W JOHNSON & LAKE (EB)
43.071968,E3D23E,-89.395488,000000,1826,550250016061002,11,941,01,W JOHNSON & FRANCES (EB)
43.071687,E3D23E,-89.392872,000000,1826,550250016061001,12,470,01,BASSETT & DAYTON (SB)
43.069851,E3D23E,-89.390442,000000,1826,550250016051003,13,710,01,BASSETT & WEST WASH (SB)
43.068607,E3D23E,-89.388929,000000,1826,550250016051002,14,520,01,BASSETT & DOTY (SB)
43.068441,E3D23E,-89.387009,000000,1826,550250016052001,15,313,01,WILSON & BASSETT (EB)
43.070286,E3D23E,-89.384452,000000,1826,550250017042013,16,791,01,WILSON & HAMILTON (EB)
43.073333,E3D23E,-89.38386,000000,1826,550250017042000,17,1101,01,MAIN & CARROLL (EB)
43.074989,E3D23E,-89.382341,000000,1826,550250017051008,18,1787,01,PINCKNEY & MAIN (NB)
43.072917,AF0067,-89.463696,FFFFFF,1827,550250003001016,9,2175,02,SHEBOYGAN & EAU CLAIRE (EB)
43.072765,AF0067,-89.459507,FFFFFF,1827,550250003001016,10,2101,02,SHEBOYGAN & STATE OFFICE (EB)
43.072941,AF0067,-89.457299,FFFFFF,1827,550250003001007,11,2395,02,SHEBOYGAN & SEGOE (EB)
43.071655,AF0067,-89.455834,FFFFFF,1827,550250003001016,12,2752,02,SEGOE & 518 SEGOE (SB)
43.071304,AF0067,-89.452812,FFFFFF,1827,550250003001011,13,2501,02,HILLDALE DR & MALL (EB)
43.071719,AF0067,-89.450996,FFFFFF,1827,550250008003002,14,2741,02,MIDVALE & HEATHER CR (NB)
43.075163,AF0067,-89.450398,FFFFFF,1827,550250008003002,15,2191,02,UNIV AVE & MIDVALE (EB)
43.075172,AF0067,-89.447094,FFFFFF,1827,550250008003000,16,2755,02,UNIV AVE & BLACKHAWK (EB)
43.075113,AF0067,-89.443898,FFFFFF,1827,550250008001005,17,2595,02,UNIV AVE & SHOREWOOD (EB)
43.075127,AF0067,-89.441055,FFFFFF,1827,550250008001002,18,2715,02,UNIV AVE & SCHMITT (EB)
43.074633,AF0067,-89.438481,FFFFFF,1827,550250008001001,19,2945,02,UNIV AVE & RIDGE (EB)
43.073971,AF0067,-89.433665,FFFFFF,1827,550250032001009,20,2131,02,U BAY & UNIV AVE (NB)
43.078181,AF0067,-89.433241,FFFFFF,1827,550250032001009,21,2473,02,HIGHLAND & WAISMAN CTR (NB)
43.078504,AF0067,-89.430495,FFFFFF,1827,550250032001008,22,2349,02,HIGHLAND & MARSH (EB)
43.076839,AF0067,-89.429079,FFFFFF,1827,550250032001008,23,2916,02,HIGHLAND & OBSERVATORY (SB)
43.074538,AF0067,-89.428895,FFFFFF,1827,550250032001009,24,2822,02,HIGHLAND & VA HOSP (SB)
43.072025,AF0067,-89.428286,FFFFFF,1827,550250009023008,25,2561,02,UNIV AVE & HIGHLAND (EB)
43.072282,AF0067,-89.42482,FFFFFF,1827,550250009023004,26,2605,02,UNIV AVE & WALNUT (EB)
43.072703,AF0067,-89.421277,FFFFFF,1827,550250009022001,27,2717,02,UNIV AVE & FOREST (EB)
43.073222,AF0067,-89.417524,FFFFFF,1827,550250009021006,28,2921,02,UNIV AVE & PRINCETON (EB)
43.073337,AF0067,-89.413257,FFFFFF,1827,550250011012009,29,133,02,UNIV AVE & BREESE (EB)
43.073266,AF0067,-89.411092,FFFFFF,1827,550250011012003,30,809,02,CAMPUS & BABCOCK RR (EB)
43.072094,AF0067,-89.406012,FFFFFF,1827,550250011012006,31,581,02,W JOHNSON & CHARTER (EB)
43.072093,AF0067,-89.404315,FFFFFF,1827,550250011011003,32,741,02,W JOHNSON & MILLS (EB)
43.072027,AF0067,-89.400138,FFFFFF,1827,550250016064002,33,455,02,W JOHNSON & N PARK (EB)
43.071984,AF0067,-89.39718,FFFFFF,1827,550250016064000,34,435,02,W JOHNSON & LAKE (EB)
43.071968,AF0067,-89.395488,FFFFFF,1827,550250016061002,35,941,02,W JOHNSON & FRANCES (EB)
43.072371,AF0067,-89.393298,FFFFFF,1827,550250016061000,36,555,02,W JOHNSON & BASSETT (EB)
43.073638,AF0067,-89.391446,FFFFFF,1827,550250017041009,37,839,02,W JOHNSON & BROOM (EB)
43.074713,AF0067,-89.388266,FFFFFF,1827,550250017041004,38,883,02,STATE & FAIRCHILD (EB)
43.074668,AF0067,-89.386819,FFFFFF,1827,550250017041005,39,1663,02,STATE & MIFFLIN (EB)
43.073333,AF0067,-89.38386,FFFFFF,1827,550250017042000,40,1101,02,MAIN & CARROLL (EB)
43.074989,AF0067,-89.382341,FFFFFF,1827,550250017051008,41,1787,02,PINCKNEY & MAIN (NB)
43.076112,AF0067,-89.383795,FFFFFF,1827,550250017053010,42,1495,02,PINCKNEY & MIFFLIN (NB)
43.078669,AF0067,-89.383931,FFFFFF,1827,550250017052012,43,1261,02,HAMILTON & E JOHNSON (NB)
43.079626,AF0067,-89.382881,FFFFFF,1827,550250017052005,44,1227,02,E JOHNSON & HANCOCK (EB)
43.080788,AF0067,-89.381307,FFFFFF,1827,550250018022007,45,1831,02,E JOHNSON & BLAIR (EB)
43.081772,AF0067,-89.379814,FFFFFF,1827,550250018022007,46,1393,02,E JOHNSON & BLOUNT (EB)
43.082937,AF0067,-89.378175,FFFFFF,1827,550250018022008,47,1121,02,E JOHNSON & LIVINGSTON (EB)
43.084322,AF0067,-89.376284,FFFFFF,1827,550250018041020,48,1159,02,E JOHNSON & PATERSON (EB)
43.085591,AF0067,-89.374529,FFFFFF,1827,550250018041019,49,1187,02,E JOHNSON & BREARLY (EB)
43.086848,AF0067,-89.372727,FFFFFF,1827,550250018041013,50,1205,02,E JOHNSON & INGERSOLL (EB)
43.088117,AF0067,-89.370905,FFFFFF,1827,550250018041012,51,1443,02,E JOHNSON & FEW (EB)
43.089625,AF0067,-89.368783,FFFFFF,1827,550250018041007,52,1325,02,E JOHNSON & BALDWIN (EB)
43.091733,AF0067,-89.365766,FFFFFF,1827,550250018041002,53,1595,02,E JOHNSON & THORNTON (EB)
43.093514,AF0067,-89.36356,FFFFFF,1827,550250021004007,54,1707,02,FORDEM & E JOHNSON (NB)
43.096916,AF0067,-89.363693,FFFFFF,1827,550250021004007,55,1177,02,FORDEM & LAKEWOOD (NB)
43.101039,AF0067,-89.363946,FFFFFF,1827,550250021004007,56,1379,02,FORDEM & MC GUIRE (NB)
43.103622,AF0067,-89.363897,FFFFFF,1827,550250021004008,62,1717,02,N SHERMAN & FORDEM (NB)
43.106605,AF0067,-89.363886,FFFFFF,1827,550250021004010,63,1923,02,N SHERMAN & COMMERCIAL (NB)
43.109372,AF0067,-89.363835,FFFFFF,1827,550250021001019,64,1715,02,N SHERMAN & OXFORD (NB)
43.111349,AF0067,-89.363772,FFFFFF,1827,550250021001018,65,1161,02,N SHERMAN & ROTH (NB)
43.111376,AF0067,-89.36166,FFFFFF,1827,550250021001018,66,1123,02,ROTH & RUSKIN (EB)
43.112847,AF0067,-89.358591,FFFFFF,1827,550250021001015,67,5100,02,NORTH TRANSFER POINT
43.053068,CD8382,-89.434926,000000,1828,550250014021079,16,2505,03,MONROE & GLENWAY (EB)
43.054934,CD8382,-89.432244,000000,1828,550250014021079,17,2759,03,MONROE & CHAPMAN (EB)
43.055985,CD8382,-89.430504,000000,1828,550250010002005,18,2673,03,MONROE & PICKFORD (EB)
43.057082,CD8382,-89.428935,000000,1828,550250010002004,19,2883,03,MONROE & KNICKERBOCKER (EB)
43.058084,CD8382,-89.427417,000000,1828,550250010001029,20,2499,03,MONROE & COMMONWEALTH (EB)
43.05915,CD8382,-89.425744,000000,1828,550250010001029,21,2139,03,MONROE & WEST LAWN (EB)
43.060894,CD8382,-89.423128,000000,1828,550250010001026,22,2389,03,MONROE & LEONARD (EB)
43.062282,CD8382,-89.421015,000000,1828,550250010001026,23,2447,03,MONROE & EDGEWOOD (EB)
43.063745,CD8382,-89.418805,000000,1828,550250012003045,24,2887,03,MONROE & PROSPECT (EB)
43.064509,CD8382,-89.417554,000000,1828,550250012003044,25,2749,03,MONROE & HARRISON (EB)
43.066157,CD8382,-89.415123,000000,1828,550250012003016,26,2255,03,MONROE & GARFIELD (EB)
43.06802,CD8382,-89.4138,000000,1828,550250011012009,27,349,03,BREESE & REGENT (NB)
43.070348,CD8382,-89.413796,000000,1828,550250011012009,28,751,03,BREESE & HOYT (NB)
43.073337,CD8382,-89.413257,000000,1828,550250011012009,29,133,03,UNIV AVE & BREESE (EB)
43.073266,CD8382,-89.411092,000000,1828,550250011012003,30,809,03,CAMPUS & BABCOCK RR (EB)
43.072094,CD8382,-89.406012,000000,1828,550250011012006,31,581,03,W JOHNSON & CHARTER (EB)
43.072093,CD8382,-89.404315,000000,1828,550250011011003,32,741,03,W JOHNSON & MILLS (EB)
43.072027,CD8382,-89.400138,000000,1828,550250016064002,33,455,03,W JOHNSON & N PARK (EB)
43.071984,CD8382,-89.39718,000000,1828,550250016064000,34,435,03,W JOHNSON & LAKE (EB)
43.071968,CD8382,-89.395488,000000,1828,550250016061002,35,941,03,W JOHNSON & FRANCES (EB)
43.072371,CD8382,-89.393298,000000,1828,550250016061000,36,555,03,W JOHNSON & BASSETT (EB)
43.073638,CD8382,-89.391446,000000,1828,550250017041009,37,839,03,W JOHNSON & BROOM (EB)
43.074713,CD8382,-89.388266,000000,1828,550250017041004,38,883,03,STATE & FAIRCHILD (EB)
43.074668,CD8382,-89.386819,000000,1828,550250017041005,39,1663,03,STATE & MIFFLIN (EB)
43.073333,CD8382,-89.38386,000000,1828,550250017042000,40,1101,03,MAIN & CARROLL (EB)
43.074447,CD8382,-89.38217,000000,1828,550250017051009,41,1823,03,MAIN & PINCKNEY (EB)
43.074574,CD8382,-89.378787,000000,1828,550250017051013,42,1737,03,KING & WILSON (EB)
43.07565,CD8382,-89.376687,000000,1828,550250017051016,43,1839,03,WILSON & FRANKLIN (EB)
43.077193,CD8382,-89.372879,000000,1828,550250019003030,44,1509,03,WILLIAMSON & BLOUNT (EB)
43.077877,CD8382,-89.370083,000000,1828,550250019003016,45,1167,03,JENIFER & LIVINGSTON (EB)
43.078706,CD8382,-89.368915,000000,1828,550250019003016,46,1615,03,JENIFER & PATERSON (EB)
43.080202,CD8382,-89.366831,000000,1828,550250019003005,47,1959,03,JENIFER & BREARLY (EB)
43.081231,CD8382,-89.365346,000000,1828,550250019003005,48,1505,03,JENIFER & INGERSOLL (EB)
43.08245,CD8382,-89.363517,000000,1828,550250019002017,49,1559,03,JENIFER & FEW (EB)
43.083733,CD8382,-89.361807,000000,1828,550250019002012,50,1689,03,JENIFER & BALDWIN (EB)
43.084425,CD8382,-89.362346,000000,1828,550250019004016,57,1657,03,BALDWIN & WILLIAMSON (NB)
43.085864,CD8382,-89.360574,000000,1828,550250019004015,58,1213,03,WILLIAMSON & DICKINSON (EB)
43.087341,CD8382,-89.359007,000000,1828,550250019004014,59,1645,03,WILLIAMSON & ROGERS (EB)
43.088625,CD8382,-89.357788,000000,1828,550250019001015,60,1935,03,WINNEBAGO & RIVERSIDE (NB)
43.090406,CD8382,-89.356378,000000,1828,550250019001007,61,1901,03,WINNEBAGO & FIRST (NB)
43.091726,CD8382,-89.355363,000000,1828,550250019001007,62,1753,03,WINNEBAGO & ATWOOD (NB)
43.092493,CD8382,-89.352818,000000,1828,550250019001000,63,1961,03,ATWOOD & RUSK (EB)
43.092613,CD8382,-89.350783,000000,1828,550250020003015,64,1643,03,EASTWOOD & DIVISION (EB)
43.093344,CD8382,-89.34866,000000,1828,550250020003014,65,1887,03,ATWOOD & EVERGREEN (EB)
43.093771,CD8382,-89.346728,000000,1828,550250020003012,66,1391,03,ATWOOD & OHIO (EB)
43.093902,CD8382,-89.34524,000000,1828,550250020003012,67,1211,03,ATWOOD & HUDSON (EB)
43.093851,CD8382,-89.342317,000000,1828,550250020003010,68,1127,03,ATWOOD & MARQUETTE (EB)
43.091657,CD8382,-89.336,000000,1828,550250020003001,69,1905,03,ATWOOD & LAKELAND (EB)
43.089833,CD8382,-89.3291,000000,1828,550250027002018,70,1225,03,WALTER & ATWOOD (NB)
43.090986,CD8382,-89.32794,000000,1828,550250027002014,71,1785,03,WALTER & CAPITOL CITY (NB)
43.093288,CD8382,-89.326693,000000,1828,550250027003030,72,1809,03,WALTER & RICHARD (NB)
43.095591,CD8382,-89.326586,000000,1828,550250027003034,73,1153,03,WALTER & DAWES (NB)
43.098137,CD8382,-89.326231,000000,1828,550250027003032,74,1105,03,MILWAUKEE & WALTER (EB)
43.098601,CD8382,-89.322445,000000,1828,550250027003002,75,7100,03,EAST TRANSFER POINT
43.039101,007A48,-89.394589,000000,1829,550250014013024,1,4100,04,SOUTH TRANSFER POINT
43.038552,007A48,-89.397554,000000,1829,550250014013031,2,590,04,BADGER & CYPRESS (WB)
43.038665,007A48,-89.401933,000000,1829,550250014013031,3,782,04,BADGER & FIEDLER (WB)
43.038853,007A48,-89.403803,000000,1829,550250014013032,4,499,04,FISH HATCHERY & BADGER (NB)
43.041795,007A48,-89.403858,000000,1829,550250014013013,5,405,04,FISH HATCHERY & CATALPA (NB)
43.044572,007A48,-89.403792,000000,1829,550250014013002,6,391,04,FISH HATCHERY & CARVER (NB)
43.049332,007A48,-89.400594,000000,1829,550250014013002,7,845,04,FISH HATCHERY & PLAENERT (NB)
43.05165,007A48,-89.399062,000000,1829,550250013002011,8,843,04,FISH HATCHERY & APPLETON (NB)
43.054455,007A48,-89.398926,000000,1829,550250013002003,9,915,04,FISH HATCHERY & MIDLAND (NB)
43.057177,007A48,-89.398815,000000,1829,550250013001009,10,519,04,S PARK & FISH HATCHERY (NB)
43.059961,007A48,-89.401245,000000,1829,550250012002018,11,904,04,ERIN & S PARK (WB)
43.059929,007A48,-89.403804,000000,1829,550250012002014,12,300,04,ERIN & MILLS (WB)
43.063364,007A48,-89.403935,000000,1829,550250012004026,13,375,04,MILLS & VILAS (NB)
43.065159,007A48,-89.403999,000000,1829,550250012004022,14,167,04,MILLS & MOUND (NB)
43.067533,007A48,-89.403989,000000,1829,550250012004001,15,841,04,MILLS & REGENT (NB)
43.068482,007A48,-89.404008,000000,1829,550250011011017,16,739,04,MILLS & COLLEGE (NB)
43.069877,007A48,-89.404025,000000,1829,550250011011013,17,445,04,MILLS & SPRING (NB)
43.070832,007A48,-89.404028,000000,1829,550250011011013,18,837,04,MILLS & DAYTON (NB)
43.071895,007A48,-89.40404,000000,1829,550250011011004,19,441,04,MILLS & W JOHNSON (NB)
43.072027,007A48,-89.400138,000000,1829,550250016064002,20,455,04,W JOHNSON & N PARK (EB)
43.073034,007A48,-89.397332,000000,1829,550250016032001,21,765,04,LAKE & UNIV AVE (NB)
43.074887,007A48,-89.396803,000000,1829,550250016031005,22,265,04,STATE & LAKE (EB)
43.074809,007A48,-89.393711,000000,1829,550250016031003,23,505,04,STATE & GILMAN (EB)
43.074723,007A48,-89.392031,000000,1829,550250016031001,24,549,04,STATE & GORHAM (EB)
43.074686,007A48,-89.390278,000000,1829,550250016031000,25,803,04,STATE & W JOHNSON (EB)
43.074713,007A48,-89.388266,000000,1829,550250017041004,26,883,04,STATE & FAIRCHILD (EB)
43.074668,007A48,-89.386819,000000,1829,550250017041005,27,1663,04,STATE & MIFFLIN (EB)
43.073333,007A48,-89.38386,000000,1829,550250017042000,28,1101,04,MAIN & CARROLL (EB)
43.074447,007A48,-89.38217,000000,1829,550250017051009,29,1823,04,MAIN & PINCKNEY (EB)
43.074574,007A48,-89.378787,000000,1829,550250017051013,30,1737,04,KING & WILSON (EB)
43.07565,007A48,-89.376687,000000,1829,550250017051016,31,1839,04,WILSON & FRANKLIN (EB)
43.077193,007A48,-89.372879,000000,1829,550250019003030,32,1509,04,WILLIAMSON & BLOUNT (EB)
43.077877,007A48,-89.370083,000000,1829,550250019003016,33,1167,04,JENIFER & LIVINGSTON (EB)
43.078706,007A48,-89.368915,000000,1829,550250019003016,34,1615,04,JENIFER & PATERSON (EB)
43.080202,007A48,-89.366831,000000,1829,550250019003005,35,1959,04,JENIFER & BREARLY (EB)
43.081231,007A48,-89.365346,000000,1829,550250019003005,36,1505,04,JENIFER & INGERSOLL (EB)
43.08245,007A48,-89.363517,000000,1829,550250019002017,37,1559,04,JENIFER & FEW (EB)
43.083733,007A48,-89.361807,000000,1829,550250019002012,38,1689,04,JENIFER & BALDWIN (EB)
43.084425,007A48,-89.362346,000000,1829,550250019004016,39,1657,04,BALDWIN & WILLIAMSON (NB)
43.085864,007A48,-89.360574,000000,1829,550250019004015,40,1213,04,WILLIAMSON & DICKINSON (EB)
43.087341,007A48,-89.359007,000000,1829,550250019004014,41,1645,04,WILLIAMSON & ROGERS (EB)
43.088625,007A48,-89.357788,000000,1829,550250019001015,42,1935,04,WINNEBAGO & RIVERSIDE (NB)
43.090406,007A48,-89.356378,000000,1829,550250019001007,43,1901,04,WINNEBAGO & FIRST (NB)
43.09234,007A48,-89.354874,000000,1829,550250019005014,44,1499,04,WINNEBAGO & ATWOOD (NB)
43.094228,007A48,-89.353369,000000,1829,550250019005014,45,1575,04,WINNEBAGO & LINDEN (NB)
43.095275,007A48,-89.352591,000000,1829,550250019005004,46,1343,04,WINNEBAGO & FOURTH (NB)
43.096617,007A48,-89.351495,000000,1829,550250019005002,47,1659,04,WINNEBAGO & LAFOLLETTE (NB)
43.09845,007A48,-89.350762,000000,1829,550250019005000,48,1233,04,EAST WASH & SIXTH (EB)
43.100527,007A48,-89.348409,000000,1829,550250020004011,49,1311,04,EAST WASH & MILWAUKEE (EB)
43.104066,007A48,-89.343096,000000,1829,550250021002001,50,1777,04,OAK & EAST WASH (NB)
43.106612,007A48,-89.342826,000000,1829,550250021002001,51,1973,04,OAK & COMMERCIAL (NB)
43.10688,007A48,-89.345137,000000,1829,550250021001032,52,1326,04,COMMERCIAL & NORTH LAWN (WB)
43.106915,007A48,-89.347308,000000,1829,550250021001028,53,1852,04,COMMERCIAL & KEDZIE (WB)
43.106902,007A48,-89.351556,000000,1829,550250021001008,54,1394,04,COMMERCIAL & NORTH (WB)
43.107064,007A48,-89.354439,000000,1829,550250021001008,55,1427,04,PACKERS & COMMERCIAL (NB)
43.114268,007A48,-89.357264,000000,1829,550250022002019,56,1380,04,ABERG & LOFTSGORDAN RR (WB)
43.112847,007A48,-89.358591,000000,1829,550250021001015,57,5100,04,NORTH TRANSFER POINT
43.039101,B46A5B,-89.394589,000000,1830,550250014013024,1,4100,05,SOUTH TRANSFER POINT
43.041511,B46A5B,-89.393876,000000,1830,550250014011044,2,475,05,S PARK & BUICK (NB)
43.042875,B46A5B,-89.391838,000000,1830,550250014011025,3,171,05,FISHER & DANE (NB)
43.045582,B46A5B,-89.391687,000000,1830,550250014014011,4,643,05,FISHER & BRAM (NB)
43.047713,B46A5B,-89.39271,000000,1830,550250014014006,5,197,05,BELD & KENWARD (NB)
43.049428,B46A5B,-89.393931,000000,1830,550250013001043,6,745,05,S PARK & WINGRA (NB)
43.052375,B46A5B,-89.394985,000000,1830,550250013001044,7,181,05,S PARK & BELD (NB)
43.054417,B46A5B,-89.396632,000000,1830,550250013001036,8,107,05,S PARK & OLIN (NB)
43.057177,B46A5B,-89.398815,000000,1830,550250013001009,9,519,05,S PARK & FISH HATCHERY (NB)
43.060125,B46A5B,-89.400619,000000,1830,550250012001008,10,251,05,S PARK & ERIN (NB)
43.063424,B46A5B,-89.399942,000000,1830,550250012001006,11,633,05,WEST WASH & S PARK (EB)
43.064785,B46A5B,-89.39803,000000,1830,550250012001000,12,113,05,WEST WASH & PED BRIDGE (EB)
43.065887,B46A5B,-89.396487,000000,1830,550250012001000,13,225,05,WEST WASH & PARK VIEW (EB)
43.067563,B46A5B,-89.394149,000000,1830,550250016052009,14,469,05,WEST WASH & SW COMMUTER (EB)
43.068993,B46A5B,-89.39214,000000,1830,550250016051003,15,967,05,WEST WASH & BEDFORD (EB)
43.070249,B46A5B,-89.390356,000000,1830,550250016051000,16,473,05,WEST WASH & BASSETT (EB)
43.071578,B46A5B,-89.388518,000000,1830,550250017042012,17,989,05,WEST WASH & BROOM (EB)
43.072462,B46A5B,-89.387306,000000,1830,550250017042011,18,235,05,WEST WASH & HENRY (EB)
43.073602,B46A5B,-89.385637,000000,1830,550250017042001,19,1163,05,WEST WASH & CARROLL (EB)
43.073333,B46A5B,-89.38386,000000,1830,550250017042000,20,1101,05,MAIN & CARROLL (EB)
43.074989,B46A5B,-89.382341,000000,1830,550250017051008,21,1787,05,PINCKNEY & MAIN (NB)
43.076112,B46A5B,-89.383795,000000,1830,550250017053010,22,1495,05,PINCKNEY & MIFFLIN (NB)
43.078669,B46A5B,-89.383931,000000,1830,550250017052012,23,1261,05,HAMILTON & E JOHNSON (NB)
43.079626,B46A5B,-89.382881,000000,1830,550250017052005,24,1227,05,E JOHNSON & HANCOCK (EB)
43.080788,B46A5B,-89.381307,000000,1830,550250018022007,25,1831,05,E JOHNSON & BLAIR (EB)
43.081772,B46A5B,-89.379814,000000,1830,550250018022007,26,1393,05,E JOHNSON & BLOUNT (EB)
43.082937,B46A5B,-89.378175,000000,1830,550250018022008,27,1121,05,E JOHNSON & LIVINGSTON (EB)
43.084322,B46A5B,-89.376284,000000,1830,550250018041020,28,1159,05,E JOHNSON & PATERSON (EB)
43.085591,B46A5B,-89.374529,000000,1830,550250018041019,29,1187,05,E JOHNSON & BREARLY (EB)
43.086848,B46A5B,-89.372727,000000,1830,550250018041013,30,1205,05,E JOHNSON & INGERSOLL (EB)
43.088117,B46A5B,-89.370905,000000,1830,550250018041012,31,1443,05,E JOHNSON & FEW (EB)
43.089625,B46A5B,-89.368783,000000,1830,550250018041007,32,1325,05,E JOHNSON & BALDWIN (EB)
43.091733,B46A5B,-89.365766,000000,1830,550250018041002,33,1595,05,E JOHNSON & THORNTON (EB)
43.093124,B46A5B,-89.363646,000000,1830,550250018042016,34,1333,05,E JOHNSON & FORDEM (EB)
43.094346,B46A5B,-89.361754,000000,1830,550250021004012,35,1843,05,E JOHNSON & FIRST (EB)
43.097031,B46A5B,-89.358522,000000,1830,550250021004015,36,1131,05,E JOHNSON & THIRD (EB)
43.098321,B46A5B,-89.356842,000000,1830,550250021004017,37,1675,05,E JOHNSON & FOURTH (EB)
43.100346,B46A5B,-89.354129,000000,1830,550250021003014,38,1949,05,E JOHNSON & SIXTH (EB)
43.10149,B46A5B,-89.352586,000000,1830,550250021003009,39,1319,05,E JOHNSON & SEVENTH (EB)
43.103078,B46A5B,-89.350485,000000,1830,550250021003004,40,1511,05,E JOHNSON & NORTH (EB)
43.101439,B46A5B,-89.349567,000000,1830,550250021003006,41,1598,05,NORTH & MIFFLIN (SB)
43.100042,B46A5B,-89.348438,000000,1830,550250020004037,42,1293,05,MILWAUKEE & EAST WASH (EB)
43.099959,B46A5B,-89.344128,000000,1830,550250020004013,43,1133,05,MILWAUKEE & WAUBESA (EB)
43.099895,B46A5B,-89.34172,000000,1830,550250020004017,44,1975,05,MILWAUKEE & MARQUETTE (EB)
43.099821,B46A5B,-89.337362,000000,1830,550250020001049,45,1913,05,MILWAUKEE & ST PAUL (EB)
43.099774,B46A5B,-89.335456,000000,1830,550250020002015,46,1855,05,MILWAUKEE & BRYAN (EB)
43.09968,B46A5B,-89.332824,000000,1830,550250020002015,47,1437,05,MILWAUKEE & FAIR OAKS (EB)
43.099378,B46A5B,-89.331504,000000,1830,550250027003019,48,1751,05,MILWAUKEE & FAIR OAKS (EB)
43.098284,B46A5B,-89.329172,000000,1830,550250027003018,49,1309,05,MILWAUKEE & LEON (EB)
43.098137,B46A5B,-89.326231,000000,1830,550250027003032,50,1105,05,MILWAUKEE & WALTER (EB)
43.098601,B46A5B,-89.322445,000000,1830,550250027003002,51,7100,05,EAST TRANSFER POINT
43.053874,EC2B27,-89.47553,000000,1831,550250004081021,1,6100,06,WEST TRANSFER POINT
43.053527,EC2B27,-89.469568,000000,1831,550250004022005,14,2939,06,TOKAY & BLUEBIRD (EB)
43.053582,EC2B27,-89.465952,000000,1831,550250004022005,15,2323,06,TOKAY & SEGOE (EB)
43.053574,EC2B27,-89.463706,000000,1831,550250004022003,16,2417,06,TOKAY & WEDGEWOOD (EB)
43.05353,EC2B27,-89.458795,000000,1831,550250004022002,17,2161,06,TOKAY & HILLTOP (EB)
43.053522,EC2B27,-89.455117,000000,1831,550250004012010,18,2615,06,TOKAY & CHARLES (EB)
43.053452,EC2B27,-89.450526,000000,1831,550250004011027,19,2111,06,TOKAY & MIDVALE (EB)
43.053408,EC2B27,-89.447638,000000,1831,550250004011027,20,2233,06,TOKAY & CHATHAM (EB)
43.053354,EC2B27,-89.444516,000000,1831,550250004011039,21,2431,06,TOKAY & FREDERICK (EB)
43.053798,EC2B27,-89.441819,000000,1831,550250004011038,22,2889,06,TOEPFER & TOKAY (NB)
43.05595,EC2B27,-89.441765,000000,1831,550250004011017,23,2387,06,TOEPFER & ST CLAIR (NB)
43.05761,EC2B27,-89.441783,000000,1831,550250004011013,24,2435,06,TOEPFER & MEYER (NB)
43.059371,EC2B27,-89.441855,000000,1831,550250004011003,25,2937,06,TOEPFER & EUCLID (NB)
43.060694,EC2B27,-89.441601,000000,1831,550250004011000,26,2737,06,MINERAL PT & TOEPFER (EB)
43.061148,EC2B27,-89.438018,000000,1831,550250010001000,27,2659,06,SPEEDWAY & GLENWAY (EB)
43.062457,EC2B27,-89.436293,000000,1831,550250010001013,28,2231,06,SPEEDWAY & FRANKLIN (EB)
43.064089,EC2B27,-89.434146,000000,1831,550250010001013,29,2137,06,SPEEDWAY & HILLCREST (EB)
43.067915,EC2B27,-89.427925,000000,1831,550250009011006,30,2377,06,REGENT & HIGHLAND (EB)
43.067921,EC2B27,-89.426123,000000,1831,550250009011005,31,2773,06,REGENT & VISTA (EB)
43.067881,EC2B27,-89.423467,000000,1831,550250009011004,32,2899,06,REGENT & ALLEN (EB)
43.067806,EC2B27,-89.420944,000000,1831,550250009011002,33,2949,06,REGENT & PROSPECT (EB)
43.067814,EC2B27,-89.416537,000000,1831,550250009011000,34,2691,06,REGENT & SPOONER (EB)
43.067782,EC2B27,-89.413476,000000,1831,550250011012014,35,533,06,REGENT & BREESE (EB)
43.067729,EC2B27,-89.409231,000000,1831,550250012003000,36,971,06,REGENT & RANDALL (EB)
43.067722,EC2B27,-89.407559,000000,1831,550250012004004,37,583,06,REGENT & ORCHARD (EB)
43.067669,EC2B27,-89.4038,000000,1831,550250012004001,38,327,06,REGENT & MILLS (EB)
43.068063,EC2B27,-89.400749,000000,1831,550250016063003,39,115,06,N PARK & REGENT (NB)
43.069205,EC2B27,-89.400796,000000,1831,550250016063003,40,483,06,N PARK & SPRING (NB)
43.070794,EC2B27,-89.400718,000000,1831,550250016063002,41,561,06,N PARK & DAYTON (NB)
43.072027,EC2B27,-89.400138,000000,1831,550250016064002,42,455,06,W JOHNSON & N PARK (EB)
43.073034,EC2B27,-89.397332,000000,1831,550250016032001,43,765,06,LAKE & UNIV AVE (NB)
43.074887,EC2B27,-89.396803,000000,1831,550250016031005,44,265,06,STATE & LAKE (EB)
43.074809,EC2B27,-89.393711,000000,1831,550250016031003,45,505,06,STATE & GILMAN (EB)
43.074723,EC2B27,-89.392031,000000,1831,550250016031001,46,549,06,STATE & GORHAM (EB)
43.074686,EC2B27,-89.390278,000000,1831,550250016031000,47,803,06,STATE & W JOHNSON (EB)
43.074713,EC2B27,-89.388266,000000,1831,550250017041004,48,883,06,STATE & FAIRCHILD (EB)
43.074668,EC2B27,-89.386819,000000,1831,550250017041005,49,1663,06,STATE & MIFFLIN (EB)
43.073333,EC2B27,-89.38386,000000,1831,550250017042000,50,1101,06,MAIN & CARROLL (EB)
43.074989,EC2B27,-89.382341,000000,1831,550250017051008,51,1787,06,PINCKNEY & MAIN (NB)
43.076387,EC2B27,-89.381563,000000,1831,550250017051007,52,1323,06,EAST WASH & WEBSTER (EB)
43.078328,EC2B27,-89.378807,000000,1831,550250017051000,53,1579,06,EAST WASH & BLAIR (EB)
43.079614,EC2B27,-89.376965,000000,1831,550250019003023,54,1453,06,EAST WASH & BLOUNT (EB)
43.08238,EC2B27,-89.373012,000000,1831,550250019003009,55,1565,06,EAST WASH & PATERSON (EB)
43.085012,EC2B27,-89.369345,000000,1831,550250019004007,57,1199,06,EAST WASH & INGERSOLL (EB)
43.087367,EC2B27,-89.365943,000000,1831,550250019004006,58,1883,06,EAST WASH & BALDWIN (EB)
43.088337,EC2B27,-89.364485,000000,1831,550250019004006,59,1805,06,EAST WASH & DICKINSON (EB)
43.089788,EC2B27,-89.362438,000000,1831,550250019004001,60,1513,06,EAST WASH & YAHARA (EB)
43.091981,EC2B27,-89.359353,000000,1831,550250019005021,61,1241,06,EAST WASH & FIRST (EB)
43.093708,EC2B27,-89.357055,000000,1831,550250019005010,62,1107,06,EAST WASH & SECOND (EB)
43.095914,EC2B27,-89.354117,000000,1831,550250019005009,63,1141,06,EAST WASH & FOURTH (EB)
43.09845,EC2B27,-89.350762,000000,1831,550250019005000,64,1233,06,EAST WASH & SIXTH (EB)
43.100527,EC2B27,-89.348409,000000,1831,550250020004011,65,1311,06,EAST WASH & MILWAUKEE (EB)
43.102851,EC2B27,-89.344693,000000,1831,550250020004004,66,1269,06,EAST WASH & E JOHNSON (EB)
43.1043,EC2B27,-89.341592,000000,1831,550250020001016,67,1481,06,EAST WASH & MARQUETTE (EB)
43.106581,EC2B27,-89.339242,000000,1831,550250020001006,68,1757,06,EAST WASH & ABERG (EB)
43.109287,EC2B27,-89.335505,000000,1831,550250026012021,69,9339,06,EAST WASH & MELVIN (EB)
43.111189,EC2B27,-89.332935,000000,1831,550250026012013,70,9135,06,EAST WASH & LEXINGTON (EB)
43.113923,EC2B27,-89.330523,000000,1831,550250025001083,71,9405,06,WRIGHT & CARPENTER (NB)
43.117277,EC2B27,-89.330457,000000,1831,550250025001082,72,9171,06,WRIGHT & STRAUBEL (NB)
43.121035,EC2B27,-89.330281,000000,1831,550250025001077,73,9101,06,WRIGHT & MADISON COLL (NB)
43.125664,EC2B27,-89.329772,000000,1831,550250025001075,74,9725,06,KINSMAN & WRIGHT (EB)
43.125594,EC2B27,-89.327209,000000,1831,550250025001075,75,9787,06,KINSMAN & STOUGHTON (EB)
43.125565,EC2B27,-89.323294,000000,1831,550250026022023,76,9797,06,KINSMAN & BARTILLON (EB)
43.122955,EC2B27,-89.324782,000000,1831,550250026022024,77,9182,06,STOUGHTON FT & ORIN (SB)
43.121535,EC2B27,-89.324555,000000,1831,550250026022024,78,9306,06,STOUGHTON FT & STOUGHTON (SB)
43.117444,EC2B27,-89.32342,000000,1831,550250026011000,82,9551,06,EAST WASH & MAC ARTHUR (EB)
43.118978,EC2B27,-89.321043,000000,1831,550250026032045,83,9573,06,EAST WASH & MENDOTA (EB)
43.121439,EC2B27,-89.317484,000000,1831,550250026032041,84,9491,06,EAST WASH & LIEN (EB)
43.123771,EC2B27,-89.314007,000000,1831,550250026032039,85,9587,06,EAST WASH & PORTAGE (EB)
43.126141,EC2B27,-89.310211,000000,1831,550250026032039,86,9442,06,EAGAN & EAST WASH (SB)
43.125271,EC2B27,-89.308828,000000,1831,550250026032037,87,9677,06,EAST TOWNE & EAGAN (EB)
43.126576,EC2B27,-89.306961,000000,1831,550250026032024,108,9800,06,E TOWNE RNG & SHELTER (EB)
43.073971,AD9B4C,-89.433665,000000,1833,550250032001009,1,2131,09,U BAY & UNIV AVE (NB)
43.078181,AD9B4C,-89.433241,000000,1833,550250032001009,2,2473,09,HIGHLAND & WAISMAN CTR (NB)
43.078504,AD9B4C,-89.430495,000000,1833,550250032001008,3,2349,09,HIGHLAND & MARSH (EB)
43.076839,AD9B4C,-89.429079,000000,1833,550250032001008,4,2916,09,HIGHLAND & OBSERVATORY (SB)
43.074538,AD9B4C,-89.428895,000000,1833,550250032001009,5,2822,09,HIGHLAND & VA HOSP (SB)
43.072025,AD9B4C,-89.428286,000000,1833,550250009023008,6,2561,09,UNIV AVE & HIGHLAND (EB)
43.072282,AD9B4C,-89.42482,000000,1833,550250009023004,7,2605,09,UNIV AVE & WALNUT (EB)
43.072703,AD9B4C,-89.421277,000000,1833,550250009022001,8,2717,09,UNIV AVE & FOREST (EB)
43.073222,AD9B4C,-89.417524,000000,1833,550250009021006,9,2921,09,UNIV AVE & PRINCETON (EB)
43.073337,AD9B4C,-89.413257,000000,1833,550250011012009,10,133,09,UNIV AVE & BREESE (EB)
43.073266,AD9B4C,-89.411092,000000,1833,550250011012003,11,809,09,CAMPUS & BABCOCK RR (EB)
43.072094,AD9B4C,-89.406012,000000,1833,550250011012006,12,581,09,W JOHNSON & CHARTER (EB)
43.072093,AD9B4C,-89.404315,000000,1833,550250011011003,13,741,09,W JOHNSON & MILLS (EB)
43.072027,AD9B4C,-89.400138,000000,1833,550250016064002,14,455,09,W JOHNSON & N PARK (EB)
43.071984,AD9B4C,-89.39718,000000,1833,550250016064000,15,435,09,W JOHNSON & LAKE (EB)
43.071968,AD9B4C,-89.395488,000000,1833,550250016061002,16,941,09,W JOHNSON & FRANCES (EB)
43.072371,AD9B4C,-89.393298,000000,1833,550250016061000,17,555,09,W JOHNSON & BASSETT (EB)
43.073638,AD9B4C,-89.391446,000000,1833,550250017041009,18,839,09,W JOHNSON & BROOM (EB)
43.075933,AD9B4C,-89.388251,000000,1833,550250017041003,19,567,09,W JOHNSON & CARROLL (EB)
43.077407,AD9B4C,-89.38603,000000,1833,550250017053006,20,597,09,E JOHNSON & PINCKNEY (EB)
43.079626,AD9B4C,-89.382881,000000,1833,550250017052005,21,1227,09,E JOHNSON & HANCOCK (EB)
43.080788,AD9B4C,-89.381307,000000,1833,550250018022007,22,1831,09,E JOHNSON & BLAIR (EB)
43.081772,AD9B4C,-89.379814,000000,1833,550250018022007,23,1393,09,E JOHNSON & BLOUNT (EB)
43.082937,AD9B4C,-89.378175,000000,1833,550250018022008,24,1121,09,E JOHNSON & LIVINGSTON (EB)
43.084322,AD9B4C,-89.376284,000000,1833,550250018041020,25,1159,09,E JOHNSON & PATERSON (EB)
43.085591,AD9B4C,-89.374529,000000,1833,550250018041019,26,1187,09,E JOHNSON & BREARLY (EB)
43.086848,AD9B4C,-89.372727,000000,1833,550250018041013,27,1205,09,E JOHNSON & INGERSOLL (EB)
43.088117,AD9B4C,-89.370905,000000,1833,550250018041012,28,1443,09,E JOHNSON & FEW (EB)
43.089625,AD9B4C,-89.368783,000000,1833,550250018041007,29,1325,09,E JOHNSON & BALDWIN (EB)
43.091733,AD9B4C,-89.365766,000000,1833,550250018041002,30,1595,09,E JOHNSON & THORNTON (EB)
43.093124,AD9B4C,-89.363646,000000,1833,550250018042016,31,1333,09,E JOHNSON & FORDEM (EB)
43.094346,AD9B4C,-89.361754,000000,1833,550250021004012,32,1843,09,E JOHNSON & FIRST (EB)
43.097031,AD9B4C,-89.358522,000000,1833,550250021004015,33,1131,09,E JOHNSON & THIRD (EB)
43.098321,AD9B4C,-89.356842,000000,1833,550250021004017,34,1675,09,E JOHNSON & FOURTH (EB)
43.100346,AD9B4C,-89.354129,000000,1833,550250021003014,35,1949,09,E JOHNSON & SIXTH (EB)
43.10149,AD9B4C,-89.352586,000000,1833,550250021003009,36,1319,09,E JOHNSON & SEVENTH (EB)
43.103078,AD9B4C,-89.350485,000000,1833,550250021003004,37,1511,09,E JOHNSON & NORTH (EB)
43.101439,AD9B4C,-89.349567,000000,1833,550250021003006,38,1598,09,NORTH & MIFFLIN (SB)
43.100042,AD9B4C,-89.348438,000000,1833,550250020004037,39,1293,09,MILWAUKEE & EAST WASH (EB)
43.099959,AD9B4C,-89.344128,000000,1833,550250020004013,40,1133,09,MILWAUKEE & WAUBESA (EB)
43.099895,AD9B4C,-89.34172,000000,1833,550250020004017,41,1975,09,MILWAUKEE & MARQUETTE (EB)
43.099821,AD9B4C,-89.337362,000000,1833,550250020001049,42,1913,09,MILWAUKEE & ST PAUL (EB)
43.099774,AD9B4C,-89.335456,000000,1833,550250020002015,43,1855,09,MILWAUKEE & BRYAN (EB)
43.09968,AD9B4C,-89.332824,000000,1833,550250020002015,44,1437,09,MILWAUKEE & FAIR OAKS (EB)
43.099378,AD9B4C,-89.331504,000000,1833,550250027003019,45,1751,09,MILWAUKEE & FAIR OAKS (EB)
43.098284,AD9B4C,-89.329172,000000,1833,550250027003018,46,1309,09,MILWAUKEE & LEON (EB)
43.098137,AD9B4C,-89.326231,000000,1833,550250027003032,47,1105,09,MILWAUKEE & WALTER (EB)
43.098601,AD9B4C,-89.322445,000000,1833,550250027003002,48,7100,09,EAST TRANSFER POINT
43.073427,808000,-89.407056,000000,4084,550250011022016,1,178,10,UNIV AVE & ORCHARD (WB)
43.072094,808000,-89.406012,000000,4084,550250011012006,2,581,10,W JOHNSON & CHARTER (EB)
43.072093,808000,-89.404315,000000,4084,550250011011003,3,741,10,W JOHNSON & MILLS (EB)
43.072027,808000,-89.400138,000000,4084,550250016064002,4,455,10,W JOHNSON & N PARK (EB)
43.071984,808000,-89.39718,000000,4084,550250016064000,5,435,10,W JOHNSON & LAKE (EB)
43.071968,808000,-89.395488,000000,4084,550250016061002,6,941,10,W JOHNSON & FRANCES (EB)
43.072371,808000,-89.393298,000000,4084,550250016061000,25,555,10,W JOHNSON & BASSETT (EB)
43.073638,808000,-89.391446,000000,4084,550250017041009,26,839,10,W JOHNSON & BROOM (EB)
43.075933,808000,-89.388251,000000,4084,550250017041003,27,567,10,W JOHNSON & CARROLL (EB)
43.077407,808000,-89.38603,000000,4084,550250017053006,28,597,10,E JOHNSON & PINCKNEY (EB)
43.079626,808000,-89.382881,000000,4084,550250017052005,29,1227,10,E JOHNSON & HANCOCK (EB)
43.080788,808000,-89.381307,000000,4084,550250018022007,30,1831,10,E JOHNSON & BLAIR (EB)
43.081772,808000,-89.379814,000000,4084,550250018022007,31,1393,10,E JOHNSON & BLOUNT (EB)
43.082937,808000,-89.378175,000000,4084,550250018022008,32,1121,10,E JOHNSON & LIVINGSTON (EB)
43.084322,808000,-89.376284,000000,4084,550250018041020,33,1159,10,E JOHNSON & PATERSON (EB)
43.085591,808000,-89.374529,000000,4084,550250018041019,34,1187,10,E JOHNSON & BREARLY (EB)
43.086848,808000,-89.372727,000000,4084,550250018041013,35,1205,10,E JOHNSON & INGERSOLL (EB)
43.088117,808000,-89.370905,000000,4084,550250018041012,36,1443,10,E JOHNSON & FEW (EB)
43.089625,808000,-89.368783,000000,4084,550250018041007,37,1325,10,E JOHNSON & BALDWIN (EB)
43.091733,808000,-89.365766,000000,4084,550250018041002,38,1595,10,E JOHNSON & THORNTON (EB)
43.093124,808000,-89.363646,000000,4084,550250018042016,39,1333,10,E JOHNSON & FORDEM (EB)
43.093636,808000,-89.361465,000000,4084,550250021004011,40,1624,10,FIRST & DAYTON (SB)
43.091183,808000,-89.358005,000000,4084,550250019005019,41,1372,10,FIRST & MAIN (SB)
43.090406,808000,-89.356378,000000,4084,550250019001007,42,1901,10,WINNEBAGO & FIRST (NB)
43.091726,808000,-89.355363,000000,4084,550250019001007,43,1753,10,WINNEBAGO & ATWOOD (NB)
43.073333,D3886A,-89.38386,000000,2478,550250017042000,43,1101,11,MAIN & CARROLL (EB)
43.07292,D3886A,-89.381872,000000,2478,550250017042003,44,1872,11,M L K JR & CCB (SB)
43.071909,D3886A,-89.382367,000000,2478,550250017042003,45,248,11,WILSON & CARROLL (WB)
43.070796,D3886A,-89.38391,000000,2478,550250017042004,46,564,11,WILSON & HAMILTON (WB)
43.070985,D3886A,-89.385498,000000,2478,550250017042010,47,668,11,DOTY & HENRY (WB)
43.055744,D3886A,-89.381871,000000,2478,550250013001012,48,492,11,JOHN NOLEN & LAKESIDE (SB)
43.050331,D3886A,-89.377666,000000,2478,550250014011011,49,862,11,JOHN NOLEN & OLIN (SB)
43.046257,D3886A,-89.374941,000000,2478,550250014011020,50,166,11,RIMROCK & JOHN NOLEN (WB)
43.042921,D3886A,-89.377437,000000,2478,550250014011033,51,410,11,RIMROCK & E RUSK (SB)
43.038248,D3886A,-89.378585,000000,2478,550250015022061,52,3811,11,BADGER & RIMROCK (EB)
43.041527,D3886A,-89.373862,000000,2478,550250015022057,53,3505,11,NOB HILL & BADGER (EB)
43.042266,D3886A,-89.369517,000000,2478,550250015022057,54,3241,11,NOB HILL & WEA BLDG (EB)
43.041356,D3886A,-89.360731,000000,2478,550250015022031,55,3351,11,INDUSTRIAL & DETOX CENTER (EB)
43.04076,D3886A,-89.355116,000000,2478,550250015022037,56,3931,11,INDUSTRIAL & SOUTH TOWNE (EB)
43.042282,D3886A,-89.354226,000000,2478,550250015022003,57,3457,11,SOUTH TOWNE & ROYAL (NB)
43.046945,D3886A,-89.351408,000000,2478,550250015022011,58,3615,11,BROADWAY & FAYETTE (EB)
43.047066,D3886A,-89.346968,000000,2478,550250015022011,59,3841,11,BROADWAY & HOBOKEN (EB)
43.047011,D3886A,-89.343898,000000,2478,550250015022011,60,3733,11,BROADWAY & WPS DR (EB)
43.046965,D3886A,-89.340697,000000,2478,550250015022011,61,3301,11,BROADWAY & BRIDGE (EB)
43.047505,D3886A,-89.304259,000000,2478,550250031003056,62,3195,11,COLLINS & DUTCH MILL P&R (EB)
43.073266,9B8821,-89.411092,000000,1834,550250011012003,17,809,12,CAMPUS & BABCOCK RR (EB)
43.072094,9B8821,-89.406012,000000,1834,550250011012006,18,581,12,W JOHNSON & CHARTER (EB)
43.072093,9B8821,-89.404315,000000,1834,550250011011003,19,741,12,W JOHNSON & MILLS (EB)
43.072027,9B8821,-89.400138,000000,1834,550250016064002,20,455,12,W JOHNSON & N PARK (EB)
43.071984,9B8821,-89.39718,000000,1834,550250016064000,21,435,12,W JOHNSON & LAKE (EB)
43.071968,9B8821,-89.395488,000000,1834,550250016061002,22,941,12,W JOHNSON & FRANCES (EB)
43.072371,9B8821,-89.393298,000000,1834,550250016061000,23,555,12,W JOHNSON & BASSETT (EB)
43.073638,9B8821,-89.391446,000000,1834,550250017041009,24,839,12,W JOHNSON & BROOM (EB)
43.074713,9B8821,-89.388266,000000,1834,550250017041004,25,883,12,STATE & FAIRCHILD (EB)
43.074668,9B8821,-89.386819,000000,1834,550250017041005,26,1663,12,STATE & MIFFLIN (EB)
43.073333,9B8821,-89.38386,000000,1834,550250017042000,27,1101,12,MAIN & CARROLL (EB)
43.07292,9B8821,-89.381872,000000,1834,550250017042003,28,1872,12,M L K JR & CCB (SB)
43.071909,9B8821,-89.382367,000000,1834,550250017042003,29,248,12,WILSON & CARROLL (WB)
43.070796,9B8821,-89.38391,000000,1834,550250017042004,30,564,12,WILSON & HAMILTON (WB)
43.070985,9B8821,-89.385498,000000,1834,550250017042010,31,668,12,DOTY & HENRY (WB)
43.055744,9B8821,-89.381871,000000,1834,550250013001012,32,492,12,JOHN NOLEN & LAKESIDE (SB)
43.050331,9B8821,-89.377666,000000,1834,550250014011011,33,862,12,JOHN NOLEN & OLIN (SB)
43.046292,9B8821,-89.373695,000000,1834,550250014011018,34,650,12,JOHN NOLEN & RIMROCK (SB)
43.047262,9B8821,-89.354358,000000,1834,550250015012002,35,3432,12,FRAZIER & RAYWOOD (WB)
43.047291,9B8821,-89.356161,000000,1834,550250015012004,36,3754,12,FRAZIER & WAUNONA (WB)
43.049446,9B8821,-89.351606,000000,1834,550250015012002,37,3143,12,WAUNONA & FAYETTE (EB)
43.04825,9B8821,-89.351029,000000,1834,550250015012006,38,3555,12,LAKE PT & FAYETTE (EB)
43.048227,9B8821,-89.347184,000000,1834,550250015011006,39,3419,12,LAKE PT & HOBOKEN (EB)
43.048067,9B8821,-89.345251,000000,1834,550250015011006,40,3101,12,LAKE PT & WEBER (EB)
43.048079,9B8821,-89.342252,000000,1834,550250015011006,41,3261,12,LAKE PT & 1531 (EB)
43.048256,9B8821,-89.339659,000000,1834,550250015011006,42,3323,12,LAKE PT & BRIDGE (EB)
43.047505,9B8821,-89.304259,000000,1834,550250031003056,43,3195,12,COLLINS & DUTCH MILL P&R (EB)
43.073367,803E0E,-89.401463,000000,2479,550250011021002,1,100,13,UNIV AVE & N PARK (WB)
43.073078,803E0E,-89.404181,000000,2479,550250011011002,2,256,13,MILLS & UNIV AVE (SB)
43.071167,803E0E,-89.400986,000000,2479,550250011011009,3,180,13,N PARK & DAYTON (SB)
43.069488,803E0E,-89.401068,000000,2479,550250011011013,4,388,13,N PARK & SPRING (SB)
43.06736,803E0E,-89.401101,000000,2479,550250012004000,5,546,13,S PARK & REGENT (SB)
43.065181,803E0E,-89.400965,000000,2479,550250012004000,6,162,13,S PARK & MERITER (SB)
43.062937,803E0E,-89.400947,000000,2479,550250012004033,7,840,13,S PARK & WEST WASH (SB)
43.059675,803E0E,-89.400974,000000,2479,550250012002019,8,288,13,S PARK & ERIN (SB)
43.056492,803E0E,-89.398699,000000,2479,550250013002004,9,174,13,S PARK & FISH HATCHERY (SB)
43.053994,803E0E,-89.395262,000000,2479,550250013001035,10,877,13,OLIN & LOWELL (EB)
43.053953,803E0E,-89.391914,000000,2479,550250013001034,11,147,13,OLIN & HICKORY (EB)
43.053925,803E0E,-89.389955,000000,2479,550250013001031,12,289,13,OLIN & GILSON (EB)
43.053792,803E0E,-89.387207,000000,2479,550250013001020,13,367,13,OLIN & LAKE (EB)
43.053143,803E0E,-89.384483,000000,2479,550250013001020,14,465,13,OLIN & COLBY (EB)
43.052103,803E0E,-89.380619,000000,2479,550250014011011,15,153,13,OLIN & EXPO (EB)
43.050331,803E0E,-89.377666,000000,2479,550250014011011,16,862,13,JOHN NOLEN & OLIN (SB)
43.046257,803E0E,-89.374941,000000,2479,550250014011020,17,166,13,RIMROCK & JOHN NOLEN (WB)
43.042921,803E0E,-89.377437,000000,2479,550250014011033,18,410,13,RIMROCK & E RUSK (SB)
43.042813,803E0E,-89.378494,000000,2479,550250014011033,19,828,13,E RUSK & RIMROCK (WB)
43.042593,803E0E,-89.384138,000000,2479,550250014011033,20,789,13,N RUSK & ARDMORE (NB)
43.043924,803E0E,-89.385784,000000,2479,550250014011034,21,127,13,ARDMORE & KOSTER (NB)
43.042128,803E0E,-89.384273,000000,2479,550250014011035,22,448,13,N RUSK & SUNNYMEADE (SB)
43.040332,803E0E,-89.384307,000000,2479,550250014011055,23,154,13,N RUSK & NYGARD (SB)
43.038437,803E0E,-89.388471,000000,2479,550250014011036,24,462,13,BADGER & PED BRIDGE (WB)
43.038521,803E0E,-89.390684,000000,2479,550250014011048,25,144,13,BADGER & COLONIAL HTS (WB)
43.039101,803E0E,-89.394589,000000,2479,550250014013024,26,4100,13,SOUTH TRANSFER POINT
43.065676,778D22,-89.503293,000000,1835,550250002041012,3,6460,14,TREE & GAMMON (WB)
43.063963,778D22,-89.507513,000000,1835,550250002041010,4,6778,14,TREE & WESTFIELD (WB)
43.061329,778D22,-89.507892,000000,1835,550250002042012,12,6962,14,WESTFIELD & MINERAL PT (SB)
43.060568,778D22,-89.507484,000000,1835,550250004051001,13,6755,14,MINERAL PT & WESTFIELD (EB)
43.060548,778D22,-89.502256,000000,1835,550250004081006,14,6883,14,MINERAL PT & GAMMON (EB)
43.061561,778D22,-89.497082,000000,1835,550250002022010,15,6373,14,GRND CANYON & MINERAL PT (NB)
43.063282,778D22,-89.493227,000000,1835,550250002022012,16,6351,14,OFFSHORE & YELLOWSTONE (EB)
43.063201,778D22,-89.48907,000000,1835,550250002022012,17,6447,14,OFFSHORE & NAUTILUS (EB)
43.063239,778D22,-89.486681,000000,1835,550250002022015,18,6239,14,MASTHEAD & ISLAND (EB)
43.060714,778D22,-89.481592,000000,1835,550250004081001,19,6151,14,MINERAL PT & CUNA (EB)
43.061364,778D22,-89.478395,000000,1835,550250002011027,20,2535,14,ROSA & MINERAL PT (NB)
43.063381,778D22,-89.478406,000000,1835,550250002011027,21,2603,14,ROSA & DRIFTWOOD (NB)
43.065856,778D22,-89.478405,000000,1835,550250002011028,22,2449,14,ROSA & STADIUM (NB)
43.067851,778D22,-89.478158,000000,1835,550250002011030,23,2109,14,REGENT & ROSA (EB)
43.067992,778D22,-89.475404,000000,1835,550250002011030,24,2639,14,REGENT & GLEN (EB)
43.068002,778D22,-89.473689,000000,1835,550250002011022,25,2183,14,REGENT & ROCK (EB)
43.06794,778D22,-89.470467,000000,1835,550250002011018,26,2153,14,REGENT & MERRILL CREST (EB)
43.067995,778D22,-89.46799,000000,1835,550250003003000,27,2201,14,REGENT & WHITNEY (EB)
43.069288,778D22,-89.463166,000000,1835,550250003001016,28,2121,14,EAU CLAIRE & REGENT (NB)
43.072917,778D22,-89.463696,000000,1835,550250003001016,29,2175,14,SHEBOYGAN & EAU CLAIRE (EB)
43.061329,BCC926,-89.512643,000000,1836,550250002042019,13,6253,15,RANDOLPH & WESTWARD (NB)
43.063944,BCC926,-89.512543,000000,1836,550250002042012,14,6277,15,RANDOLPH & TREE (NB)
43.06435,BCC926,-89.517279,000000,1836,550250002042003,15,6539,15,HIGH PT & TREE (NB)
43.068085,BCC926,-89.517485,000000,1836,550250002042003,16,6665,15,HIGH PT & BRULE (NB)
43.072378,BCC926,-89.519752,000000,1836,550250002042003,17,6531,15,HIGH PT & SAUK CREEK (NB)
43.074947,BCC926,-89.518261,000000,1836,550250002042003,47,6189,15,OLD SAUK & HIGH PT (EB)
43.075,BCC926,-89.513038,000000,1836,550250002042002,48,6873,15,OLD SAUK & WIDGEON (EB)
43.075087,BCC926,-89.509374,000000,1836,550250002042000,49,6245,15,OLD SAUK & SAUKDALE (EB)
43.075419,BCC926,-89.507475,000000,1836,550250002052014,51,6327,15,WESTFIELD & OLD SAUK (NB)
43.079964,BCC926,-89.509348,000000,1836,550250002052010,52,6309,15,SAWMILL & WESTFIELD (EB)
43.081301,BCC926,-89.506125,000000,1836,550250002052010,53,6817,15,SAWMILL & RAMSGATE (EB)
43.081137,BCC926,-89.502574,000000,1836,550250002052010,54,6615,15,SAWMILL & GAMMON (EB)
43.076576,BCC926,-89.502099,000000,1836,550250002021006,55,6921,15,OLD SAUK & GAMMON (EB)
43.075167,BCC926,-89.497972,000000,1836,550250002021003,56,6115,15,OLD SAUK & EVERGLADE (EB)
43.075137,BCC926,-89.493718,000000,1836,550250002021002,57,6857,15,OLD SAUK & YOSEMITE (EB)
43.075122,BCC926,-89.488792,000000,1836,550250002021000,58,6233,15,OLD SAUK & OZARK (EB)
43.075134,BCC926,-89.481607,000000,1836,550250002012000,59,6161,15,OLD SAUK & CRESTWOOD ES (EB)
43.074652,BCC926,-89.477558,000000,1836,550250002011004,60,2617,15,OLD MIDDLETON & ROSA (EB)
43.074126,BCC926,-89.473967,000000,1836,550250002011003,61,2205,15,OLD MIDDLETON & GETTLE (EB)
43.073913,BCC926,-89.467931,000000,1836,550250002011001,62,2787,15,OLD MIDDLETON & WHITNEY (EB)
43.073027,BCC926,-89.46715,000000,1836,550250003004003,63,2397,15,SHEBOYGAN & WHITNEY (EB)
43.072917,BCC926,-89.463696,000000,1836,550250003001016,64,2175,15,SHEBOYGAN & EAU CLAIRE (EB)
43.061955,B86FAD,-89.323655,000000,2480,550250029002008,21,7605,16,PFLAUM & ALDER (EB)
43.062024,B86FAD,-89.320145,000000,2480,550250029002007,22,7739,16,PFLAUM & GROVELAND (EB)
43.062112,B86FAD,-89.315494,000000,2480,550250029002005,23,7119,16,PFLAUM & HERRO (EB)
43.062441,B86FAD,-89.314123,000000,2480,550250029001015,24,7107,16,TURNER & PFLAUM (NB)
43.063878,B86FAD,-89.314372,000000,2480,550250029001015,25,7709,16,TURNER & LINDA VISTA (NB)
43.066178,B86FAD,-89.314333,000000,2480,550250029001014,26,7663,16,TURNER & HOB (NB)
43.06808,B86FAD,-89.314308,000000,2480,550250029001011,27,7165,16,TURNER & KAY (NB)
43.06978,B86FAD,-89.314289,000000,2480,550250029001005,28,7729,16,TURNER & RUTH (NB)
43.071113,B86FAD,-89.314104,000000,2480,550250029001003,29,7115,16,TURNER & ALLIS (NB)
43.07359,B86FAD,-89.314099,000000,2480,550250028002011,30,7761,16,TURNER & BUCKEYE (NB)
43.073988,B86FAD,-89.315236,000000,2480,550250028001037,31,7322,16,BUCKEYE & SPAANEM (WB)
43.075344,B86FAD,-89.317865,000000,2480,550250028001026,32,7838,16,BUCKEYE & LAKEVIEW (WB)
43.077154,B86FAD,-89.32016,000000,2480,550250028001024,33,7152,16,BUCKEYE & DAVIES (WB)
43.079852,B86FAD,-89.323601,000000,2480,550250028001018,34,7388,16,BUCKEYE & MONONA (WB)
43.083989,B86FAD,-89.325059,000000,2480,550250027002025,35,7215,16,ATWOOD & COTTAGE GR (NB)
43.086032,B86FAD,-89.325902,000000,2480,550250027002025,36,7379,16,ATWOOD & OLBRICH (NB)
43.087462,B86FAD,-89.327075,000000,2480,550250027002023,37,7745,16,ATWOOD & MARGARET (NB)
43.089833,B86FAD,-89.3291,000000,2480,550250027002018,38,1225,16,WALTER & ATWOOD (NB)
43.090986,B86FAD,-89.32794,000000,2480,550250027002014,39,1785,16,WALTER & CAPITOL CITY (NB)
43.093288,B86FAD,-89.326693,000000,2480,550250027003030,40,1809,16,WALTER & RICHARD (NB)
43.095591,B86FAD,-89.326586,000000,2480,550250027003034,41,1153,16,WALTER & DAWES (NB)
43.098137,B86FAD,-89.326231,000000,2480,550250027003032,42,1105,16,MILWAUKEE & WALTER (EB)
43.098601,B86FAD,-89.322445,000000,2480,550250027003002,43,7100,16,EAST TRANSFER POINT
43.112847,3B69B3,-89.358591,000000,1837,550250021001015,1,5100,17,NORTH TRANSFER POINT
43.114135,3B69B3,-89.357806,000000,1837,550250021001015,2,1895,17,ABERG & LOFTSGORDAN RR (EB)
43.111181,3B69B3,-89.346808,000000,1837,550250025002007,3,9837,17,SHOPKO & ABERG (NB)
43.112843,3B69B3,-89.34808,000000,1837,550250025002007,4,9274,17,SHOPKO DR & SHOPKO NORTH (WB)
43.106242,3B69B3,-89.330982,000000,1837,550250020001027,5,9361,17,COMMERCIAL & FAIR OAKS (EB)
43.101735,3B69B3,-89.33104,000000,1837,550250020002004,6,1420,17,FAIR OAKS & CHICAGO (SB)
43.099378,3B69B3,-89.331504,000000,1837,550250027003019,7,1751,17,MILWAUKEE & FAIR OAKS (EB)
43.098284,3B69B3,-89.329172,000000,1837,550250027003018,8,1309,17,MILWAUKEE & LEON (EB)
43.098137,3B69B3,-89.326231,000000,1837,550250027003032,9,1105,17,MILWAUKEE & WALTER (EB)
43.098601,3B69B3,-89.322445,000000,1837,550250027003002,10,7100,17,EAST TRANSFER POINT
43.053874,3966B0,-89.47553,000000,1838,550250004081021,1,6100,18,WEST TRANSFER POINT
43.053527,3966B0,-89.469568,000000,1838,550250004022005,2,2939,18,TOKAY & BLUEBIRD (EB)
43.053582,3966B0,-89.465952,000000,1838,550250004022005,3,2323,18,TOKAY & SEGOE (EB)
43.053574,3966B0,-89.463706,000000,1838,550250004022003,4,2417,18,TOKAY & WEDGEWOOD (EB)
43.05353,3966B0,-89.458795,000000,1838,550250004022002,5,2161,18,TOKAY & HILLTOP (EB)
43.053522,3966B0,-89.455117,000000,1838,550250004012010,6,2615,18,TOKAY & CHARLES (EB)
43.053332,3966B0,-89.451292,000000,1838,550250004012011,7,2476,18,MIDVALE & TOKAY (SB)
43.049837,3966B0,-89.451287,000000,1838,550250004012014,8,2634,18,MIDVALE & ODANA (SB)
43.045718,3966B0,-89.451351,000000,1838,550250007002003,9,4176,18,MIDVALE & YUMA (SB)
43.042198,3966B0,-89.451286,000000,1838,550250007002008,10,4342,18,MIDVALE & CHEROKEE (SB)
43.038599,3966B0,-89.451354,000000,1838,550250007002005,11,4354,18,MIDVALE & NAKOMA (SB)
43.03272,3966B0,-89.457765,000000,1838,550250006002000,12,4714,18,VERONA FT & RED ARROW (WB)
43.030803,3966B0,-89.456654,000000,1838,550250006002005,13,4500,18,RED ARROW & THURSTON (SB)
43.028841,3966B0,-89.456243,000000,1838,550250006002004,14,4202,18,RED ARROW & JENEWEIN (SB)
43.02679,3966B0,-89.455845,000000,1838,550250006002015,15,4580,18,RED ARROW & PAWNEE (SB)
43.025628,3966B0,-89.45547,000000,1838,550250006002014,16,4856,18,CRESCENT & RED ARROW (WB)
43.024823,3966B0,-89.459435,000000,1838,550250006002003,17,4990,18,CRESCENT & ALLIED (WB)
43.027154,3966B0,-89.459602,000000,1838,550250006002003,28,4791,18,ALLIED & LOVELL (NB)
43.029251,3966B0,-89.459298,000000,1838,550250006002001,29,4849,18,ALLIED & JENEWEIN (NB)
43.031621,3966B0,-89.458948,000000,1838,550250006002002,30,4663,18,ALLIED & THURSTON (NB)
43.033246,3966B0,-89.456844,000000,1838,550250006001012,31,4179,18,VERONA FT & RED ARROW (EB)
43.034058,3966B0,-89.454939,000000,1838,550250006001012,32,4901,18,VERONA FT & MADISON PLZ (EB)
43.035009,3966B0,-89.452535,000000,1838,550250006001013,33,4215,18,BRITTA & HELENE (EB)
43.034561,3966B0,-89.448522,000000,1838,550250006001008,34,4957,18,WHENONA & BELTLINE FT (S) (NB)
43.03442,3966B0,-89.447002,000000,1838,550250006001008,35,4685,18,BELTLINE FT (S) & DANBURY (EB)
43.034349,3966B0,-89.44335,000000,1838,550250014024003,36,4539,18,BELTLINE FT (S) & SEMINOLE (EB)
43.03497,3966B0,-89.435651,000000,1838,550250014024003,37,4873,18,BELTLINE FT (S) & ALHAMBRA (EB)
43.035132,3966B0,-89.433005,000000,1838,550250014021071,38,4139,18,BELTLINE FT (S) & GRANDVIEW (EB)
43.034736,3966B0,-89.428451,000000,1838,550250014021071,39,4377,18,BELTLINE FT (S) & LANDMARK (EB)
43.034909,3966B0,-89.423209,000000,1838,550250014021069,40,4841,18,BELTLINE FT (S) & TODD (EB)
43.034417,3966B0,-89.415027,000000,1838,550250014023007,41,4426,18,COHO & BELTLINE FT (S) (SB)
43.030878,3966B0,-89.414401,000000,1838,550250014023024,42,4739,18,GREENWAY & COHO (EB)
43.031169,3966B0,-89.410895,000000,1838,550250014023021,43,4373,18,GREENWAY & BRYANT (EB)
43.03682,3966B0,-89.405028,000000,1838,550250014012006,44,4845,18,FISH HATCHERY & EMIL (NB)
43.038566,3966B0,-89.403078,000000,1838,550250014012004,45,353,18,BADGER & FISH HATCHERY (EB)
43.038531,3966B0,-89.401256,000000,1838,550250014012003,46,121,18,BADGER & FIEDLER (EB)
43.038513,3966B0,-89.39803,000000,1838,550250014012002,47,173,18,BADGER & CYPRESS (EB)
43.039101,3966B0,-89.394589,000000,1838,550250014013024,48,4100,18,SOUTH TRANSFER POINT
43.074989,B8DB99,-89.382341,000000,1839,550250017051008,1,1787,19,PINCKNEY & MAIN (NB)
43.076045,B8DB99,-89.384707,000000,1839,550250017053007,2,1100,19,MIFFLIN & PINCKNEY (WB)
43.074513,B8DB99,-89.386185,000000,1839,550250017041005,3,1324,19,CARROLL & MIFFLIN (SB)
43.073333,B8DB99,-89.38386,000000,1839,550250017042000,4,1101,19,MAIN & CARROLL (EB)
43.07292,B8DB99,-89.381872,000000,1839,550250017042003,5,1872,19,M L K JR & CCB (SB)
43.071909,B8DB99,-89.382367,000000,1839,550250017042003,6,248,19,WILSON & CARROLL (WB)
43.070796,B8DB99,-89.38391,000000,1839,550250017042004,7,564,19,WILSON & HAMILTON (WB)
43.070985,B8DB99,-89.385498,000000,1839,550250017042010,8,668,19,DOTY & HENRY (WB)
43.07015,B8DB99,-89.387089,000000,1839,550250017042010,9,161,19,BROOM & DOTY (NB)
43.071306,B8DB99,-89.388566,000000,1839,550250017042012,10,965,19,BROOM & WEST WASH (NB)
43.073066,B8DB99,-89.391032,000000,1839,550250017041009,11,593,19,BROOM & DAYTON (NB)
43.074081,B8DB99,-89.392363,000000,1839,550250016031000,12,87,19,BROOM & GORHAM (NB)
43.073342,B8DB99,-89.393873,000000,1839,550250016031002,13,428,19,GORHAM & BASSETT (WB)
43.073302,B8DB99,-89.396115,000000,1839,550250016031004,14,568,19,UNIV AVE & FRANCES (WB)
43.073318,B8DB99,-89.39797,000000,1839,550250011021004,15,670,19,UNIV AVE & LAKE (WB)
43.073367,B8DB99,-89.401463,000000,1839,550250011021002,16,100,19,UNIV AVE & N PARK (WB)
43.073422,B8DB99,-89.403854,000000,1839,550250011021002,17,234,19,UNIV AVE & MILLS (WB)
43.073427,B8DB99,-89.407056,000000,1839,550250011022016,18,178,19,UNIV AVE & ORCHARD (WB)
43.073506,B8DB99,-89.409432,000000,1839,550250011022016,19,160,19,UNIV AVE & RANDALL (WB)
43.073499,B8DB99,-89.41429,000000,1839,550250009021000,20,692,19,UNIV AVE & BREESE (WB)
43.073303,B8DB99,-89.418141,000000,1839,550250009021000,21,2806,19,UNIV AVE & PRINCETON (WB)
43.072783,B8DB99,-89.421882,000000,1839,550250009023000,22,2146,19,UNIV AVE & FOREST (WB)
43.072267,B8DB99,-89.423809,000000,1839,550250009023004,23,2880,19,ALLEN & UNIV AVE (SB)
43.070976,B8DB99,-89.423829,000000,1839,550250009023005,24,2678,19,ALLEN & CHAMBERLAIN (SB)
43.068101,B8DB99,-89.423858,000000,1839,550250009023016,25,2306,19,ALLEN & REGENT (SB)
43.065599,B8DB99,-89.423855,000000,1839,550250009011020,26,2640,19,ALLEN & COMMONWEALTH (SB)
43.064393,B8DB99,-89.425259,000000,1839,550250009011022,27,2180,19,COMMONWEALTH & RUGBY (SB)
43.061991,B8DB99,-89.42633,000000,1839,550250010001022,28,2624,19,COMMONWEALTH & LEONARD (SB)
43.060187,B8DB99,-89.427267,000000,1839,550250010001022,29,2710,19,COMMONWEALTH & GREGORY (SB)
43.058434,B8DB99,-89.427391,000000,1839,550250010001030,30,2480,19,COMMONWEALTH & MONROE (SB)
43.057409,B8DB99,-89.428746,000000,1839,550250010001004,31,2380,19,MONROE & KNICKERBOCKER (WB)
43.056288,B8DB99,-89.430408,000000,1839,550250010002001,32,2132,19,MONROE & PICKFORD (WB)
43.055183,B8DB99,-89.43202,000000,1839,550250010002006,33,2838,19,MONROE & CHAPMAN (WB)
43.054074,B8DB99,-89.433649,000000,1839,550250010002011,34,2914,19,MONROE & WESTERN (WB)
43.052792,B8DB99,-89.43559,000000,1839,550250010002015,35,2112,19,MONROE & GLENWAY (WB)
43.05082,B8DB99,-89.437311,000000,1839,550250007001002,36,4718,19,NAKOMA & SPRING (WB)
43.048108,B8DB99,-89.439125,000000,1839,550250007001008,37,4382,19,NAKOMA & HURON (WB)
43.044112,B8DB99,-89.443696,000000,1839,550250007001013,38,4846,19,NAKOMA & SEMINOLE (WB)
43.041218,B8DB99,-89.447407,000000,1839,550250007002010,39,4346,19,NAKOMA & WABAN (WB)
43.039941,B8DB99,-89.449075,000000,1839,550250007002009,40,4964,19,NAKOMA & WHENONA (WB)
43.038599,B8DB99,-89.451354,000000,1839,550250007002005,41,4354,19,MIDVALE & NAKOMA (SB)
43.027775,B8DB99,-89.46379,000000,1839,550250006003007,70,4967,19,CHALET GDNS & VERONA FT (EB)
43.112847,A7533E,-89.358591,000000,1840,550250021001015,1,5100,20,NORTH TRANSFER POINT
43.114135,A7533E,-89.357806,000000,1840,550250021001015,2,1895,20,ABERG & LOFTSGORDAN RR (EB)
43.118642,A7533E,-89.354854,000000,1840,550250025002007,9,5733,20,PACKERS & SCHLIMGEN (NB)
43.121837,A7533E,-89.353764,000000,1840,550250025002007,10,9381,20,INTERNATIONAL & PACKERS (NB)
43.123952,A7533E,-89.350932,000000,1840,550250025001061,11,9107,20,INTERNATIONAL & ANDERSON (NB)
43.125738,A7533E,-89.349818,000000,1840,550250025001026,12,9493,20,INTERNATIONAL & AMERICAN (NB)
43.127378,A7533E,-89.348976,000000,1840,550250025001026,13,9729,20,INTERNATIONAL & ELDER CARE (NB)
43.129226,A7533E,-89.348354,000000,1840,550250025001007,14,9817,20,INTERNATIONAL & DARWIN (NB)
43.131995,A7533E,-89.347213,000000,1840,550250025001007,15,9503,20,INTERNATIONAL & AIR FRT (NB)
43.137269,A7533E,-89.346458,000000,1840,550250025001007,16,9169,20,AIRPORT & ARRIVALS SIX (NB)
43.131556,A7533E,-89.348533,000000,1840,550250025001028,17,9340,20,INTERNATIONAL & ECON LOT (SB)
43.128598,A7533E,-89.348674,000000,1840,550250025001027,18,9168,20,INTERNATIONAL & DARWIN (SB)
43.127457,A7533E,-89.349215,000000,1840,550250025001027,19,9488,20,INTERNATIONAL & ELDER CARE (SB)
43.125322,A7533E,-89.350103,000000,1840,550250025001060,20,9790,20,INTERNATIONAL & AMERICAN (SB)
43.121969,A7533E,-89.349465,000000,1840,550250025001065,21,9847,20,ANDERSON & PANKRATZ (EB)
43.120142,A7533E,-89.333407,000000,1840,550250025002000,22,9259,20,ANDERSON & HOFFMAN (EB)
43.12005,A7533E,-89.330159,000000,1840,550250025001082,23,9675,20,ANDERSON & WRIGHT (EB)
43.120719,A7533E,-89.326575,000000,1840,550250025001082,24,9201,20,ANDERSON & MADISON COLL (EB)
43.117444,A7533E,-89.32342,000000,1840,550250026011000,28,9551,20,EAST WASH & MAC ARTHUR (EB)
43.118978,A7533E,-89.321043,000000,1840,550250026032045,29,9573,20,EAST WASH & MENDOTA (EB)
43.120918,A7533E,-89.317174,000000,1840,550250026032043,30,9685,20,LIEN & EAST WASH (EB)
43.120907,A7533E,-89.314889,000000,1840,550250026032043,31,9231,20,LIEN & PARKSIDE (EB)
43.121109,A7533E,-89.310874,000000,1840,550250026032043,32,9849,20,LIEN & THIERER (EB)
43.121313,A7533E,-89.307191,000000,1840,550250026032034,33,9719,20,EAGAN & LIEN (NB)
43.125271,A7533E,-89.308828,000000,1840,550250026032037,34,9677,20,EAST TOWNE & EAGAN (EB)
43.126576,A7533E,-89.306961,000000,1840,550250026032024,35,9800,20,E TOWNE RNG & SHELTER (EB)
43.138369,729680,-89.382933,000000,1841,550250023011002,14,5765,21,SCHOOL & NORTHPORT (NB)
43.14089,729680,-89.382876,000000,1841,550250023011002,15,5127,21,SCHOOL & HAVEY (NB)
43.143707,729680,-89.382811,000000,1841,550250024012002,16,5173,21,SCHOOL & FULTON (NB)
43.145959,729680,-89.382706,000000,1841,550250024012002,17,5625,21,SCHOOL & NORTHLAND (NB)
43.145657,729680,-89.38063,000000,1841,550250024012003,18,5797,21,NORTHLAND & JUDY (EB)
43.145047,729680,-89.378245,000000,1841,550250024012012,19,5105,21,NORTHLAND & MANDRAKE (EB)
43.145234,729680,-89.375428,000000,1841,550250024012008,20,5607,21,NORTHLAND & DELAWARE (EB)
43.144974,729680,-89.37392,000000,1841,550250024012008,21,5865,21,DELAWARE & TENNESSEE (EB)
43.144605,729680,-89.370337,000000,1841,550250024011011,22,5847,21,DELAWARE & ESCH (EB)
43.14336,729680,-89.3682,000000,1841,550250024011011,23,5411,21,DELAWARE & DAKOTA (EB)
43.142471,729680,-89.363283,000000,1841,550250024011009,24,5287,21,DELAWARE & N SHERMAN (EB)
43.139293,729680,-89.363298,000000,1841,550250024022006,25,5888,21,N SHERMAN & SUNFIELD (SB)
43.137344,729680,-89.363323,000000,1841,550250024022007,26,5432,21,N SHERMAN & LAKE VW (SB)
43.134798,729680,-89.363067,000000,1841,550250024021016,27,5335,21,TENNYSON & N SHERMAN (EB)
43.134743,729680,-89.360929,000000,1841,550250024021015,28,5993,21,TENNYSON & ELIOT (EB)
43.134606,729680,-89.355765,000000,1841,550250024021020,29,5427,21,TENNYSON & PACKERS (EB)
43.133047,729680,-89.355466,000000,1841,550250024021020,30,5549,21,PACKERS & SCOTT (SB)
43.1302,729680,-89.355625,000000,1841,550250024021019,31,5356,21,LONDONDERRY & PACKERS (WB)
43.129987,729680,-89.358523,000000,1841,550250024021019,32,5306,21,LONDONDERRY & DRYDEN (WB)
43.128761,729680,-89.358674,000000,1841,550250022001002,33,5109,21,NORTHPORT & DRYDEN (EB)
43.12593,729680,-89.355489,000000,1841,550250022001000,34,5320,21,PACKERS & ELKA (SB)
43.123745,729680,-89.35522,000000,1841,550250022001013,35,5228,21,PACKERS & MANLEY (SB)
43.121158,729680,-89.355222,000000,1841,550250022002000,36,5856,21,PACKERS & INTERNATIONAL (SB)
43.118481,729680,-89.355249,000000,1841,550250022002019,37,5420,21,PACKERS & SCHLIMGEN (SB)
43.114268,729680,-89.357264,000000,1841,550250022002019,38,1380,21,ABERG & LOFTSGORDAN RR (WB)
43.112847,729680,-89.358591,000000,1841,550250021001015,39,5100,21,NORTH TRANSFER POINT
43.112847,44BC9B,-89.358591,000000,1842,550250021001015,1,5100,22,NORTH TRANSFER POINT
43.111485,44BC9B,-89.361702,000000,1842,550250021001016,2,1410,22,ROTH & RUSKIN (WB)
43.114017,44BC9B,-89.363678,000000,1842,550250021001016,3,1341,22,N SHERMAN & ABERG (NB)
43.115261,44BC9B,-89.363662,000000,1842,550250022002029,4,5361,22,N SHERMAN & BOYD (NB)
43.119129,44BC9B,-89.363612,000000,1842,550250022002010,5,5199,22,N SHERMAN & SCHLIMGEN (NB)
43.123392,44BC9B,-89.363554,000000,1842,550250022001011,6,5407,22,N SHERMAN & MELROSE (NB)
43.126131,44BC9B,-89.36347,000000,1842,550250022001005,7,5683,22,N SHERMAN & TRAILSWAY (NB)
43.128984,44BC9B,-89.363451,000000,1842,550250022001003,8,5823,22,N SHERMAN & SHERMAN PLZ (NB)
43.130984,44BC9B,-89.363787,000000,1842,550250024022013,9,5366,22,NORTHPORT & N SHERMAN (WB)
43.132579,44BC9B,-89.367369,000000,1842,550250024022015,10,5346,22,NORTHPORT & WARNER PK (WB)
43.133782,44BC9B,-89.373194,000000,1842,550250023011019,11,5142,22,TROY & FORSTER (WB)
43.133815,44BC9B,-89.377623,000000,1842,550250023011020,12,5178,22,TROY & GOODLAND (WB)
43.133808,44BC9B,-89.380586,000000,1842,550250023011020,13,5260,22,TROY & PED XING (WB)
43.133809,44BC9B,-89.383636,000000,1842,550250023011009,14,5796,22,TROY & SCHOOL (WB)
43.133837,44BC9B,-89.386191,000000,1842,550250023021031,15,5342,22,TROY & KARSTENS (WB)
43.133858,44BC9B,-89.389188,000000,1842,550250023021030,16,5536,22,TROY & LERDAHL (WB)
43.133868,44BC9B,-89.393252,000000,1842,550250023021030,17,5950,22,TROY & HARPER (WB)
43.134756,44BC9B,-89.397039,000000,1842,550250023021032,18,5197,22,TROY & NORTH (NB)
43.137606,44BC9B,-89.397757,000000,1842,550250023021032,19,5203,22,GREEN & MEADOW RG (NB)
43.139003,44BC9B,-89.396769,000000,1842,550250023021032,20,5657,22,MURPHY & GREEN (EB)
43.140791,44BC9B,-89.395223,000000,1842,550250023021037,21,5835,22,NORTH & TOUSSAINT (EB)
43.141765,44BC9B,-89.392668,000000,1842,550250023011007,22,5397,22,KNUTSON & NORTHPORT (EB)
43.139364,44BC9B,-89.387245,000000,1842,550250023011007,23,5705,22,NORTHPORT & KENNEDY (EB)
43.138029,44BC9B,-89.383477,000000,1842,550250023011009,24,5421,22,NORTHPORT & SCHOOL (EB)
43.137079,44BC9B,-89.380611,000000,1842,550250023011014,25,5663,22,NORTHPORT & BARBY (EB)
43.135788,44BC9B,-89.376552,000000,1842,550250023011018,26,5815,22,NORTHPORT & GOODLAND (EB)
43.133888,44BC9B,-89.371272,000000,1842,550250023011019,27,5149,22,NORTHPORT & TROY (EB)
43.132194,44BC9B,-89.367356,000000,1842,550250023012022,28,5899,22,NORTHPORT & WARNER PK (EB)
43.130285,44BC9B,-89.363614,000000,1842,550250023012022,29,5162,22,N SHERMAN & NORTHPORT (SB)
43.126353,44BC9B,-89.363707,000000,1842,550250023012000,30,5382,22,N SHERMAN & TRAILSWAY (SB)
43.123167,44BC9B,-89.363757,000000,1842,550250022003000,31,5354,22,N SHERMAN & MELROSE (SB)
43.119129,44BC9B,-89.363834,000000,1842,550250022003005,32,5748,22,N SHERMAN & SCHLIMGEN (SB)
43.115268,44BC9B,-89.363874,000000,1842,550250022003019,33,5296,22,N SHERMAN & BOYD (SB)
43.114182,44BC9B,-89.361655,000000,1842,550250021001016,34,1755,22,ABERG & RUSKIN (EB)
43.112847,44BC9B,-89.358591,000000,1842,550250021001015,35,5100,22,NORTH TRANSFER POINT
43.073333,A29F9A,-89.38386,000000,1844,550250017042000,1,1101,25,MAIN & CARROLL (EB)
43.074989,A29F9A,-89.382341,000000,1844,550250017051008,2,1787,25,PINCKNEY & MAIN (NB)
43.076387,A29F9A,-89.381563,000000,1844,550250017051007,3,1323,25,EAST WASH & WEBSTER (EB)
43.078328,A29F9A,-89.378807,000000,1844,550250017051000,4,1579,25,EAST WASH & BLAIR (EB)
43.085012,A29F9A,-89.369345,000000,1844,550250019004007,5,1199,25,EAST WASH & INGERSOLL (EB)
43.088337,A29F9A,-89.364485,000000,1844,550250019004006,6,1805,25,EAST WASH & DICKINSON (EB)
43.091981,A29F9A,-89.359353,000000,1844,550250019005021,7,1241,25,EAST WASH & FIRST (EB)
43.095914,A29F9A,-89.354117,000000,1844,550250019005009,8,1141,25,EAST WASH & FOURTH (EB)
43.100527,A29F9A,-89.348409,000000,1844,550250020004011,9,1311,25,EAST WASH & MILWAUKEE (EB)
43.102851,A29F9A,-89.344693,000000,1844,550250020004004,10,1269,25,EAST WASH & E JOHNSON (EB)
43.109287,A29F9A,-89.335505,000000,1844,550250026012021,11,9339,25,EAST WASH & MELVIN (EB)
43.118978,A29F9A,-89.321043,000000,1844,550250026032045,12,9573,25,EAST WASH & MENDOTA (EB)
43.128046,A29F9A,-89.307798,000000,1844,550250026032017,13,9163,25,EAST WASH & INDEPENDENCE (EB)
43.148578,A29F9A,-89.286323,000000,1844,550250114022005,14,9147,25,EASTPARK & P&R LOT (NB)
43.152442,A29F9A,-89.286434,000000,1844,550250114022017,15,9595,25,AMERICAN & AMERICAN FAM (NB)
43.154542,A29F9A,-89.285307,000000,1844,550250114022017,16,9803,25,AMERICAN & TANCHO (NB)
43.158124,A29F9A,-89.285783,000000,1844,550250114022025,17,9684,25,AM FAM DR & AMERICAN (WB)
43.156645,A29F9A,-89.287527,000000,1844,550250114022025,18,9900,25,AM FAM DR & HQ BLDG (SB)
43.150716,A29F9A,-89.290122,000000,1844,550250114022035,19,9744,25,BUTTONWOOD & AMERICAN (WB)
43.150234,A29F9A,-89.293475,000000,1844,550250114022035,20,9358,25,BILTMORE & BUTTONWOOD (SB)
43.147841,A29F9A,-89.294222,000000,1844,550250114022035,21,9246,25,BILTMORE & 4702 (SB)
43.146111,A29F9A,-89.292024,000000,1844,550250114022035,22,9766,25,BILTMORE & EASTPARK (SB)
43.143487,A29F9A,-89.295649,000000,1844,550250114022035,23,9527,25,TERRACE & TERRACE (EB)
43.142372,A29F9A,-89.293675,000000,1844,550250114022035,24,9113,25,TERRACE & 5117 (EB)
43.143983,A29F9A,-89.291099,000000,1844,550250114022035,25,9581,25,TERRACE & HERZING UNIV (EB)
43.144748,A29F9A,-89.290275,000000,1844,550250114022035,26,9901,25,TERRACE & UW CLINIC (EB)
43.146117,A29F9A,-89.29141,000000,1844,550250114022035,27,9747,25,TERRACE & EASTPARK (EB)
43.147441,A29F9A,-89.290069,000000,1844,550250114022035,28,9472,25,AMERICAN & EASTPARK (SB)
43.126576,561083,-89.306961,FFFFFF,3727,550250026032024,1,9800,26,E TOWNE RNG & SHELTER (EB)
43.128046,561083,-89.307798,FFFFFF,3727,550250026032017,2,9163,26,EAST WASH & INDEPENDENCE (EB)
43.129771,561083,-89.305312,FFFFFF,3727,550250026032007,3,9321,26,EAST WASH & ZEIER (EB)
43.131721,561083,-89.302529,FFFFFF,3727,550250026032005,4,9475,26,EAST WASH & E SPRINGS (EB)
43.148058,561083,-89.289833,FFFFFF,3727,550250114022033,5,9333,26,AMERICAN & EASTPARK (NB)
43.150716,561083,-89.290122,FFFFFF,3727,550250114022035,6,9744,26,BUTTONWOOD & AMERICAN (WB)
43.150234,561083,-89.293475,FFFFFF,3727,550250114022035,7,9358,26,BILTMORE & BUTTONWOOD (SB)
43.147841,561083,-89.294222,FFFFFF,3727,550250114022035,8,9246,26,BILTMORE & 4702 (SB)
43.146111,561083,-89.292024,FFFFFF,3727,550250114022035,9,9766,26,BILTMORE & EASTPARK (SB)
43.147441,561083,-89.290069,FFFFFF,3727,550250114022035,10,9472,26,AMERICAN & EASTPARK (SB)
43.131596,561083,-89.303431,FFFFFF,3727,550250026023002,11,9520,26,EAST WASH & E SPRINGS (WB)
43.128849,561083,-89.30503,FFFFFF,3727,550250026032017,12,9928,26,EAST TOWNE & ZEIER (WB)
43.127195,561083,-89.307726,FFFFFF,3727,550250026032028,13,9224,26,EAST TOWNE & INDEPENDENCE (WB)
43.126576,561083,-89.306961,FFFFFF,3727,550250026032024,14,9800,26,E TOWNE RNG & SHELTER (EB)
43.074639,7DC0D0,-89.412718,000000,1845,550250011022016,1,47,27,BABCOCK & LINDEN (NB)
43.075039,7DC0D0,-89.41024,000000,1845,550250011022017,2,573,27,LINDEN & HENRY MALL (EB)
43.074985,7DC0D0,-89.406475,000000,1845,550250011022016,3,438,27,LINDEN & CHARTER (EB)
43.074079,7DC0D0,-89.406253,000000,1845,550250011022016,4,706,27,CHARTER & UNIV AVE (SB)
43.072388,7DC0D0,-89.405846,000000,1845,550250011012000,5,490,27,CHARTER & W JOHNSON (SB)
43.072093,7DC0D0,-89.404315,000000,1845,550250011011003,6,741,27,W JOHNSON & MILLS (EB)
43.072027,7DC0D0,-89.400138,000000,1845,550250016064002,29,455,27,W JOHNSON & N PARK (EB)
43.071984,7DC0D0,-89.39718,000000,1845,550250016064000,30,435,27,W JOHNSON & LAKE (EB)
43.071968,7DC0D0,-89.395488,000000,1845,550250016061002,31,941,27,W JOHNSON & FRANCES (EB)
43.072371,7DC0D0,-89.393298,000000,1845,550250016061000,32,555,27,W JOHNSON & BASSETT (EB)
43.073638,7DC0D0,-89.391446,000000,1845,550250017041009,33,839,27,W JOHNSON & BROOM (EB)
43.075933,7DC0D0,-89.388251,000000,1845,550250017041003,34,567,27,W JOHNSON & CARROLL (EB)
43.077407,7DC0D0,-89.38603,000000,1845,550250017053006,35,597,27,E JOHNSON & PINCKNEY (EB)
43.079626,7DC0D0,-89.382881,000000,1845,550250017052005,36,1227,27,E JOHNSON & HANCOCK (EB)
43.080788,7DC0D0,-89.381307,000000,1845,550250018022007,37,1831,27,E JOHNSON & BLAIR (EB)
43.081772,7DC0D0,-89.379814,000000,1845,550250018022007,38,1393,27,E JOHNSON & BLOUNT (EB)
43.082937,7DC0D0,-89.378175,000000,1845,550250018022008,39,1121,27,E JOHNSON & LIVINGSTON (EB)
43.084322,7DC0D0,-89.376284,000000,1845,550250018041020,40,1159,27,E JOHNSON & PATERSON (EB)
43.085591,7DC0D0,-89.374529,000000,1845,550250018041019,41,1187,27,E JOHNSON & BREARLY (EB)
43.086848,7DC0D0,-89.372727,000000,1845,550250018041013,42,1205,27,E JOHNSON & INGERSOLL (EB)
43.088117,7DC0D0,-89.370905,000000,1845,550250018041012,43,1443,27,E JOHNSON & FEW (EB)
43.089625,7DC0D0,-89.368783,000000,1845,550250018041007,44,1325,27,E JOHNSON & BALDWIN (EB)
43.091733,7DC0D0,-89.365766,000000,1845,550250018041002,45,1595,27,E JOHNSON & THORNTON (EB)
43.093124,7DC0D0,-89.363646,000000,1845,550250018042016,46,1333,27,E JOHNSON & FORDEM (EB)
43.094346,7DC0D0,-89.361754,000000,1845,550250021004012,47,1843,27,E JOHNSON & FIRST (EB)
43.107064,7DC0D0,-89.354439,000000,1845,550250021001008,55,1427,27,PACKERS & COMMERCIAL (NB)
43.114268,7DC0D0,-89.357264,000000,1845,550250022002019,56,1380,27,ABERG & LOFTSGORDAN RR (WB)
43.112847,7DC0D0,-89.358591,000000,1845,550250021001015,57,5100,27,NORTH TRANSFER POINT
43.073971,00B6D1,-89.433665,000000,1846,550250032001009,16,2131,28,U BAY & UNIV AVE (NB)
43.078181,00B6D1,-89.433241,000000,1846,550250032001009,17,2473,28,HIGHLAND & WAISMAN CTR (NB)
43.078504,00B6D1,-89.430495,000000,1846,550250032001008,18,2349,28,HIGHLAND & MARSH (EB)
43.076973,00B6D1,-89.428672,000000,1846,550250032001012,19,2091,28,OBSERVATORY & HIGHLAND (EB)
43.076472,00B6D1,-89.424517,000000,1846,550250011022008,20,2007,28,OBSERVATORY & WALNUT (EB)
43.0764,00B6D1,-89.419931,000000,1846,550250011022003,21,2267,28,OBSERVATORY & NATATORIUM (EB)
43.076391,00B6D1,-89.416264,000000,1846,550250011022003,22,2195,28,OBSERVATORY & ELM (EB)
43.076355,00B6D1,-89.41303,000000,1846,550250011022004,23,2145,28,OBSERVATORY & BABCOCK (EB)
43.07537,00B6D1,-89.412845,000000,1846,550250011022004,24,298,28,BABCOCK & LINDEN (SB)
43.075039,00B6D1,-89.41024,000000,1846,550250011022017,25,573,28,LINDEN & HENRY MALL (EB)
43.074985,00B6D1,-89.406475,000000,1846,550250011022016,26,438,28,LINDEN & CHARTER (EB)
43.074079,00B6D1,-89.406253,000000,1846,550250011022016,27,706,28,CHARTER & UNIV AVE (SB)
43.072388,00B6D1,-89.405846,000000,1846,550250011012000,28,490,28,CHARTER & W JOHNSON (SB)
43.072093,00B6D1,-89.404315,000000,1846,550250011011003,29,741,28,W JOHNSON & MILLS (EB)
43.072027,00B6D1,-89.400138,000000,1846,550250016064002,30,455,28,W JOHNSON & N PARK (EB)
43.071984,00B6D1,-89.39718,000000,1846,550250016064000,31,435,28,W JOHNSON & LAKE (EB)
43.071968,00B6D1,-89.395488,000000,1846,550250016061002,32,941,28,W JOHNSON & FRANCES (EB)
43.072371,00B6D1,-89.393298,000000,1846,550250016061000,33,555,28,W JOHNSON & BASSETT (EB)
43.073638,00B6D1,-89.391446,000000,1846,550250017041009,34,839,28,W JOHNSON & BROOM (EB)
43.075933,00B6D1,-89.388251,000000,1846,550250017041003,35,567,28,W JOHNSON & CARROLL (EB)
43.077407,00B6D1,-89.38603,000000,1846,550250017053006,36,597,28,E JOHNSON & PINCKNEY (EB)
43.079626,00B6D1,-89.382881,000000,1846,550250017052005,37,1227,28,E JOHNSON & HANCOCK (EB)
43.080788,00B6D1,-89.381307,000000,1846,550250018022007,38,1831,28,E JOHNSON & BLAIR (EB)
43.081772,00B6D1,-89.379814,000000,1846,550250018022007,39,1393,28,E JOHNSON & BLOUNT (EB)
43.082937,00B6D1,-89.378175,000000,1846,550250018022008,40,1121,28,E JOHNSON & LIVINGSTON (EB)
43.084322,00B6D1,-89.376284,000000,1846,550250018041020,41,1159,28,E JOHNSON & PATERSON (EB)
43.085591,00B6D1,-89.374529,000000,1846,550250018041019,42,1187,28,E JOHNSON & BREARLY (EB)
43.086848,00B6D1,-89.372727,000000,1846,550250018041013,43,1205,28,E JOHNSON & INGERSOLL (EB)
43.088117,00B6D1,-89.370905,000000,1846,550250018041012,44,1443,28,E JOHNSON & FEW (EB)
43.089625,00B6D1,-89.368783,000000,1846,550250018041007,45,1325,28,E JOHNSON & BALDWIN (EB)
43.091733,00B6D1,-89.365766,000000,1846,550250018041002,46,1595,28,E JOHNSON & THORNTON (EB)
43.093514,00B6D1,-89.36356,000000,1846,550250021004007,47,1707,28,FORDEM & E JOHNSON (NB)
43.096916,00B6D1,-89.363693,000000,1846,550250021004007,48,1177,28,FORDEM & LAKEWOOD (NB)
43.101039,00B6D1,-89.363946,000000,1846,550250021004007,49,1379,28,FORDEM & MC GUIRE (NB)
43.103622,00B6D1,-89.363897,000000,1846,550250021004008,55,1717,28,N SHERMAN & FORDEM (NB)
43.106605,00B6D1,-89.363886,000000,1846,550250021004010,56,1923,28,N SHERMAN & COMMERCIAL (NB)
43.109372,00B6D1,-89.363835,000000,1846,550250021001019,57,1715,28,N SHERMAN & OXFORD (NB)
43.111349,00B6D1,-89.363772,000000,1846,550250021001018,58,1161,28,N SHERMAN & ROTH (NB)
43.111376,00B6D1,-89.36166,000000,1846,550250021001018,59,1123,28,ROTH & RUSKIN (EB)
43.112847,00B6D1,-89.358591,000000,1846,550250021001015,60,5100,28,NORTH TRANSFER POINT
43.073337,2398A4,-89.413257,000000,1847,550250011012009,1,133,29,UNIV AVE & BREESE (EB)
43.073266,2398A4,-89.411092,000000,1847,550250011012003,2,809,29,CAMPUS & BABCOCK RR (EB)
43.072094,2398A4,-89.406012,000000,1847,550250011012006,3,581,29,W JOHNSON & CHARTER (EB)
43.072093,2398A4,-89.404315,000000,1847,550250011011003,4,741,29,W JOHNSON & MILLS (EB)
43.072027,2398A4,-89.400138,000000,1847,550250016064002,5,455,29,W JOHNSON & N PARK (EB)
43.073034,2398A4,-89.397332,000000,1847,550250016032001,6,765,29,LAKE & UNIV AVE (NB)
43.074887,2398A4,-89.396803,000000,1847,550250016031005,7,265,29,STATE & LAKE (EB)
43.074809,2398A4,-89.393711,000000,1847,550250016031003,8,505,29,STATE & GILMAN (EB)
43.074723,2398A4,-89.392031,000000,1847,550250016031001,9,549,29,STATE & GORHAM (EB)
43.074686,2398A4,-89.390278,000000,1847,550250016031000,10,803,29,STATE & W JOHNSON (EB)
43.074713,2398A4,-89.388266,000000,1847,550250017041004,11,883,29,STATE & FAIRCHILD (EB)
43.074668,2398A4,-89.386819,000000,1847,550250017041005,12,1663,29,STATE & MIFFLIN (EB)
43.073333,2398A4,-89.38386,000000,1847,550250017042000,13,1101,29,MAIN & CARROLL (EB)
43.074989,2398A4,-89.382341,000000,1847,550250017051008,14,1787,29,PINCKNEY & MAIN (NB)
43.076387,2398A4,-89.381563,000000,1847,550250017051007,15,1323,29,EAST WASH & WEBSTER (EB)
43.085012,2398A4,-89.369345,000000,1847,550250019004007,16,1199,29,EAST WASH & INGERSOLL (EB)
43.088337,2398A4,-89.364485,000000,1847,550250019004006,17,1805,29,EAST WASH & DICKINSON (EB)
43.089788,2398A4,-89.362438,000000,1847,550250019004001,18,1513,29,EAST WASH & YAHARA (EB)
43.093235,2398A4,-89.360634,000000,1847,550250021004018,19,1847,29,FIRST & MIFFLIN (NB)
43.107064,2398A4,-89.354439,000000,1847,550250021001008,20,1427,29,PACKERS & COMMERCIAL (NB)
43.121847,2398A4,-89.354913,000000,1847,550250025001060,21,5143,29,PACKERS & INTERNATIONAL (NB)
43.129175,2398A4,-89.362191,000000,1847,550250022001003,22,5256,29,SHERMAN PLZ DR & P&R (WB)
43.131023,2398A4,-89.363409,000000,1847,550250024021026,23,5741,29,N SHERMAN & NORTHPORT (NB)
43.132613,2398A4,-89.363354,000000,1847,550250024021016,24,5461,29,N SHERMAN & THACKERAY (NB)
43.135081,2398A4,-89.36328,000000,1847,550250024021011,25,5753,29,N SHERMAN & TENNYSON (NB)
43.137204,2398A4,-89.363141,000000,1847,550250024021011,26,5889,29,N SHERMAN & LAKE VW (NB)
43.140301,2398A4,-89.363067,000000,1847,550250024021010,27,5385,29,N SHERMAN & MAYFIELD (NB)
43.143071,2398A4,-89.362948,000000,1847,550250024021005,28,5253,29,N SHERMAN & DELAWARE (NB)
43.147431,2398A4,-89.363252,000000,1847,550250112004088,29,5230,29,WHEELER & N SHERMAN (WB)
43.147799,2398A4,-89.367481,000000,1847,550250112004074,30,5484,29,WHEELER & GOLF VIEW (WB)
43.148322,2398A4,-89.368759,000000,1847,550250112004074,31,5874,29,WHEELER & WHEELER (WB)
43.148969,2398A4,-89.372116,000000,1847,550250112004074,32,5295,29,COMANCHE & GOLF COURSE (NB)
43.152667,2398A4,-89.373812,000000,1847,550250112004055,33,5628,29,MENOMONIE & COMANCHE (WB)
43.152933,2398A4,-89.378204,000000,1847,550250112004056,34,5126,29,MENOMONIE & CHINOOK (WB)
43.155235,2398A4,-89.374808,000000,1847,550250112004051,35,5107,29,BURNING WD & ARAPAHOE (EB)
43.158249,2398A4,-89.373843,000000,1847,550250112004050,36,5473,29,MANITOWISH & BURNING WD (EB)
43.156496,2398A4,-89.372214,000000,1847,550250112004050,37,5214,29,MANITOWISH & COMANCHE (SB)
43.149078,2398A4,-89.372349,000000,1847,550250112004049,38,5540,29,COMANCHE & GOLF COURSE (SB)
43.148331,2398A4,-89.372367,000000,1847,550250112004049,39,5610,29,WHEELER & COMANCHE (WB)
43.148335,2398A4,-89.375415,000000,1847,550250112004049,40,5702,29,WHEELER & DELAWARE (WB)
43.148402,2398A4,-89.379601,000000,1847,550250112004054,41,5982,29,WHEELER & ILENE (WB)
43.14587,2398A4,-89.382855,000000,1847,550250024013001,42,5370,29,SCHOOL & NORTHLAND (SB)
43.143682,2398A4,-89.382915,000000,1847,550250024013015,43,5620,29,SCHOOL & FULTON (SB)
43.141173,2398A4,-89.383019,000000,1847,550250024013016,44,5814,29,SCHOOL & HAVEY (SB)
43.098601,DA8A39,-89.322445,000000,1848,550250027003002,1,7100,30,EAST TRANSFER POINT
43.098159,DA8A39,-89.318457,000000,1848,550250027001005,2,7169,30,MILWAUKEE & DEMPSEY (EB)
43.109169,DA8A39,-89.312384,000000,1848,550250026032073,9,9753,30,NAKOOSA & WALMART (EB)
43.109958,DA8A39,-89.310019,000000,1848,550250026032073,10,9388,30,WALSH & NAKOOSA (SB)
43.106901,DA8A39,-89.310088,000000,1848,550250026032073,11,9778,30,WALSH & COMMERCIAL (SB)
43.106648,DA8A39,-89.305052,000000,1848,550250026032072,12,9591,30,COMMERCIAL & REDLAND (EB)
43.106947,DA8A39,-89.300502,000000,1848,550250026032054,13,9243,30,N THOMPSON & COMMERCIAL (NB)
43.108613,DA8A39,-89.298854,000000,1848,550250026032055,14,9439,30,N THOMPSON & JANA (NB)
43.109521,DA8A39,-89.29671,000000,1848,550250026032067,15,9137,30,N THOMPSON & MESTA (NB)
43.112074,DA8A39,-89.29613,000000,1848,550250026031032,16,9745,30,N THOMPSON & GOLDEN LF (NB)
43.114157,DA8A39,-89.296,000000,1848,550250026031033,17,9951,30,N THOMPSON & SYCAMORE (NB)
43.116115,DA8A39,-89.296404,000000,1848,550250026031027,18,9645,30,N THOMPSON & OAK VALLEY (NB)
43.118986,DA8A39,-89.297711,000000,1848,550250026031027,19,9291,30,N THOMPSON & WAYWOOD (NB)
43.121169,DA8A39,-89.300506,000000,1848,550250026032035,20,9432,30,LIEN & ZEIER (WB)
43.121313,DA8A39,-89.307191,000000,1848,550250026032034,21,9719,30,EAGAN & LIEN (NB)
43.125271,DA8A39,-89.308828,000000,1848,550250026032037,22,9677,30,EAST TOWNE & EAGAN (EB)
43.126576,DA8A39,-89.306961,000000,1848,550250026032024,23,9800,30,E TOWNE RNG & SHELTER (EB)
43.098601,3280A9,-89.322445,000000,1850,550250027003002,1,7100,32,EAST TRANSFER POINT
43.098159,3280A9,-89.318457,000000,1850,550250027001005,3,7169,32,MILWAUKEE & DEMPSEY (EB)
43.098285,3280A9,-89.313595,000000,1850,550250030014001,4,7167,32,MILWAUKEE & WALBRIDGE (EB)
43.098663,3280A9,-89.307331,000000,1850,550250030015002,5,7209,32,MILWAUKEE & PORTLAND (EB)
43.098726,3280A9,-89.304818,000000,1850,550250030015002,6,7633,32,MILWAUKEE & MILO (EB)
43.098773,3280A9,-89.300405,000000,1850,550250030015001,7,7175,32,MILWAUKEE & SWANTON (EB)
43.098851,3280A9,-89.296724,000000,1850,550250030011004,8,7381,32,MILWAUKEE & DAFFODIL (EB)
43.098908,3280A9,-89.290621,000000,1850,550250030011003,9,7201,32,MILWAUKEE & ANDREW (EB)
43.097353,3280A9,-89.289243,000000,1850,550250030011003,10,7622,32,SEVERN & ST ALBANS (WB)
43.095451,3280A9,-89.291052,000000,1850,550250030011007,11,7234,32,MERRYTURN & BROOKSHIRE (SB)
43.091961,3280A9,-89.291128,000000,1850,550250030012003,12,7214,32,MERRYTURN & RETANA (SB)
43.090613,3280A9,-89.292026,000000,1850,550250030012003,13,7762,32,MERRYTURN & SPICEBUSH (SB)
43.088771,3280A9,-89.293117,000000,1850,550250030012003,14,7154,32,MERRYTURN & KEVINS (SB)
43.08705,3280A9,-89.293062,000000,1850,550250030012006,15,7590,32,MERRYTURN & QUEENSBRIDGE (SB)
43.085868,3280A9,-89.294271,000000,1850,550250030012011,16,7830,32,INWOOD & OPEN WOOD (SB)
43.084601,3280A9,-89.294083,000000,1850,550250030012011,17,7820,32,INWOOD & COTTAGE GR (SB)
43.084357,3280A9,-89.289516,000000,1850,550250031002001,18,7991,32,COTTAGE GR & ELLEN (EB)
43.082987,3280A9,-89.286087,000000,1850,550250031002003,19,7906,32,S THOMPSON & DROSTER (SB)
43.079632,3280A9,-89.283531,000000,1850,550250031002003,20,7680,32,S THOMPSON & 1306 (SB)
43.076891,3280A9,-89.282795,000000,1850,550250031002004,21,7840,32,S THOMPSON & GRAFTON (SB)
43.07438,3280A9,-89.28299,000000,1850,550250031002005,22,7362,32,S THOMPSON & DONAUER (SB)
43.0736,3280A9,-89.283231,000000,1850,550250031002005,23,7610,32,BUCKEYE & S THOMPSON (WB)
43.073547,3280A9,-89.288171,000000,1850,550250031002010,24,7984,32,BUCKEYE & ELLEN (WB)
43.073679,3280A9,-89.291428,000000,1850,550250031002011,25,7213,32,VONDRON & BUCKEYE (NB)
43.075181,3280A9,-89.291426,000000,1850,550250031002011,26,7880,32,VONDRON & MONTGOMERY (NB)
43.077162,3280A9,-89.291802,000000,1850,550250031004014,27,7766,32,STARKER & VONDRON (WB)
43.077162,3280A9,-89.295598,000000,1850,550250031004014,28,7916,32,STARKER & WOODVALE (WB)
43.077001,3280A9,-89.299849,000000,1850,550250031004012,29,7188,32,STARKER & ANGEL CREST (WB)
43.07693,3280A9,-89.30312,000000,1850,550250031004012,30,7180,32,STARKER & ACEWOOD (WB)
43.077626,3280A9,-89.303158,000000,1850,550250031004012,31,7933,32,ACEWOOD & ACADEMY (NB)
43.080911,3280A9,-89.302901,000000,1850,550250031001009,32,7181,32,ACEWOOD & LEO (NB)
43.0828,3280A9,-89.302912,000000,1850,550250031001002,33,7125,32,ACEWOOD & FERRIS (NB)
43.08453,3280A9,-89.30297,000000,1850,550250030013011,34,7925,32,ACEWOOD & COTTAGE GR (NB)
43.086194,3280A9,-89.302991,000000,1850,550250030013010,35,7313,32,ACEWOOD & MARTHA (NB)
43.088437,3280A9,-89.302698,000000,1850,550250030013006,36,7369,32,ACEWOOD & GOLDFINCH (NB)
43.091784,3280A9,-89.302181,000000,1850,550250030013003,37,7969,32,ACEWOOD & ONYX (NB)
43.09486,3280A9,-89.302153,000000,1850,550250030015006,38,7943,32,ACEWOOD & AGATE (NB)
43.09794,3280A9,-89.303277,000000,1850,550250030015001,39,7121,32,CRYSTAL & DIAMOND (NB)
43.098881,3280A9,-89.30446,000000,1850,550250030022010,40,7190,32,MILWAUKEE & MILO (WB)
43.098853,3280A9,-89.305952,000000,1850,550250030022007,41,7948,32,MILWAUKEE & KARMENTA (WB)
43.09878,3280A9,-89.307376,000000,1850,550250030022007,42,7846,32,MILWAUKEE & PORTLAND (WB)
43.098705,3280A9,-89.310032,000000,1850,550250030022007,43,7832,32,MILWAUKEE & WITTWER (WB)
43.098533,3280A9,-89.314063,000000,1850,550250030022017,44,7734,32,MILWAUKEE & WALBRIDGE (WB)
43.098329,3280A9,-89.317814,000000,1850,550250027003041,45,7398,32,MILWAUKEE & DEMPSEY (WB)
43.098601,3280A9,-89.322445,000000,1850,550250027003002,46,7100,32,EAST TRANSFER POINT
43.10255,00A69B,-89.311316,000000,1851,550250030022013,4,9518,33,WITTWER & WALBRIDGE (SB)
43.098782,00A69B,-89.310372,000000,1851,550250030022013,5,9612,33,WITTWER & MILWAUKEE (SB)
43.098533,00A69B,-89.314063,000000,1851,550250030022017,6,7734,33,MILWAUKEE & WALBRIDGE (WB)
43.098329,00A69B,-89.317814,000000,1851,550250027003041,7,7398,33,MILWAUKEE & DEMPSEY (WB)
43.098601,00A69B,-89.322445,000000,1851,550250027003002,8,7100,33,EAST TRANSFER POINT
43.098601,976C25,-89.322445,000000,1852,550250027003002,1,7100,34,EAST TRANSFER POINT
43.098287,976C25,-89.326946,000000,1852,550250027003012,2,1886,34,MILWAUKEE & WALTER (WB)
43.098618,976C25,-89.329599,000000,1852,550250027003012,3,1206,34,MILWAUKEE & LEON (WB)
43.100058,976C25,-89.331816,000000,1852,550250020002008,4,1555,34,FAIR OAKS & MILWAUKEE (NB)
43.101598,976C25,-89.330925,000000,1852,550250020002008,5,1873,34,FAIR OAKS & CHICAGO (NB)
43.107129,976C25,-89.330507,000000,1852,550250026012001,6,9203,34,FAIR OAKS & COMMERCIAL (NB)
43.1105,976C25,-89.330448,000000,1852,550250026012011,7,9693,34,FAIR OAKS & LEXINGTON (NB)
43.112642,976C25,-89.330398,000000,1852,550250026011012,8,9111,34,FAIR OAKS & EAST WASH (NB)
43.113923,976C25,-89.330523,000000,1852,550250025001083,9,9405,34,WRIGHT & CARPENTER (NB)
43.117277,976C25,-89.330457,000000,1852,550250025001082,10,9171,34,WRIGHT & STRAUBEL (NB)
43.121035,976C25,-89.330281,000000,1852,550250025001077,11,9101,34,WRIGHT & MADISON COLL (NB)
43.125664,976C25,-89.329772,000000,1852,550250025001075,12,9725,34,KINSMAN & WRIGHT (EB)
43.125594,976C25,-89.327209,000000,1852,550250025001075,13,9787,34,KINSMAN & STOUGHTON (EB)
43.121047,976C25,-89.324493,000000,1852,550250026022033,14,9237,34,STOUGHTON FT & STOUGHTON (EB)
43.12288,976C25,-89.324673,000000,1852,550250026022033,15,9175,34,STOUGHTON FT & ORIN (NB)
43.125453,976C25,-89.32304,000000,1852,550250026022021,16,9373,34,BARTILLON & KINSMAN (NB)
43.125714,976C25,-89.325629,000000,1852,550250025001014,17,9918,34,KINSMAN & STOUGHTON (WB)
43.125554,976C25,-89.330307,000000,1852,550250025001072,18,9364,34,WRIGHT & KINSMAN (SB)
43.121259,976C25,-89.330514,000000,1852,550250025001080,19,9100,34,WRIGHT & MADISON COLL (SB)
43.117203,976C25,-89.330632,000000,1852,550250025002000,20,9642,34,WRIGHT & STRAUBEL (SB)
43.113802,976C25,-89.330741,000000,1852,550250025002001,21,9378,34,WRIGHT & CARPENTER (SB)
43.112371,976C25,-89.330515,000000,1852,550250026012013,22,9564,34,FAIR OAKS & EAST WASH (SB)
43.110813,976C25,-89.330622,000000,1852,550250026012013,23,9802,34,FAIR OAKS & LEXINGTON (SB)
43.10717,976C25,-89.330686,000000,1852,550250026012021,24,9288,34,FAIR OAKS & COMMERCIAL (SB)
43.101735,976C25,-89.33104,000000,1852,550250020002004,25,1420,34,FAIR OAKS & CHICAGO (SB)
43.099378,976C25,-89.331504,000000,1852,550250027003019,26,1751,34,MILWAUKEE & FAIR OAKS (EB)
43.098284,976C25,-89.329172,000000,1852,550250027003018,27,1309,34,MILWAUKEE & LEON (EB)
43.098137,976C25,-89.326231,000000,1852,550250027003032,28,1105,34,MILWAUKEE & WALTER (EB)
43.098601,976C25,-89.322445,000000,1852,550250027003002,29,7100,34,EAST TRANSFER POINT
43.126576,4D5613,-89.306961,000000,3728,550250026032024,1,9800,36,E TOWNE RNG & SHELTER (EB)
43.127454,4D5613,-89.307105,000000,3728,550250026032026,2,9783,36,EAST TOWNE & INDEPENDENCE (EB)
43.12915,4D5613,-89.304264,000000,3728,550250026032008,3,9391,36,EAST TOWNE & ZEIER (EB)
43.130674,4D5613,-89.30184,000000,3728,550250026032013,4,9351,36,EAST TOWNE & E SPRINGS (EB)
43.131979,4D5613,-89.297718,000000,3728,550250026032018,5,9701,36,HI CROSSING & E SPRINGS (EB)
43.136249,4D5613,-89.290783,000000,3728,550250114021034,6,9577,36,HI CROSSING & CROSSROADS (EB)
43.138414,4D5613,-89.289148,000000,3728,550250114021034,7,9131,36,CITY VIEW & HI CROSSING (EB)
43.135601,4D5613,-89.288004,000000,3728,550250114021034,8,9826,36,CITY VIEW & BURKE (SB)
43.133497,4D5613,-89.287946,000000,3728,550250114021034,9,9498,36,CITY VIEW & HOLBURN (SB)
43.132638,4D5613,-89.288096,000000,3728,550250114021034,10,9950,36,WALL & CITY VIEW (WB)
43.132354,4D5613,-89.29037,000000,3728,550250114021034,11,9615,36,CROSSROADS & WALL (NB)
43.134359,4D5613,-89.290144,000000,3728,550250114021034,12,9349,36,CROSSROADS & 2801 (NB)
43.135936,4D5613,-89.291389,000000,3728,550250114021035,13,9264,36,HI CROSSING & CROSSROADS (WB)
43.131485,4D5613,-89.29765,000000,3728,550250026032013,14,9140,36,E SPRINGS & HI CROSSING (SB)
43.12963,4D5613,-89.294922,000000,3728,550250026032013,15,9310,36,E SPRINGS & PETSMART (SB)
43.127908,4D5613,-89.293555,000000,3728,550250026032013,16,9620,36,E SPRINGS & MENARDS (WB)
43.125358,4D5613,-89.299739,000000,3728,550250026032019,17,9860,36,E SPRINGS & ZEIER (WB)
43.126969,4D5613,-89.301651,000000,3728,550250026032011,18,9917,36,ZEIER & TOYS-R-US EAST (NB)
43.128849,4D5613,-89.30503,000000,3728,550250026032017,19,9928,36,EAST TOWNE & ZEIER (WB)
43.127195,4D5613,-89.307726,000000,3728,550250026032028,20,9224,36,EAST TOWNE & INDEPENDENCE (WB)
43.126576,4D5613,-89.306961,000000,3728,550250026032024,21,9800,36,E TOWNE RNG & SHELTER (EB)
43.073333,CB6B77,-89.38386,000000,1853,550250017042000,27,1101,37,MAIN & CARROLL (EB)
43.074989,CB6B77,-89.382341,000000,1853,550250017051008,28,1787,37,PINCKNEY & MAIN (NB)
43.076387,CB6B77,-89.381563,000000,1853,550250017051007,29,1323,37,EAST WASH & WEBSTER (EB)
43.078328,CB6B77,-89.378807,000000,1853,550250017051000,30,1579,37,EAST WASH & BLAIR (EB)
43.079614,CB6B77,-89.376965,000000,1853,550250019003023,31,1453,37,EAST WASH & BLOUNT (EB)
43.08238,CB6B77,-89.373012,000000,1853,550250019003009,32,1565,37,EAST WASH & PATERSON (EB)
43.085012,CB6B77,-89.369345,000000,1853,550250019004007,34,1199,37,EAST WASH & INGERSOLL (EB)
43.087367,CB6B77,-89.365943,000000,1853,550250019004006,35,1883,37,EAST WASH & BALDWIN (EB)
43.088337,CB6B77,-89.364485,000000,1853,550250019004006,36,1805,37,EAST WASH & DICKINSON (EB)
43.089788,CB6B77,-89.362438,000000,1853,550250019004001,37,1513,37,EAST WASH & YAHARA (EB)
43.091981,CB6B77,-89.359353,000000,1853,550250019005021,38,1241,37,EAST WASH & FIRST (EB)
43.091183,CB6B77,-89.358005,000000,1853,550250019005019,39,1372,37,FIRST & MAIN (SB)
43.090406,CB6B77,-89.356378,000000,1853,550250019001007,40,1901,37,WINNEBAGO & FIRST (NB)
43.091726,CB6B77,-89.355363,000000,1853,550250019001007,41,1753,37,WINNEBAGO & ATWOOD (NB)
43.092493,CB6B77,-89.352818,000000,1853,550250019001000,42,1961,37,ATWOOD & RUSK (EB)
43.092613,CB6B77,-89.350783,000000,1853,550250020003015,43,1643,37,EASTWOOD & DIVISION (EB)
43.093344,CB6B77,-89.34866,000000,1853,550250020003014,44,1887,37,ATWOOD & EVERGREEN (EB)
43.093771,CB6B77,-89.346728,000000,1853,550250020003012,45,1391,37,ATWOOD & OHIO (EB)
43.093902,CB6B77,-89.34524,000000,1853,550250020003012,46,1211,37,ATWOOD & HUDSON (EB)
43.093851,CB6B77,-89.342317,000000,1853,550250020003010,47,1127,37,ATWOOD & MARQUETTE (EB)
43.091657,CB6B77,-89.336,000000,1853,550250020003001,48,1905,37,ATWOOD & LAKELAND (EB)
43.089232,CB6B77,-89.329345,000000,1853,550250027002017,49,7888,37,ATWOOD & WALTER (SB)
43.087605,CB6B77,-89.327416,000000,1853,550250027002017,50,7296,37,ATWOOD & MARGARET (SB)
43.086239,CB6B77,-89.326214,000000,1853,550250103001000,51,7182,37,ATWOOD & OLBRICH (SB)
43.08341,CB6B77,-89.325035,000000,1853,550250103001001,52,7834,37,ATWOOD & COTTAGE GR (SB)
43.079693,CB6B77,-89.323633,000000,1853,550250028002000,53,7131,37,BUCKEYE & MONONA (EB)
43.077016,CB6B77,-89.320194,000000,1853,550250028002003,54,7827,37,BUCKEYE & DAVIES (EB)
43.075289,CB6B77,-89.317974,000000,1853,550250028002003,55,7559,37,BUCKEYE & LAKEVIEW (EB)
43.073885,CB6B77,-89.315432,000000,1853,550250028002009,56,7127,37,BUCKEYE & SPAANEM (EB)
43.073729,CB6B77,-89.313901,000000,1853,550250028002011,57,7247,37,BUCKEYE & TURNER (EB)
43.073493,CB6B77,-89.311599,000000,1853,550250028002013,58,7689,37,BUCKEYE & CAMDEN (EB)
43.073097,CB6B77,-89.308054,000000,1853,550250031003019,59,7235,37,BUCKEYE & STOUGHTON FT (EB)
43.071458,CB6B77,-89.308406,000000,1853,550250031003019,60,7168,37,STOUGHTON FT & DEAN EAST (WB)
43.066646,CB6B77,-89.309025,000000,1853,550250031003019,61,7914,37,STOUGHTON FT & HELGESEN (SB)
43.062733,CB6B77,-89.308895,000000,1853,550250031003019,62,7340,37,STOUGHTON FT & PFLAUM (SB)
43.061196,CB6B77,-89.310002,000000,1853,550250029002001,63,7384,37,STOUGHTON FT & PFLAUM (SB)
43.073167,8D89B3,-89.467124,000000,1854,550250003004001,1,2282,38,SHEBOYGAN & WHITNEY (WB)
43.074639,8D89B3,-89.464422,000000,1854,550250003001003,2,2513,38,OLD MIDDLETON & EAU CLAIRE (EB)
43.075173,8D89B3,-89.456248,000000,1854,550250003001002,3,2923,38,UNIV AVE & SEGOE (EB)
43.075163,8D89B3,-89.450398,000000,1854,550250008003002,4,2191,38,UNIV AVE & MIDVALE (EB)
43.075172,8D89B3,-89.447094,000000,1854,550250008003000,5,2755,38,UNIV AVE & BLACKHAWK (EB)
43.075113,8D89B3,-89.443898,000000,1854,550250008001005,6,2595,38,UNIV AVE & SHOREWOOD (EB)
43.075127,8D89B3,-89.441055,000000,1854,550250008001002,7,2715,38,UNIV AVE & SCHMITT (EB)
43.074633,8D89B3,-89.438481,000000,1854,550250008001001,8,2945,38,UNIV AVE & RIDGE (EB)
43.073971,8D89B3,-89.433665,000000,1854,550250032001009,9,2131,38,U BAY & UNIV AVE (NB)
43.078181,8D89B3,-89.433241,000000,1854,550250032001009,10,2473,38,HIGHLAND & WAISMAN CTR (NB)
43.078504,8D89B3,-89.430495,000000,1854,550250032001008,11,2349,38,HIGHLAND & MARSH (EB)
43.076973,8D89B3,-89.428672,000000,1854,550250032001012,12,2091,38,OBSERVATORY & HIGHLAND (EB)
43.076472,8D89B3,-89.424517,000000,1854,550250011022008,13,2007,38,OBSERVATORY & WALNUT (EB)
43.0764,8D89B3,-89.419931,000000,1854,550250011022003,14,2267,38,OBSERVATORY & NATATORIUM (EB)
43.076391,8D89B3,-89.416264,000000,1854,550250011022003,15,2195,38,OBSERVATORY & ELM (EB)
43.076355,8D89B3,-89.41303,000000,1854,550250011022004,16,2145,38,OBSERVATORY & BABCOCK (EB)
43.07537,8D89B3,-89.412845,000000,1854,550250011022004,17,298,38,BABCOCK & LINDEN (SB)
43.075039,8D89B3,-89.41024,000000,1854,550250011022017,18,573,38,LINDEN & HENRY MALL (EB)
43.074985,8D89B3,-89.406475,000000,1854,550250011022016,19,438,38,LINDEN & CHARTER (EB)
43.074079,8D89B3,-89.406253,000000,1854,550250011022016,20,706,38,CHARTER & UNIV AVE (SB)
43.072388,8D89B3,-89.405846,000000,1854,550250011012000,21,490,38,CHARTER & W JOHNSON (SB)
43.072093,8D89B3,-89.404315,000000,1854,550250011011003,22,741,38,W JOHNSON & MILLS (EB)
43.072027,8D89B3,-89.400138,000000,1854,550250016064002,23,455,38,W JOHNSON & N PARK (EB)
43.071984,8D89B3,-89.39718,000000,1854,550250016064000,24,435,38,W JOHNSON & LAKE (EB)
43.071968,8D89B3,-89.395488,000000,1854,550250016061002,25,941,38,W JOHNSON & FRANCES (EB)
43.071687,8D89B3,-89.392872,000000,1854,550250016061001,26,470,38,BASSETT & DAYTON (SB)
43.069851,8D89B3,-89.390442,000000,1854,550250016051003,27,710,38,BASSETT & WEST WASH (SB)
43.068607,8D89B3,-89.388929,000000,1854,550250016051002,28,520,38,BASSETT & DOTY (SB)
43.068441,8D89B3,-89.387009,000000,1854,550250016052001,29,313,38,WILSON & BASSETT (EB)
43.070286,8D89B3,-89.384452,000000,1854,550250017042013,30,791,38,WILSON & HAMILTON (EB)
43.073333,8D89B3,-89.38386,000000,1854,550250017042000,31,1101,38,MAIN & CARROLL (EB)
43.074447,8D89B3,-89.38217,000000,1854,550250017051009,32,1823,38,MAIN & PINCKNEY (EB)
43.074574,8D89B3,-89.378787,000000,1854,550250017051013,33,1737,38,KING & WILSON (EB)
43.07565,8D89B3,-89.376687,000000,1854,550250017051016,34,1839,38,WILSON & FRANKLIN (EB)
43.077193,8D89B3,-89.372879,000000,1854,550250019003030,35,1509,38,WILLIAMSON & BLOUNT (EB)
43.077877,8D89B3,-89.370083,000000,1854,550250019003016,36,1167,38,JENIFER & LIVINGSTON (EB)
43.078706,8D89B3,-89.368915,000000,1854,550250019003016,37,1615,38,JENIFER & PATERSON (EB)
43.080202,8D89B3,-89.366831,000000,1854,550250019003005,38,1959,38,JENIFER & BREARLY (EB)
43.081231,8D89B3,-89.365346,000000,1854,550250019003005,39,1505,38,JENIFER & INGERSOLL (EB)
43.08245,8D89B3,-89.363517,000000,1854,550250019002017,40,1559,38,JENIFER & FEW (EB)
43.083733,8D89B3,-89.361807,000000,1854,550250019002012,41,1689,38,JENIFER & BALDWIN (EB)
43.084353,8D89B3,-89.359098,000000,1854,550250019002010,42,1813,38,SPAIGHT & DICKINSON (EB)
43.085112,8D89B3,-89.35659,000000,1854,550250019002006,43,1260,38,ROGERS & RUTLEDGE (SB)
43.086405,8D89B3,-89.354443,000000,1854,550250019001018,44,1143,38,RUTLEDGE & RIVERSIDE (EB)
43.087174,8D89B3,-89.353376,000000,1854,550250019001018,45,1695,38,RUTLEDGE & WALTON (EB)
43.088216,8D89B3,-89.352237,000000,1854,550250019001016,46,1305,38,RUTLEDGE & RUSSELL (EB)
43.090168,8D89B3,-89.351013,000000,1854,550250019001011,47,1995,38,DIVISION & OAKRIDGE (NB)
43.092613,8D89B3,-89.350783,000000,1854,550250020003015,48,1643,38,EASTWOOD & DIVISION (EB)
43.093344,8D89B3,-89.34866,000000,1854,550250020003014,49,1887,38,ATWOOD & EVERGREEN (EB)
43.093771,8D89B3,-89.346728,000000,1854,550250020003012,50,1391,38,ATWOOD & OHIO (EB)
43.093902,8D89B3,-89.34524,000000,1854,550250020003012,51,1211,38,ATWOOD & HUDSON (EB)
43.093851,8D89B3,-89.342317,000000,1854,550250020003010,52,1127,38,ATWOOD & MARQUETTE (EB)
43.091657,8D89B3,-89.336,000000,1854,550250020003001,59,1905,38,ATWOOD & LAKELAND (EB)
43.089833,8D89B3,-89.3291,000000,1854,550250027002018,65,1225,38,WALTER & ATWOOD (NB)
43.090986,8D89B3,-89.32794,000000,1854,550250027002014,66,1785,38,WALTER & CAPITOL CITY (NB)
43.090656,8D89B3,-89.325406,000000,1854,550250027003029,67,7161,38,HARGROVE & TULANE (EB)
43.090197,8D89B3,-89.321586,000000,1854,550250027002005,68,7767,38,DENNETT & RING (EB)
43.090121,8D89B3,-89.316451,000000,1854,550250027002007,69,7638,38,DEMPSEY & DENNETT (SB)
43.088405,8D89B3,-89.316388,000000,1854,550250027002028,70,7304,38,DEMPSEY & ANCHOR (SB)
43.083701,8D89B3,-89.316303,000000,1854,550250028001009,71,7374,38,DEMPSEY & COTTAGE GR (SB)
43.081493,8D89B3,-89.316322,000000,1854,550250028001012,72,7490,38,DEMPSEY & GARY (SB)
43.080165,8D89B3,-89.316263,000000,1854,550250028001012,73,7670,38,DEMPSEY & MAHER (SB)
43.078472,8D89B3,-89.317973,000000,1854,550250028001023,74,7658,38,DAVIES & MAJOR (WB)
43.077095,8D89B3,-89.319879,000000,1854,550250028001024,75,7174,38,DAVIES & BUCKEYE (WB)
43.075289,8D89B3,-89.317974,000000,1854,550250028002003,77,7559,38,BUCKEYE & LAKEVIEW (EB)
43.073885,8D89B3,-89.315432,000000,1854,550250028002009,78,7127,38,BUCKEYE & SPAANEM (EB)
43.073658,8D89B3,-89.314206,000000,1854,550250028002010,79,7578,38,TURNER & BUCKEYE (SB)
43.071416,8D89B3,-89.314192,000000,1854,550250028002010,80,7716,38,TURNER & ALLIS (SB)
43.070036,8D89B3,-89.314397,000000,1854,550250029001004,81,7348,38,TURNER & RUTH (SB)
43.068368,8D89B3,-89.314419,000000,1854,550250029001006,82,7132,38,TURNER & KAY (SB)
43.066436,8D89B3,-89.314442,000000,1854,550250029001012,83,7694,38,TURNER & HOB (SB)
43.063927,8D89B3,-89.314479,000000,1854,550250029001016,84,7402,38,TURNER & LINDA VISTA (SB)
43.06246,8D89B3,-89.314291,000000,1854,550250029001016,85,7640,38,TURNER & PFLAUM (SB)
43.062309,8D89B3,-89.315672,000000,1854,550250029001007,86,7194,38,PFLAUM & HERRO (WB)
43.062179,8D89B3,-89.319971,000000,1854,550250029001007,87,7232,38,PFLAUM & GROVELAND (WB)
43.062092,8D89B3,-89.323745,000000,1854,550250029001007,88,7144,38,PFLAUM & ALDER (WB)
43.058296,8D89B3,-89.32354,000000,1854,550250029003004,89,7917,38,TOMPKINS & ALDER (EB)
43.058419,8D89B3,-89.319396,000000,1854,550250029003007,90,7653,38,TOMPKINS & GROVELAND (EB)
43.058487,8D89B3,-89.315294,000000,1854,550250029003007,91,7903,38,TOMPKINS & HERRO (EB)
43.058501,8D89B3,-89.312973,000000,1854,550250029003000,92,7287,38,TOMPKINS & MAHER (EB)
43.058565,8D89B3,-89.310111,000000,1854,550250029003000,93,7525,38,TOMPKINS & STOUGHTON FT (EB)
43.061306,8D89B3,-89.309885,000000,1854,550250029002000,94,7807,38,STOUGHTON FT & PFLAUM (NB)
43.098601,6291A8,-89.322445,000000,1855,550250027003002,1,7100,39,EAST TRANSFER POINT
43.098159,6291A8,-89.318457,000000,1855,550250027001005,2,7169,39,MILWAUKEE & DEMPSEY (EB)
43.073097,6291A8,-89.308054,000000,1855,550250031003019,17,7235,39,BUCKEYE & STOUGHTON FT (EB)
43.071458,6291A8,-89.308406,000000,1855,550250031003019,32,7168,39,STOUGHTON FT & DEAN EAST (WB)
43.06681,6291A8,-89.308624,000000,1855,550250031003043,33,7277,39,HELGESEN & STOUGHTON FT (EB)
43.066327,6291A8,-89.303294,000000,1855,550250031003043,34,7199,39,HELGESEN & ADVANCE (EB)
43.062325,6291A8,-89.302822,000000,1855,550250031003039,35,7391,39,PFLAUM & ADVANCE (EB)
43.062352,6291A8,-89.300462,000000,1855,550250031003039,36,7613,39,PFLAUM & MMSD BLDG (EB)
43.062294,6291A8,-89.295473,000000,1855,550250031003020,37,7535,39,PFLAUM & MUSTANG (EB)
43.061797,6291A8,-89.294073,000000,1855,550250031003020,38,7411,39,PFLAUM & AGRICULTURE (EB)
43.05953,6291A8,-89.294165,000000,1855,550250031003020,39,7244,39,DAIRY & AGRICULTURE (WB)
43.058052,6291A8,-89.295121,000000,1855,550250031003020,40,7290,39,DAIRY & 2802 (SB)
43.056305,6291A8,-89.294767,000000,1855,550250031003039,41,7815,39,WORLD DAIRY & DAIRY (EB)
43.056288,6291A8,-89.291815,000000,1855,550250031003039,42,7503,39,WORLD DAIRY & AGRICULTURE (EB)
43.058298,6291A8,-89.292205,000000,1855,550250031003037,43,7187,39,DATCP DR & AGRICULTURE (EB)
43.060249,6291A8,-89.290992,000000,1855,550250031003022,44,7359,39,DATCP DR & N WORLD DAIRY (NB)
43.062357,6291A8,-89.291392,000000,1855,550250031003022,45,7987,39,VONDRON & DATCP DR (NB)
43.065284,6291A8,-89.291339,000000,1855,550250031003022,46,7583,39,VONDRON & MUSTANG (NB)
43.067088,6291A8,-89.291346,000000,1855,550250031003000,47,7229,39,VONDRON & S THOMPSON (NB)
43.07032,6291A8,-89.291375,000000,1855,550250031003010,48,7861,39,VONDRON & DOLORES (NB)
43.073367,6291A8,-89.291092,000000,1855,550250031003011,49,7479,39,BUCKEYE & VONDRON (EB)
43.073426,6291A8,-89.288125,000000,1855,550250031003008,50,7203,39,BUCKEYE & ELLEN (EB)
43.073478,6291A8,-89.283156,000000,1855,550250031003004,51,7711,39,BUCKEYE & S THOMPSON (EB)
43.075572,6291A8,-89.27791,000000,1855,550250114013027,52,7919,39,KINGS MILL & BUCKEYE (NB)
43.076466,6291A8,-89.276624,000000,1855,550250114013027,53,7273,39,KINGS MILL & COTTONTAIL (NB)
43.075536,6291A8,-89.276537,000000,1855,550250114013027,54,7320,39,COTTONTAIL & DELL (SB)
43.039101,00ABCE,-89.394589,000000,1856,550250014013024,1,4100,40,SOUTH TRANSFER POINT
43.038552,00ABCE,-89.397554,000000,1856,550250014013031,2,590,40,BADGER & CYPRESS (WB)
43.038665,00ABCE,-89.401933,000000,1856,550250014013031,3,782,40,BADGER & FIEDLER (WB)
43.038422,00ABCE,-89.404152,000000,1856,550250014021036,4,816,40,FISH HATCHERY & BADGER (SB)
43.036861,00ABCE,-89.405319,000000,1856,550250014021036,5,4192,40,FISH HATCHERY & EMIL (SB)
43.035184,00ABCE,-89.410399,000000,1856,550250014021035,6,4516,40,BELTLINE FT (N) & ROCKY'S (WB)
43.035513,00ABCE,-89.416021,000000,1856,550250014021033,7,4108,40,BELTLINE FT (N) & CULVERS (WB)
43.035656,00ABCE,-89.422336,000000,1856,550250014021044,8,4144,40,BELTLINE FT (N) & TODD (WB)
43.03512,00ABCE,-89.425134,000000,1856,550250014021066,9,4876,40,BELTLINE FT (S) & SERGENIANS (WB)
43.03499,00ABCE,-89.428985,000000,1856,550250014021065,10,4968,40,BELTLINE FT (S) & LANDMARK (WB)
43.034944,00ABCE,-89.433609,000000,1856,550250014024005,11,4360,40,GRANDVIEW & BELTLINE FT (S) (SB)
43.029698,00ABCE,-89.431752,000000,1856,550250014024011,12,4466,40,GRANDVIEW & KINGSTON (SB)
43.027108,00ABCE,-89.431431,000000,1856,550250014024009,13,4914,40,GRANDVIEW & SANDWOOD (SB)
43.025998,00ABCE,-89.430542,000000,1856,550250014024012,14,4834,40,POST & KNOLLWOOD (SB)
43.02678,00ABCE,-89.42622,000000,1856,550250014024012,15,4945,40,POST & TODD (EB)
43.026374,00ABCE,-89.423289,000000,1856,550250014032003,16,4837,40,POST & LEOPOLD (EB)
43.02662,00ABCE,-89.419171,000000,1856,550250014032001,17,4613,40,POST & TRACEWAY (EB)
43.026796,00ABCE,-89.414699,000000,1856,550250014032000,21,4953,40,POST & COHO (EB)
43.026281,00ABCE,-89.413077,000000,1856,550250014032000,22,4752,40,FISH HATCHERY & POST (SB)
43.023921,00ABCE,-89.415283,000000,1856,550250014032003,23,4188,40,FISH HATCHERY & TRACEWAY (SB)
43.021914,00ABCE,-89.418909,000000,1856,550250014032003,24,4182,40,HIGH RDG & CAHILL (WB)
43.021946,00ABCE,-89.420455,000000,1856,550250014032004,25,4506,40,HIGH RDG & COUNTRY C APT (WB)
43.021309,00ABCE,-89.421541,000000,1856,550250014032013,26,4788,40,ROYAL WULFF & HIGH RDG (SB)
43.020118,00ABCE,-89.421682,000000,1856,550250014032017,27,4273,40,CADDIS & ROYAL WULFF (EB)
43.019686,00ABCE,-89.420395,000000,1856,550250014032015,28,4699,40,CADDIS & CAHILL (EB)
43.019433,00ABCE,-89.419016,000000,1856,550250014033025,29,4707,40,S FISH HATCHERY & CADDIS (NB)
43.021357,00ABCE,-89.417218,000000,1856,550250014033025,30,4941,40,FISH HATCHERY & HIGH RDG (NB)
43.023974,00ABCE,-89.414678,000000,1856,550250014033025,31,4637,40,FISH HATCHERY & TRACEWAY (NB)
43.027501,00ABCE,-89.41175,000000,1856,550250014033035,32,4523,40,FISH HATCHERY & POST (NB)
43.030453,00ABCE,-89.409629,000000,1856,550250014033021,33,4449,40,FISH HATCHERY & GREENWAY (NB)
43.03682,00ABCE,-89.405028,000000,1856,550250014012006,43,4845,40,FISH HATCHERY & EMIL (NB)
43.038566,00ABCE,-89.403078,000000,1856,550250014012004,44,353,40,BADGER & FISH HATCHERY (EB)
43.038531,00ABCE,-89.401256,000000,1856,550250014012003,45,121,40,BADGER & FIEDLER (EB)
43.038513,00ABCE,-89.39803,000000,1856,550250014012002,46,173,40,BADGER & CYPRESS (EB)
43.039101,00ABCE,-89.394589,000000,1856,550250014013024,47,4100,40,SOUTH TRANSFER POINT
43.072487,8F8A64,-89.42858,000000,2481,550250009023001,1,2643,44,HIGHLAND & UNIV AVE (NB)
43.074141,8F8A64,-89.428672,000000,2481,550250032001012,2,2393,44,HIGHLAND & VA HOSP (NB)
43.076973,8F8A64,-89.428672,000000,2481,550250032001012,3,2091,44,OBSERVATORY & HIGHLAND (EB)
43.076472,8F8A64,-89.424517,000000,2481,550250011022008,4,2007,44,OBSERVATORY & WALNUT (EB)
43.0764,8F8A64,-89.419931,000000,2481,550250011022003,5,2267,44,OBSERVATORY & NATATORIUM (EB)
43.076391,8F8A64,-89.416264,000000,2481,550250011022003,6,2195,44,OBSERVATORY & ELM (EB)
43.076355,8F8A64,-89.41303,000000,2481,550250011022004,7,2145,44,OBSERVATORY & BABCOCK (EB)
43.07537,8F8A64,-89.412845,000000,2481,550250011022004,8,298,44,BABCOCK & LINDEN (SB)
43.075039,8F8A64,-89.41024,000000,2481,550250011022017,9,573,44,LINDEN & HENRY MALL (EB)
43.074985,8F8A64,-89.406475,000000,2481,550250011022016,10,438,44,LINDEN & CHARTER (EB)
43.074079,8F8A64,-89.406253,000000,2481,550250011022016,11,706,44,CHARTER & UNIV AVE (SB)
43.072388,8F8A64,-89.405846,000000,2481,550250011012000,12,490,44,CHARTER & W JOHNSON (SB)
43.072093,8F8A64,-89.404315,000000,2481,550250011011003,13,741,44,W JOHNSON & MILLS (EB)
43.071201,8F8A64,-89.404196,000000,2481,550250011011003,14,104,44,MILLS & DAYTON (SB)
43.069713,8F8A64,-89.404121,000000,2481,550250011011007,15,392,44,MILLS & SPRING (SB)
43.067968,8F8A64,-89.404154,000000,2481,550250011011012,16,190,44,MILLS & REGENT (SB)
43.065527,8F8A64,-89.404126,000000,2481,550250012004015,17,624,44,MILLS & MOUND (SB)
43.062925,8F8A64,-89.404157,000000,2481,550250012004035,18,158,44,MILLS & VILAS (SB)
43.059792,8F8A64,-89.403677,000000,2481,550250012002013,19,459,44,ERIN & MILLS (EB)
43.059675,8F8A64,-89.400974,000000,2481,550250012002019,20,288,44,S PARK & ERIN (SB)
43.056492,8F8A64,-89.398699,000000,2481,550250013002004,21,174,44,S PARK & FISH HATCHERY (SB)
43.053994,8F8A64,-89.395262,000000,2481,550250013001035,22,877,44,OLIN & LOWELL (EB)
43.053953,8F8A64,-89.391914,000000,2481,550250013001034,23,147,44,OLIN & HICKORY (EB)
43.053736,8F8A64,-89.390313,000000,2481,550250013001034,24,694,44,GILSON & OLIN (SB)
43.051996,8F8A64,-89.390897,000000,2481,550250013001032,25,570,44,GILSON & CEDAR (SB)
43.049853,8F8A64,-89.392523,000000,2481,550250013001046,26,110,44,GILSON & BELD (WB)
43.049011,8F8A64,-89.394252,000000,2481,550250014013000,27,124,44,S PARK & WINGRA (SB)
43.044418,8F8A64,-89.394266,000000,2481,550250014013009,28,730,44,S PARK & BURR OAK (SB)
43.041568,8F8A64,-89.394207,000000,2481,550250014013015,29,906,44,S PARK & BUICK (SB)
43.039101,8F8A64,-89.394589,000000,2481,550250014013024,30,4100,44,SOUTH TRANSFER POINT
43.073333,885CA0,-89.38386,000000,1860,550250017042000,1,1101,47,MAIN & CARROLL (EB)
43.074989,885CA0,-89.382341,000000,1860,550250017051008,2,1787,47,PINCKNEY & MAIN (NB)
43.076045,885CA0,-89.384707,000000,1860,550250017053007,3,1100,47,MIFFLIN & PINCKNEY (WB)
43.074513,885CA0,-89.386185,000000,1860,550250017041005,15,1324,47,CARROLL & MIFFLIN (SB)
43.073381,885CA0,-89.386088,000000,1860,550250017041005,16,1790,47,WEST WASH & FAIRCHILD (WB)
43.07273,885CA0,-89.387032,000000,1860,550250017041006,17,168,47,WEST WASH & HENRY (WB)
43.071239,885CA0,-89.38925,000000,1860,550250016062001,18,274,47,WEST WASH & BROOM (WB)
43.070037,885CA0,-89.390899,000000,1860,550250016062002,19,512,47,WEST WASH & BASSETT (WB)
43.069019,885CA0,-89.392346,000000,1860,550250016062002,20,418,47,WEST WASH & BEDFORD (WB)
43.06791,885CA0,-89.393935,000000,1860,550250016063000,21,768,47,WEST WASH & SW COMMUTER (WB)
43.066757,885CA0,-89.395761,000000,1860,550250012001003,22,516,47,WEST WASH & REGENT (WB)
43.064678,885CA0,-89.398696,000000,1860,550250012001005,23,770,47,WEST WASH & PED BRIDGE (WB)
43.062937,885CA0,-89.400947,000000,1860,550250012004033,24,840,47,S PARK & WEST WASH (SB)
43.059675,885CA0,-89.400974,000000,1860,550250012002019,25,288,47,S PARK & ERIN (SB)
43.056514,885CA0,-89.399025,000000,1860,550250013002000,26,266,47,FISH HATCHERY & S PARK (SB)
43.054058,885CA0,-89.399144,000000,1860,550250013002007,27,146,47,FISH HATCHERY & MIDLAND (SB)
43.051775,885CA0,-89.399231,000000,1860,550250013002010,28,530,47,FISH HATCHERY & APPLETON (SB)
43.050533,885CA0,-89.399881,000000,1860,550250013002010,29,536,47,FISH HATCHERY & WINGRA (SB)
43.044304,885CA0,-89.404027,000000,1860,550250014021030,30,456,47,FISH HATCHERY & CARVER (SB)
43.041582,885CA0,-89.404077,000000,1860,550250014021035,31,170,47,FISH HATCHERY & CATALPA (SB)
43.038422,885CA0,-89.404152,000000,1860,550250014021036,32,816,47,FISH HATCHERY & BADGER (SB)
43.036861,885CA0,-89.405319,000000,1860,550250014021036,33,4192,47,FISH HATCHERY & EMIL (SB)
43.031418,885CA0,-89.410611,000000,1860,550250014023019,34,4882,47,GREENWAY & BRYANT (WB)
43.030975,885CA0,-89.414447,000000,1860,550250014023018,35,4224,47,GREENWAY & COHO (WB)
43.039101,F171A9,-89.394589,000000,1861,550250014013024,15,4100,48,SOUTH TRANSFER POINT
43.031121,F171A9,-89.409524,000000,1861,550250014023021,16,4622,48,FISH HATCHERY & GREENWAY (SB)
43.026281,F171A9,-89.413077,000000,1861,550250014032000,17,4752,48,FISH HATCHERY & POST (SB)
43.023921,F171A9,-89.415283,000000,1861,550250014032003,18,4188,48,FISH HATCHERY & TRACEWAY (SB)
43.021074,F171A9,-89.417898,000000,1861,550250014032014,19,4148,48,S FISH HATCHERY & HIGH RDG (SB)
43.018986,F171A9,-89.419776,000000,1861,550250014032015,20,4894,48,S FISH HATCHERY & CADDIS (SB)
43.016356,F171A9,-89.423203,000000,1861,550250014032021,21,4682,48,S FISH HATCHERY & CAHILL (SB)
43.00496,F171A9,-89.425015,000000,1861,550250014033054,22,4387,48,E CHERYL & RESEARCH PK (EB)
43.004853,F171A9,-89.420613,000000,1861,550250014033054,23,4245,48,E CHERYL & WOODS HLW (EB)
43.00684,F171A9,-89.420452,000000,1861,550250014033037,24,4982,48,RESEARCH PK & WOODS HLW (WB)
43.001505,F171A9,-89.42557,000000,1861,550250014033053,25,4766,48,RESEARCH PK & LACY (SB)
43.000001,F171A9,-89.426396,000000,1861,550250107023031,26,4512,48,RESEARCH PK & CASTLE RK (SB)
42.997065,F171A9,-89.426914,000000,1861,550250107023024,27,4840,48,RESEARCH PK & TRI-NORTH (SB)
42.995507,F171A9,-89.425533,000000,1861,550250107023024,28,4462,48,RESEARCH PK & NOBEL (SB)
42.995292,F171A9,-89.427962,000000,1861,550250107023028,29,4328,48,NOBEL & S FISH HATCHERY (WB)
43.053874,F17225,-89.47553,000000,1862,550250004081021,1,6100,50,WEST TRANSFER POINT
43.051809,F17225,-89.473671,000000,1862,550250004081012,3,2324,50,WHITNEY & WESTGATE (SB)
43.049491,F17225,-89.473676,000000,1862,550250004081010,4,2522,50,WHITNEY & ODANA (SB)
43.045827,F17225,-89.473669,000000,1862,550250004073000,5,8418,50,WHITNEY & SCHROEDER (SB)
43.044315,F17225,-89.474105,000000,1862,550250004073000,6,8274,50,WHITNEY & GILBERT (WB)
43.041911,F17225,-89.477547,000000,1862,550250004073000,7,8138,50,WHITNEY & PIPING ROCK (WB)
43.039362,F17225,-89.477752,000000,1862,550250004073018,8,8452,50,WHITNEY & HAMMERSLEY (SB)
43.037014,F17225,-89.47776,000000,1862,550250005014005,9,8118,50,WHITNEY & TOLMAN (SB)
43.033657,F17225,-89.47722,000000,1862,550250005014014,10,8796,50,WHITNEY & BARTLETT (SB)
43.032046,F17225,-89.477532,000000,1862,550250005014015,11,8512,50,RAYMOND & WHITNEY (WB)
43.032055,F17225,-89.480041,000000,1862,550250005014015,12,8712,50,RAYMOND & LELAND (WB)
43.032064,F17225,-89.482878,000000,1862,550250005014015,13,8352,50,RAYMOND & CAMERON (WB)
43.032032,F17225,-89.489123,000000,1862,550250004071006,14,8100,50,RAYMOND & PRAIRIE (WB)
43.03196,F17225,-89.493853,000000,1862,550250004071004,15,8872,50,RAYMOND & FRISCH (WB)
43.032145,F17225,-89.496795,000000,1862,550250004071005,16,8281,50,MC KENNA & RAYMOND (NB)
43.035887,F17225,-89.496918,000000,1862,550250004071004,17,8565,50,MC KENNA & PARK HTS (NB)
43.038637,F17225,-89.500038,000000,1862,550250004072012,18,8166,50,MC KENNA & HAMMERSLEY (WB)
43.03943,F17225,-89.503726,000000,1862,550250004072017,19,8160,50,MC KENNA & GAMMON (WB)
43.041377,F17225,-89.504826,000000,1862,550250004072017,20,8301,50,MC KENNA & MORRAINE VW (NB)
43.044202,F17225,-89.503454,000000,1862,550250004072018,21,8769,50,GAMMON & GAMMON (NB)
43.046524,F17225,-89.503072,000000,1862,550250004082020,22,8131,50,GAMMON & SCHROEDER (NB)
43.0501,F17225,-89.502701,000000,1862,550250004082015,23,8119,50,WATTS & GAMMON (EB)
43.050175,F17225,-89.500996,000000,1862,550250004082014,24,8409,50,WATTS & WOODMANS (EB)
43.049818,F17225,-89.496024,000000,1862,550250004082014,25,8650,50,STRUCK & WATTS (SB)
43.046484,F17225,-89.496588,000000,1862,550250004082018,26,8310,50,STRUCK & SCHROEDER (SB)
43.046239,F17225,-89.494087,000000,1862,550250004072000,27,8531,50,SCHROEDER & CHAPEL HILL (EB)
43.046263,F17225,-89.491247,000000,1862,550250004073010,28,8219,50,SCHROEDER & RAYOVAC (EB)
43.046286,F17225,-89.48845,000000,1862,550250004073009,29,8237,50,SCHROEDER & HATHAWAY (EB)
43.046311,F17225,-89.484384,000000,1862,550250004073001,30,8427,50,SCHROEDER & WHITE OAKS (EB)
43.046328,F17225,-89.479373,000000,1862,550250004073001,31,8235,50,SCHROEDER & SAYBROOK (EB)
43.046317,F17225,-89.47775,000000,1862,550250004073000,32,8247,50,SCHROEDER & SCHROEDER (EB)
43.048648,F17225,-89.47333,000000,1862,550250004022015,33,2383,50,WHITNEY & MEDICAL (NB)
43.050661,F17225,-89.47332,000000,1862,550250004022005,34,2665,50,WHITNEY & ODANA (NB)
43.053874,F17225,-89.47553,000000,1862,550250004081021,35,6100,50,WEST TRANSFER POINT
43.053874,EE4D98,-89.47553,000000,1863,550250004081021,1,6100,51,WEST TRANSFER POINT
43.051809,EE4D98,-89.473671,000000,1863,550250004081012,2,2324,51,WHITNEY & WESTGATE (SB)
43.049491,EE4D98,-89.473676,000000,1863,550250004081010,3,2522,51,WHITNEY & ODANA (SB)
43.045827,EE4D98,-89.473669,000000,1863,550250004073000,4,8418,51,WHITNEY & SCHROEDER (SB)
43.044315,EE4D98,-89.474105,000000,1863,550250004073000,5,8274,51,WHITNEY & GILBERT (WB)
43.041911,EE4D98,-89.477547,000000,1863,550250004073000,6,8138,51,WHITNEY & PIPING ROCK (WB)
43.039362,EE4D98,-89.477752,000000,1863,550250004073018,7,8452,51,WHITNEY & HAMMERSLEY (SB)
43.037014,EE4D98,-89.47776,000000,1863,550250005014005,8,8118,51,WHITNEY & TOLMAN (SB)
43.033657,EE4D98,-89.47722,000000,1863,550250005014014,9,8796,51,WHITNEY & BARTLETT (SB)
43.032046,EE4D98,-89.477532,000000,1863,550250005014015,10,8512,51,RAYMOND & WHITNEY (WB)
43.032055,EE4D98,-89.480041,000000,1863,550250005014015,11,8712,51,RAYMOND & LELAND (WB)
43.032064,EE4D98,-89.482878,000000,1863,550250005014015,12,8352,51,RAYMOND & CAMERON (WB)
43.031583,EE4D98,-89.488896,000000,1863,550250005032000,13,8826,51,PRAIRIE & RAYMOND (SB)
43.029554,EE4D98,-89.488885,000000,1863,550250005032000,14,8606,51,PRAIRIE & PIONEER (SB)
43.026199,EE4D98,-89.489192,000000,1863,550250005032005,15,8308,51,PILGRIM & PRAIRIE (WB)
43.026227,EE4D98,-89.491825,000000,1863,550250005032001,16,8304,51,PILGRIM & SARA (WB)
43.026602,EE4D98,-89.49471,000000,1863,550250005032001,17,8654,51,PILGRIM & PILGRIM (WB)
43.02714,EE4D98,-89.496671,000000,1863,550250005032001,18,8200,51,PILGRIM & MC KENNA (WB)
43.024308,EE4D98,-89.499722,000000,1863,550250005041009,19,8818,51,MC KENNA & YORKTOWN (SB)
43.022076,EE4D98,-89.503082,000000,1863,550250005042003,20,8194,51,MC KENNA & LANCASTER (SB)
43.019804,EE4D98,-89.503455,000000,1863,550250005042003,21,8410,51,CARNWOOD & MC KENNA (WB)
43.019973,EE4D98,-89.506403,000000,1863,550250005042003,22,8405,51,MUIR FIELD & CARNWOOD (NB)
43.022388,EE4D98,-89.505393,000000,1863,550250005042003,23,8941,51,MUIR FIELD & LANCASTER (NB)
43.024492,EE4D98,-89.505377,000000,1863,550250005041004,24,8519,51,MUIR FIELD & GLADSTONE (NB)
43.027008,EE4D98,-89.50549,000000,1863,550250005041004,25,8723,51,MUIR FIELD & LINDFIELD (NB)
43.03051,EE4D98,-89.507768,000000,1863,550250005041002,26,8893,51,MUIR FIELD & RAYMOND (NB)
43.031551,EE4D98,-89.501692,000000,1863,550250005041000,27,8745,51,RAYMOND & CANTERBURY (EB)
43.031617,EE4D98,-89.496622,000000,1863,550250005032014,28,8779,51,RAYMOND & MC KENNA (EB)
43.031673,EE4D98,-89.493266,000000,1863,550250005032001,29,8709,51,RAYMOND & FRISCH (EB)
43.032187,EE4D98,-89.488701,000000,1863,550250004074006,30,8239,51,PRAIRIE & RAYMOND (NB)
43.034515,EE4D98,-89.48859,000000,1863,550250004074002,31,8919,51,PRAIRIE & LOMAX (NB)
43.03658,EE4D98,-89.488513,000000,1863,550250004074002,32,8253,51,PRAIRIE & JACOBS (NB)
43.03897,EE4D98,-89.488421,000000,1863,550250004074003,33,8323,51,PRAIRIE & HAMMERSLEY (NB)
43.039402,EE4D98,-89.485661,000000,1863,550250004073018,34,8319,51,BROOKWOOD & HAMMERSLEY (NB)
43.041094,EE4D98,-89.485996,000000,1863,550250004073019,35,8735,51,PIPING ROCK & BROOKWOOD (EB)
43.041061,EE4D98,-89.480505,000000,1863,550250004073016,36,8421,51,PIPING ROCK & MANHASSET (EB)
43.041913,EE4D98,-89.477063,000000,1863,550250005014001,37,8633,51,WHITNEY & PIPING ROCK (EB)
43.044054,EE4D98,-89.473856,000000,1863,550250005014000,38,8605,51,WHITNEY & GILBERT (EB)
43.048648,EE4D98,-89.47333,000000,1863,550250004022015,39,2383,51,WHITNEY & MEDICAL (NB)
43.050661,EE4D98,-89.47332,000000,1863,550250004022005,40,2665,51,WHITNEY & ODANA (NB)
43.053874,EE4D98,-89.47553,000000,1863,550250004081021,41,6100,51,WEST TRANSFER POINT
43.053874,7C2A52,-89.47553,FFFFFF,3122,550250004081021,1,6100,52,WEST TRANSFER POINT
43.026238,7C2A52,-89.475336,FFFFFF,3122,550250005013011,2,4652,52,WHITNEY & MONTICELLO (SB)
43.024573,7C2A52,-89.475285,FFFFFF,3122,550250005035004,3,4972,52,WILLIAMSBURG & WHITNEY (WB)
43.024043,7C2A52,-89.47938,FFFFFF,3122,550250005034003,4,4258,52,KING JAMES & WILLIAMSBURG (SB)
43.021028,7C2A52,-89.4775,FFFFFF,3122,550250005034005,5,4151,52,KING JAMES & K JAMES CT (EB)
43.019229,7C2A52,-89.473961,FFFFFF,3122,550250005034005,6,4833,52,KING JAMES & ANTON (EB)
43.016364,7C2A52,-89.475846,FFFFFF,3122,550250005034005,7,4988,52,KAPEC & KING JAMES (SB)
43.015395,7C2A52,-89.480755,FFFFFF,3122,550250107021004,8,4510,52,FITCHRONA & MC KEE (SB)
43.013551,7C2A52,-89.480753,FFFFFF,3122,550250107021004,9,4200,52,FITCHRONA & TARGET (SB)
43.053874,D5BC5B,-89.47553,000000,2045,550250004081021,1,6100,55,WEST TRANSFER POINT
42.994048,D5BC5B,-89.519372,000000,2045,550250108004048,2,4838,55,VERONA & HOMETOWN (WB)
42.992915,D5BC5B,-89.526556,000000,2045,550250108004044,3,4556,55,VERONA & ENTERPRISE (WB)
42.990477,D5BC5B,-89.534049,000000,2045,550250108001036,4,4732,55,VERONA & MAIN (WB)
42.98918,D5BC5B,-89.540719,000000,2045,550250108001046,5,4310,55,VERONA & LEGION (WB)
42.988468,D5BC5B,-89.545943,000000,2045,550250108001045,6,4918,55,VERONA & HALF MILE (WB)
42.990644,D5BC5B,-89.560642,000000,2045,550250108002040,7,4557,55,NORTHERN LTS & BRECKENRIDGE (NB)
42.995467,D5BC5B,-89.564477,000000,2045,550250108003007,8,4400,55,STAFF B & EPIC (SB)
43.01255,937A6C,-89.498608,000000,1865,550250107024001,4,8845,56,WESTIN & MAPLE GR (EB)
43.010989,937A6C,-89.492174,000000,1865,550250107021019,5,8137,56,MANCHESTER & WESTIN (NB)
43.012946,937A6C,-89.490766,000000,1865,550250107021081,6,8747,56,MANCHESTER & THORNEBURY (NB)
43.014884,937A6C,-89.49071,000000,1865,550250107021018,7,8163,56,MANCHESTER & MC KEE (NB)
43.015866,937A6C,-89.491196,000000,1865,550250005033010,8,8864,56,MC KEE & MANCHESTER (WB)
43.016332,937A6C,-89.49663,000000,1865,550250005033010,9,8371,56,MAPLE VLY & MC KEE (NB)
43.018307,937A6C,-89.497442,000000,1865,550250005033014,10,8599,56,MAPLE VLY & PRAIRIE (NB)
43.021444,937A6C,-89.498698,000000,1865,550250005033009,11,8359,56,MAPLE GR & STRATFORD (NB)
43.021566,937A6C,-89.501478,000000,1865,550250005042000,12,8694,56,STRATFORD & SHEFFORD (WB)
43.022422,937A6C,-89.502568,000000,1865,550250005042000,13,8855,56,MC KENNA & LANCASTER (NB)
43.024392,937A6C,-89.49936,000000,1865,550250005032011,14,8441,56,MC KENNA & YORKTOWN (NB)
43.026949,937A6C,-89.496945,000000,1865,550250005032011,15,8985,56,MC KENNA & PILGRIM (NB)
43.026586,937A6C,-89.494971,000000,1865,550250005032010,16,8551,56,PILGRIM & PILGRIM (EB)
43.026127,937A6C,-89.492118,000000,1865,550250005032008,17,8149,56,PILGRIM & SARA (EB)
43.026408,937A6C,-89.488828,000000,1865,550250005031008,18,8829,56,PRAIRIE & PILGRIM (NB)
43.029739,937A6C,-89.488759,000000,1865,550250005031004,19,8157,56,PRAIRIE & PIONEER (NB)
43.031702,937A6C,-89.488529,000000,1865,550250005031002,20,8101,56,RAYMOND & PRAIRIE (EB)
43.031831,937A6C,-89.483414,000000,1865,550250005031000,21,8401,56,RAYMOND & CAMERON (EB)
43.031803,937A6C,-89.479959,000000,1865,550250005013002,22,8363,56,RAYMOND & LELAND (EB)
43.031752,937A6C,-89.476524,000000,1865,550250005013000,23,8937,56,RAYMOND & WHITNEY (EB)
43.031757,937A6C,-89.473126,000000,1865,550250005012009,24,8377,56,RAYMOND & GILBERT (EB)
43.031752,937A6C,-89.470346,000000,1865,550250005012009,25,8283,56,RAYMOND & TAWHEE (EB)
43.031739,937A6C,-89.465313,000000,1865,550250005012004,26,8869,56,RAYMOND & WESTCHESTER (EB)
43.032089,937A6C,-89.461593,000000,1865,550250005011015,27,8135,56,REETZ & RAYMOND (NB)
43.034608,937A6C,-89.461291,000000,1865,550250005011015,28,8753,56,REETZ & FLAD (NB)
43.036312,937A6C,-89.461041,000000,1865,550250005011016,29,8333,56,REETZ & MARVIN (NB)
43.038899,937A6C,-89.461077,000000,1865,550250005011016,30,8155,56,REETZ & HAMMERSLEY (NB)
43.039143,937A6C,-89.463783,000000,1865,550250005011001,31,8776,56,HAMMERSLEY & WHITCOMB (WB)
43.03919,937A6C,-89.466872,000000,1865,550250005011002,32,8594,56,HAMMERSLEY & LEWON (WB)
43.039223,937A6C,-89.473191,000000,1865,550250005011002,33,8604,56,HAMMERSLEY & GILBERT (WB)
43.039442,937A6C,-89.477369,000000,1865,550250005014000,34,8173,56,WHITNEY & HAMMERSLEY (NB)
43.041913,937A6C,-89.477063,000000,1865,550250005014001,35,8633,56,WHITNEY & PIPING ROCK (EB)
43.044054,937A6C,-89.473856,000000,1865,550250005014000,36,8605,56,WHITNEY & GILBERT (EB)
43.048648,937A6C,-89.47333,000000,1865,550250004022015,37,2383,56,WHITNEY & MEDICAL (NB)
43.050661,937A6C,-89.47332,000000,1865,550250004022005,38,2665,56,WHITNEY & ODANA (NB)
43.053874,937A6C,-89.47553,000000,1865,550250004081021,39,6100,56,WEST TRANSFER POINT
43.053874,937A6C,-89.47553,000000,1865,550250004081021,40,6100,56,WEST TRANSFER POINT
43.067995,937A6C,-89.46799,000000,1865,550250003003000,41,2201,56,REGENT & WHITNEY (EB)
43.069288,937A6C,-89.463166,000000,1865,550250003001016,42,2121,56,EAU CLAIRE & REGENT (NB)
43.072917,937A6C,-89.463696,000000,1865,550250003001016,43,2175,56,SHEBOYGAN & EAU CLAIRE (EB)
43.072765,937A6C,-89.459507,000000,1865,550250003001016,44,2101,56,SHEBOYGAN & STATE OFFICE (EB)
43.075163,937A6C,-89.450398,000000,1865,550250008003002,45,2191,56,UNIV AVE & MIDVALE (EB)
43.073376,937A6C,-89.433969,000000,1865,550250009024002,46,2465,56,UNIV AVE & U BAY (EB)
43.073266,937A6C,-89.411092,000000,1865,550250011012003,47,809,56,CAMPUS & BABCOCK RR (EB)
43.072094,937A6C,-89.406012,000000,1865,550250011012006,48,581,56,W JOHNSON & CHARTER (EB)
43.072093,937A6C,-89.404315,000000,1865,550250011011003,49,741,56,W JOHNSON & MILLS (EB)
43.072027,937A6C,-89.400138,000000,1865,550250016064002,50,455,56,W JOHNSON & N PARK (EB)
43.071984,937A6C,-89.39718,000000,1865,550250016064000,51,435,56,W JOHNSON & LAKE (EB)
43.071968,937A6C,-89.395488,000000,1865,550250016061002,52,941,56,W JOHNSON & FRANCES (EB)
43.072371,937A6C,-89.393298,000000,1865,550250016061000,53,555,56,W JOHNSON & BASSETT (EB)
43.073638,937A6C,-89.391446,000000,1865,550250017041009,54,839,56,W JOHNSON & BROOM (EB)
43.074713,937A6C,-89.388266,000000,1865,550250017041004,55,883,56,STATE & FAIRCHILD (EB)
43.074668,937A6C,-89.386819,000000,1865,550250017041005,56,1663,56,STATE & MIFFLIN (EB)
43.073333,937A6C,-89.38386,000000,1865,550250017042000,57,1101,56,MAIN & CARROLL (EB)
43.074447,937A6C,-89.38217,000000,1865,550250017051009,58,1823,56,MAIN & PINCKNEY (EB)
43.074574,937A6C,-89.378787,000000,1865,550250017051013,59,1737,56,KING & WILSON (EB)
43.076946,937A6C,-89.376609,000000,1865,550250019003025,60,1515,56,BLAIR & RAILROAD (NB)
43.079614,937A6C,-89.376965,000000,1865,550250019003023,61,1453,56,EAST WASH & BLOUNT (EB)
43.08238,937A6C,-89.373012,000000,1865,550250019003009,62,1565,56,EAST WASH & PATERSON (EB)
43.085012,937A6C,-89.369345,000000,1865,550250019004007,64,1199,56,EAST WASH & INGERSOLL (EB)
43.087367,937A6C,-89.365943,000000,1865,550250019004006,65,1883,56,EAST WASH & BALDWIN (EB)
43.088337,937A6C,-89.364485,000000,1865,550250019004006,66,1805,56,EAST WASH & DICKINSON (EB)
43.089788,937A6C,-89.362438,000000,1865,550250019004001,67,1513,56,EAST WASH & YAHARA (EB)
43.091981,937A6C,-89.359353,000000,1865,550250019005021,68,1241,56,EAST WASH & FIRST (EB)
43.093708,937A6C,-89.357055,000000,1865,550250019005010,69,1107,56,EAST WASH & SECOND (EB)
43.095914,937A6C,-89.354117,000000,1865,550250019005009,70,1141,56,EAST WASH & FOURTH (EB)
43.09845,937A6C,-89.350762,000000,1865,550250019005000,71,1233,56,EAST WASH & SIXTH (EB)
43.100853,937A6C,-89.349117,000000,1865,550250021002020,72,1301,56,NORTH & EAST WASH (NB)
43.102201,937A6C,-89.349734,000000,1865,550250021002019,73,1113,56,NORTH & DAYTON (NB)
43.10359,937A6C,-89.35045,000000,1865,550250021002011,74,1635,56,NORTH & E JOHNSON (NB)
43.104834,937A6C,-89.351076,000000,1865,550250021002011,75,1375,56,NORTH & HOARD (NB)
43.106902,937A6C,-89.351556,000000,1865,550250021001008,76,1394,56,COMMERCIAL & NORTH (WB)
43.107064,937A6C,-89.354439,000000,1865,550250021001008,77,1427,56,PACKERS & COMMERCIAL (NB)
43.114268,937A6C,-89.357264,000000,1865,550250022002019,78,1380,56,ABERG & LOFTSGORDAN RR (WB)
43.112847,937A6C,-89.358591,000000,1865,550250021001015,79,5100,56,NORTH TRANSFER POINT
43.016132,84743E,-89.511408,000000,1866,550250005042010,8,8469,57,MUIR FIELD & MC KEE (NB)
43.017464,84743E,-89.510018,000000,1866,550250005042010,9,8151,57,MUIR FIELD & TEMPE (NB)
43.01916,84743E,-89.508073,000000,1866,550250005042008,10,8675,57,MUIR FIELD & CIMARRON (NB)
43.019973,84743E,-89.506403,000000,1866,550250005042003,11,8405,57,MUIR FIELD & CARNWOOD (NB)
43.022388,84743E,-89.505393,000000,1866,550250005042003,12,8941,57,MUIR FIELD & LANCASTER (NB)
43.024492,84743E,-89.505377,000000,1866,550250005041004,13,8519,57,MUIR FIELD & GLADSTONE (NB)
43.027008,84743E,-89.50549,000000,1866,550250005041004,14,8723,57,MUIR FIELD & LINDFIELD (NB)
43.03051,84743E,-89.507768,000000,1866,550250005041002,15,8893,57,MUIR FIELD & RAYMOND (NB)
43.031551,84743E,-89.501692,000000,1866,550250005041000,16,8745,57,RAYMOND & CANTERBURY (EB)
43.031617,84743E,-89.496622,000000,1866,550250005032014,17,8779,57,RAYMOND & MC KENNA (EB)
43.031673,84743E,-89.493266,000000,1866,550250005032001,18,8709,57,RAYMOND & FRISCH (EB)
43.032187,84743E,-89.488701,000000,1866,550250004074006,19,8239,57,PRAIRIE & RAYMOND (NB)
43.034515,84743E,-89.48859,000000,1866,550250004074002,20,8919,57,PRAIRIE & LOMAX (NB)
43.03658,84743E,-89.488513,000000,1866,550250004074002,21,8253,57,PRAIRIE & JACOBS (NB)
43.03897,84743E,-89.488421,000000,1866,550250004074003,22,8323,57,PRAIRIE & HAMMERSLEY (NB)
43.039402,84743E,-89.485661,000000,1866,550250004073018,23,8319,57,BROOKWOOD & HAMMERSLEY (NB)
43.041094,84743E,-89.485996,000000,1866,550250004073019,24,8735,57,PIPING ROCK & BROOKWOOD (EB)
43.041061,84743E,-89.480505,000000,1866,550250004073016,25,8421,57,PIPING ROCK & MANHASSET (EB)
43.041913,84743E,-89.477063,000000,1866,550250005014001,26,8633,57,WHITNEY & PIPING ROCK (EB)
43.044054,84743E,-89.473856,000000,1866,550250005014000,27,8605,57,WHITNEY & GILBERT (EB)
43.048648,84743E,-89.47333,000000,1866,550250004022015,28,2383,57,WHITNEY & MEDICAL (NB)
43.050661,84743E,-89.47332,000000,1866,550250004022005,29,2665,57,WHITNEY & ODANA (NB)
43.053874,84743E,-89.47553,000000,1866,550250004081021,30,6100,57,WEST TRANSFER POINT
43.073333,A0A197,-89.38386,000000,1867,550250017042000,1,1101,58,MAIN & CARROLL (EB)
43.074989,A0A197,-89.382341,000000,1867,550250017051008,2,1787,58,PINCKNEY & MAIN (NB)
43.076045,A0A197,-89.384707,000000,1867,550250017053007,3,1100,58,MIFFLIN & PINCKNEY (WB)
43.074933,A0A197,-89.386107,000000,1867,550250017041001,4,1310,58,MIFFLIN & CARROLL (WB)
43.074793,A0A197,-89.387846,000000,1867,550250017041001,5,1558,58,STATE & DAYTON (WB)
43.074811,A0A197,-89.389575,000000,1867,550250017041003,6,898,58,STATE & W JOHNSON (WB)
43.074839,A0A197,-89.391389,000000,1867,550250016043004,7,252,58,STATE & GORHAM (WB)
43.073342,A0A197,-89.393873,000000,1867,550250016031002,8,428,58,GORHAM & BASSETT (WB)
43.073302,A0A197,-89.396115,000000,1867,550250016031004,9,568,58,UNIV AVE & FRANCES (WB)
43.073318,A0A197,-89.39797,000000,1867,550250011021004,10,670,58,UNIV AVE & LAKE (WB)
43.073367,A0A197,-89.401463,000000,1867,550250011021002,11,100,58,UNIV AVE & N PARK (WB)
43.073422,A0A197,-89.403854,000000,1867,550250011021002,12,234,58,UNIV AVE & MILLS (WB)
43.073427,A0A197,-89.407056,000000,1867,550250011022016,13,178,58,UNIV AVE & ORCHARD (WB)
43.073506,A0A197,-89.409432,000000,1867,550250011022016,14,160,58,UNIV AVE & RANDALL (WB)
43.073169,A0A197,-89.413972,000000,1867,550250009021003,15,542,58,BREESE & UNIV AVE (SB)
43.070448,A0A197,-89.414016,000000,1867,550250009021008,16,454,58,BREESE & HOYT (SB)
43.068001,A0A197,-89.413995,000000,1867,550250009021013,17,916,58,BREESE & REGENT (SB)
43.066171,A0A197,-89.415383,000000,1867,550250009012002,18,2948,58,MONROE & GARFIELD (WB)
43.065322,A0A197,-89.416632,000000,1867,550250009012010,19,2608,58,MONROE & SPOONER (WB)
43.063635,A0A197,-89.41924,000000,1867,550250009012008,20,2566,58,MONROE & PROSPECT (WB)
43.062287,A0A197,-89.42137,000000,1867,550250009012015,21,2970,58,MONROE & EDGEWOOD (WB)
43.060752,A0A197,-89.423768,000000,1867,550250010001025,22,2524,58,MONROE & LEONARD (WB)
43.059374,A0A197,-89.425792,000000,1867,550250010001025,23,2290,58,MONROE & WEST LAWN (WB)
43.058219,A0A197,-89.427469,000000,1867,550250010001030,24,2856,58,MONROE & COMMONWEALTH (WB)
43.057409,A0A197,-89.428746,000000,1867,550250010001004,25,2380,58,MONROE & KNICKERBOCKER (WB)
43.056288,A0A197,-89.430408,000000,1867,550250010002001,26,2132,58,MONROE & PICKFORD (WB)
43.055183,A0A197,-89.43202,000000,1867,550250010002006,27,2838,58,MONROE & CHAPMAN (WB)
43.054074,A0A197,-89.433649,000000,1867,550250010002011,28,2914,58,MONROE & WESTERN (WB)
43.052792,A0A197,-89.43559,000000,1867,550250010002015,29,2112,58,MONROE & GLENWAY (WB)
43.051404,A0A197,-89.44002,000000,1867,550250010002018,30,2918,58,ODANA & HURON (WB)
43.051167,A0A197,-89.444133,000000,1867,550250004011037,31,2212,58,ODANA & FREDERICK (WB)
43.050778,A0A197,-89.446662,000000,1867,550250004011029,32,2114,58,ODANA & ANTHONY (WB)
43.050147,A0A197,-89.45155,000000,1867,550250004012018,33,2872,58,ODANA & MIDVALE (WB)
43.049871,A0A197,-89.455138,000000,1867,550250004012010,34,2786,58,ODANA & CHARLES (WB)
43.049967,A0A197,-89.45788,000000,1867,550250004022000,35,2224,58,ODANA & HILLTOP (WB)
43.050106,A0A197,-89.463386,000000,1867,550250004022011,36,2732,58,ODANA & WEDGEWOOD (WB)
43.050108,A0A197,-89.467017,000000,1867,550250004022012,37,2302,58,ODANA & DEARHOLT (WB)
43.050096,A0A197,-89.470554,000000,1867,550250004022006,38,2946,58,ODANA & SEGOE (WB)
43.049491,A0A197,-89.473676,000000,1867,550250004081010,39,2522,58,WHITNEY & ODANA (SB)
43.046404,A0A197,-89.477608,000000,1867,550250004081025,40,8814,58,SCHROEDER & SCHROEDER (WB)
43.046367,A0A197,-89.480763,000000,1867,550250004081025,41,8150,58,SCHROEDER & KESSEL (WB)
43.046425,A0A197,-89.48436,000000,1867,550250004081025,42,8862,58,SCHROEDER & WHITE OAKS (WB)
43.046034,A0A197,-89.4889,000000,1867,550250004073010,43,8236,58,HATHAWAY & SCHROEDER (SB)
43.053874,5383A5,-89.47553,000000,2483,550250004081021,1,6100,67,WEST TRANSFER POINT
43.054051,5383A5,-89.473336,000000,2483,550250004021011,2,2549,67,WHITNEY & TOKAY (NB)
43.056584,5383A5,-89.472783,000000,2483,550250004021010,3,2925,67,WHITNEY & SCIENCE (NB)
43.061043,5383A5,-89.472588,000000,2483,550250002011027,4,2160,67,MINERAL PT & WHITNEY (WB)
43.060976,5383A5,-89.47878,000000,2483,550250002012010,5,6820,67,MINERAL PT & ROSA (WB)
43.060957,5383A5,-89.482173,000000,2483,550250002012010,6,6482,67,MINERAL PT & CUNA (WB)
43.060957,5383A5,-89.486857,000000,2483,550250002022015,7,6724,67,MINERAL PT & ISLAND (WB)
43.060926,5383A5,-89.492316,000000,2483,550250002022010,8,6516,67,MINERAL PT & YELLOWSTONE (WB)
43.060885,5383A5,-89.497503,000000,2483,550250002022005,9,6330,67,MINERAL PT & GRND CANYON (WB)
43.060871,5383A5,-89.500763,000000,2483,550250002022005,10,6332,67,MINERAL PT & MEMORIAL HS (WB)
43.060846,5383A5,-89.503186,000000,2483,550250002041013,11,6418,67,MINERAL PT & GAMMON (WB)
43.060787,5383A5,-89.50817,000000,2483,550250002042012,12,6426,67,MINERAL PT & WESTFIELD (WB)
43.060729,5383A5,-89.513135,000000,2483,550250002043013,13,6984,67,MINERAL PT & RANDOLPH (WB)
43.060151,5383A5,-89.515741,000000,2483,550250004051004,14,6926,67,GANSER & MINERAL PT (SB)
43.059304,5383A5,-89.513541,000000,2483,550250004051004,15,6631,67,GANSER & D'ONOFRIO (EB)
43.057563,5383A5,-89.513782,000000,2483,550250004051018,16,6281,67,WEST TOWNE & D'ONOFRIO (EB)
43.057406,5383A5,-89.510752,000000,2483,550250004051019,17,6533,67,WEST TOWNE & KOHLS (EB)
43.058376,5383A5,-89.509183,000000,2483,550250004051024,18,6787,67,W TOWNE DR & CHILI'S (NB)
43.057389,5383A5,-89.503972,000000,2483,550250004051024,19,6350,67,W TOWNE RNG & SHELTER (SB)
43.05681,5383A5,-89.502672,000000,2483,550250004081005,20,6159,67,GAMMON & ODANA (NB)
43.060548,5383A5,-89.502256,000000,2483,550250004081006,21,6883,67,MINERAL PT & GAMMON (EB)
43.060621,5383A5,-89.496773,000000,2483,550250004081004,22,6903,67,MINERAL PT & GRND CANYON (EB)
43.060691,5383A5,-89.491681,000000,2483,550250004081001,23,6129,67,MINERAL PT & YELLOWSTONE (EB)
43.060696,5383A5,-89.487401,000000,2483,550250004081001,24,6941,67,MINERAL PT & ISLAND (EB)
43.060714,5383A5,-89.481592,000000,2483,550250004081001,25,6151,67,MINERAL PT & CUNA (EB)
43.060722,5383A5,-89.478147,000000,2483,550250004081000,26,2793,67,MINERAL PT & ROSA (EB)
43.060585,5383A5,-89.47225,000000,2483,550250004081000,27,2670,67,WHITNEY & MINERAL PT (SB)
43.05594,5383A5,-89.473471,000000,2483,550250004081021,28,2984,67,WHITNEY & SCIENCE (SB)
43.053885,5383A5,-89.473671,000000,2483,550250004081021,29,2312,67,WHITNEY & TOKAY (SB)
43.053874,5383A5,-89.47553,000000,2483,550250004081021,30,6100,67,WEST TRANSFER POINT
43.073333,A8B1DA,-89.38386,000000,2485,550250017042000,1,1101,70,MAIN & CARROLL (EB)
43.074989,A8B1DA,-89.382341,000000,2485,550250017051008,2,1787,70,PINCKNEY & MAIN (NB)
43.076045,A8B1DA,-89.384707,000000,2485,550250017053007,3,1100,70,MIFFLIN & PINCKNEY (WB)
43.074933,A8B1DA,-89.386107,000000,2485,550250017041001,4,1310,70,MIFFLIN & CARROLL (WB)
43.074793,A8B1DA,-89.387846,000000,2485,550250017041001,5,1558,70,STATE & DAYTON (WB)
43.074811,A8B1DA,-89.389575,000000,2485,550250017041003,6,898,70,STATE & W JOHNSON (WB)
43.074839,A8B1DA,-89.391389,000000,2485,550250016043004,7,252,70,STATE & GORHAM (WB)
43.073342,A8B1DA,-89.393873,000000,2485,550250016031002,8,428,70,GORHAM & BASSETT (WB)
43.073302,A8B1DA,-89.396115,000000,2485,550250016031004,9,568,70,UNIV AVE & FRANCES (WB)
43.073318,A8B1DA,-89.39797,000000,2485,550250011021004,10,670,70,UNIV AVE & LAKE (WB)
43.073367,A8B1DA,-89.401463,000000,2485,550250011021002,11,100,70,UNIV AVE & N PARK (WB)
43.073422,A8B1DA,-89.403854,000000,2485,550250011021002,12,234,70,UNIV AVE & MILLS (WB)
43.073427,A8B1DA,-89.407056,000000,2485,550250011022016,13,178,70,UNIV AVE & ORCHARD (WB)
43.073506,A8B1DA,-89.409432,000000,2485,550250011022016,14,160,70,UNIV AVE & RANDALL (WB)
43.073848,A8B1DA,-89.434612,000000,2485,550250101001023,15,2698,70,UNIV AVE & U BAY (WB)
43.074877,A8B1DA,-89.438444,000000,2485,550250101001023,16,2270,70,UNIV AVE & RIDGE (WB)
43.075378,A8B1DA,-89.441324,000000,2485,550250101001022,17,2642,70,UNIV AVE & SCHMITT (WB)
43.075364,A8B1DA,-89.443429,000000,2485,550250101001022,18,2714,70,UNIV AVE & SHOREWOOD (WB)
43.07543,A8B1DA,-89.446406,000000,2485,550250101002018,19,2268,70,UNIV AVE & BLACKHAWK (WB)
43.075488,A8B1DA,-89.451578,000000,2485,550250101002016,20,2200,70,UNIV AVE & MIDVALE (WB)
43.07545,A8B1DA,-89.456623,000000,2485,550250101002003,21,2370,70,UNIV AVE & SEGOE (WB)
43.076545,A8B1DA,-89.467769,000000,2485,550250001002010,22,2790,70,UNIV AVE & WHITNEY (WB)
43.078268,A8B1DA,-89.470391,000000,2485,550250001002007,23,2867,70,UNIV AVE & FLAMBEAU (NB)
43.080312,A8B1DA,-89.472673,000000,2485,550250001002001,24,2193,70,UNIV AVE & SPRING HARBOR (NB)
43.082424,A8B1DA,-89.475119,000000,2485,550250001002001,25,2197,70,UNIV AVE & NORMAN (NB)
43.084706,A8B1DA,-89.477774,000000,2485,550250001001011,26,6243,70,UNIV AVE & CAPITAL (NB)
43.08811,A8B1DA,-89.483146,000000,2485,550250001001004,27,6569,70,UNIV AVE & HEIM (NB)
43.090195,A8B1DA,-89.485712,000000,2485,550250001001017,28,6439,70,ALLEN & UNIV AVE (NB)
43.093922,A8B1DA,-89.485534,000000,2485,550250001001000,29,6171,70,ALLEN & MARSHALL PK (NB)
43.096507,A8B1DA,-89.485859,000000,2485,550250111012008,30,6301,70,ALLEN & MENDOTA (NB)
43.100351,A8B1DA,-89.486146,000000,2485,550250111012008,31,6691,70,ALLEN & MAYWOOD (NB)
43.102158,A8B1DA,-89.486132,000000,2485,550250111012008,32,6209,70,ALLEN & LAKE (NB)
43.105587,A8B1DA,-89.484422,000000,2485,550250111012000,33,6651,70,CENTURY & MARINA (EB)
43.107751,A8B1DA,-89.479966,000000,2485,550250111025010,34,6653,70,CENTURY & BASKERVILLE (EB)
43.110366,A8B1DA,-89.474547,000000,2485,550250111025003,35,6901,70,CENTURY & VALLEY RDG (EB)
43.113094,A8B1DA,-89.471989,000000,2485,550250111024017,36,6878,70,SOUTH RDG & HIGHWAY Q (WB)
43.112699,A8B1DA,-89.475114,000000,2485,550250111024003,37,6110,70,VALLEY RDG & SOUTH RDG (SB)
43.110616,A8B1DA,-89.47489,000000,2485,550250111024028,38,6560,70,VALLEY RDG & CENTURY (SB)
43.107922,A8B1DA,-89.48016,000000,2485,550250111024003,39,6582,70,CENTURY & BASKERVILLE (WB)
43.105928,A8B1DA,-89.484177,000000,2485,550250111024026,40,6120,70,CENTURY & MARINA (WB)
43.104203,A8B1DA,-89.489335,000000,2485,550250111024021,41,6674,70,CENTURY & AMHERST (WB)
43.104377,A8B1DA,-89.492923,000000,2485,550250111024021,42,6628,70,CENTURY & BRANCH (WB)
43.106691,A8B1DA,-89.498486,000000,2485,550250111022027,43,6288,70,CENTURY & DONNA (WB)
43.108917,A8B1DA,-89.501521,000000,2485,550250111022027,44,6388,70,CENTURY & PARK (WB)
43.111353,A8B1DA,-89.507008,000000,2485,550250111021019,45,6684,70,CENTURY & NORTHBROOK (WB)
43.111217,A8B1DA,-89.509762,000000,2485,550250109042029,46,6852,70,PARMENTER & CENTURY (SB)
43.105874,A8B1DA,-89.509984,000000,2485,550250111011003,47,6853,70,DONNA & PARMENTER (EB)
43.106,A8B1DA,-89.506557,000000,2485,550250111011003,48,6157,70,DONNA & NORTHBROOK (EB)
43.105758,A8B1DA,-89.502458,000000,2485,550250111011003,49,6929,70,DONNA & PARK (EB)
43.106228,A8B1DA,-89.498427,000000,2485,550250111011015,50,6943,70,DONNA & CENTURY (EB)
43.10428,A8B1DA,-89.493043,000000,2485,550250111013000,51,6485,70,CENTURY & BRANCH (EB)
43.102865,A8B1DA,-89.493009,000000,2485,550250111013000,52,6706,70,BRANCH & PHEASANT (SB)
43.100159,A8B1DA,-89.493662,000000,2485,550250111013022,53,6306,70,BRANCH & MAYWOOD (SB)
43.097888,A8B1DA,-89.494636,000000,2485,550250111013023,54,6650,70,BRANCH & FRANKLIN (SB)
43.096719,A8B1DA,-89.495909,000000,2485,550250111013023,55,6822,70,UNIV AVE & BRANCH (WB)
43.097087,A8B1DA,-89.498457,000000,2485,550250111013024,56,6632,70,UNIV AVE & MAYFLOWER (WB)
43.097137,A8B1DA,-89.500333,000000,2485,550250111013017,57,6220,70,UNIV AVE & PARK (WB)
43.095043,A8B1DA,-89.501861,000000,2485,550250110001025,58,6198,70,PARK & HUBBARD (SB)
43.092001,A8B1DA,-89.502038,000000,2485,550250110001026,59,6904,70,PARK & COOPER (SB)
43.088257,A8B1DA,-89.502201,000000,2485,550250110002011,60,6802,70,GAMMON & FORTUNE (SB)
43.087995,A8B1DA,-89.504273,000000,2485,550250110002011,61,6364,70,FORTUNE & SWEENEY (WB)
43.089542,A8B1DA,-89.508633,000000,2485,550250110002011,62,6345,70,MIDDLETON & SWEENEY (NB)
43.093127,A8B1DA,-89.508676,000000,2485,550250110002011,63,6947,70,MIDDLETON & SOUTH (NB)
43.094313,A8B1DA,-89.509369,000000,2485,550250110002000,64,6592,70,TERRACE & PARKING LOT (WB)
43.094615,A8B1DA,-89.511415,000000,2485,550250110002000,65,6966,70,TERRACE & PARMENTER (WB)
43.097276,A8B1DA,-89.511399,000000,2485,550250111013013,66,6333,70,PARMENTER & UNIV AVE (NB)
43.098825,A8B1DA,-89.511352,000000,2485,550250111013011,67,6801,70,PARMENTER & NORTH (NB)
43.10143,A8B1DA,-89.511281,000000,2485,550250111013006,68,6885,70,PARMENTER & LEE (NB)
43.102562,A8B1DA,-89.513109,000000,2485,550250109042019,69,6798,70,DISCOVERY & PARMENTER (WB)
43.101576,A8B1DA,-89.520853,000000,2485,550250109042015,70,6701,70,UW HEALTH & MIDDLETON TFR PT (EB)
43.073333,B67F72,-89.38386,000000,2486,550250017042000,1,1101,71,MAIN & CARROLL (EB)
43.074989,B67F72,-89.382341,000000,2486,550250017051008,2,1787,71,PINCKNEY & MAIN (NB)
43.076045,B67F72,-89.384707,000000,2486,550250017053007,3,1100,71,MIFFLIN & PINCKNEY (WB)
43.074933,B67F72,-89.386107,000000,2486,550250017041001,4,1310,71,MIFFLIN & CARROLL (WB)
43.074793,B67F72,-89.387846,000000,2486,550250017041001,5,1558,71,STATE & DAYTON (WB)
43.074811,B67F72,-89.389575,000000,2486,550250017041003,6,898,71,STATE & W JOHNSON (WB)
43.074839,B67F72,-89.391389,000000,2486,550250016043004,7,252,71,STATE & GORHAM (WB)
43.073342,B67F72,-89.393873,000000,2486,550250016031002,8,428,71,GORHAM & BASSETT (WB)
43.073302,B67F72,-89.396115,000000,2486,550250016031004,9,568,71,UNIV AVE & FRANCES (WB)
43.073318,B67F72,-89.39797,000000,2486,550250011021004,10,670,71,UNIV AVE & LAKE (WB)
43.073367,B67F72,-89.401463,000000,2486,550250011021002,11,100,71,UNIV AVE & N PARK (WB)
43.073422,B67F72,-89.403854,000000,2486,550250011021002,12,234,71,UNIV AVE & MILLS (WB)
43.073427,B67F72,-89.407056,000000,2486,550250011022016,13,178,71,UNIV AVE & ORCHARD (WB)
43.073506,B67F72,-89.409432,000000,2486,550250011022016,14,160,71,UNIV AVE & RANDALL (WB)
43.073848,B67F72,-89.434612,000000,2486,550250101001023,15,2698,71,UNIV AVE & U BAY (WB)
43.074877,B67F72,-89.438444,000000,2486,550250101001023,16,2270,71,UNIV AVE & RIDGE (WB)
43.075378,B67F72,-89.441324,000000,2486,550250101001022,17,2642,71,UNIV AVE & SCHMITT (WB)
43.075364,B67F72,-89.443429,000000,2486,550250101001022,18,2714,71,UNIV AVE & SHOREWOOD (WB)
43.07543,B67F72,-89.446406,000000,2486,550250101002018,19,2268,71,UNIV AVE & BLACKHAWK (WB)
43.075488,B67F72,-89.451578,000000,2486,550250101002016,20,2200,71,UNIV AVE & MIDVALE (WB)
43.07545,B67F72,-89.456623,000000,2486,550250101002003,21,2370,71,UNIV AVE & SEGOE (WB)
43.076545,B67F72,-89.467769,000000,2486,550250001002010,22,2790,71,UNIV AVE & WHITNEY (WB)
43.078268,B67F72,-89.470391,000000,2486,550250001002007,23,2867,71,UNIV AVE & FLAMBEAU (NB)
43.080312,B67F72,-89.472673,000000,2486,550250001002001,24,2193,71,UNIV AVE & SPRING HARBOR (NB)
43.082424,B67F72,-89.475119,000000,2486,550250001002001,25,2197,71,UNIV AVE & NORMAN (NB)
43.084706,B67F72,-89.477774,000000,2486,550250001001011,26,6243,71,UNIV AVE & CAPITAL (NB)
43.08811,B67F72,-89.483146,000000,2486,550250001001004,27,6569,71,UNIV AVE & HEIM (NB)
43.090195,B67F72,-89.485712,000000,2486,550250001001017,28,6439,71,ALLEN & UNIV AVE (NB)
43.093922,B67F72,-89.485534,000000,2486,550250001001000,29,6171,71,ALLEN & MARSHALL PK (NB)
43.09635,B67F72,-89.486383,000000,2486,550250111012007,30,6644,71,MENDOTA & ALLEN (WB)
43.096421,B67F72,-89.488886,000000,2486,550250111012007,31,6406,71,MENDOTA & GATEWAY (WB)
43.096294,B67F72,-89.494903,000000,2486,550250111012007,32,6142,71,MENDOTA & UNIV AVE (WB)
43.096719,B67F72,-89.495909,000000,2486,550250111013023,33,6822,71,UNIV AVE & BRANCH (WB)
43.097087,B67F72,-89.498457,000000,2486,550250111013024,34,6632,71,UNIV AVE & MAYFLOWER (WB)
43.097137,B67F72,-89.500333,000000,2486,550250111013017,35,6220,71,UNIV AVE & PARK (WB)
43.095043,B67F72,-89.501861,000000,2486,550250110001025,36,6198,71,PARK & HUBBARD (SB)
43.092001,B67F72,-89.502038,000000,2486,550250110001026,37,6904,71,PARK & COOPER (SB)
43.088257,B67F72,-89.502201,000000,2486,550250110002011,38,6802,71,GAMMON & FORTUNE (SB)
43.087995,B67F72,-89.504273,000000,2486,550250110002011,39,6364,71,FORTUNE & SWEENEY (WB)
43.089542,B67F72,-89.508633,000000,2486,550250110002011,40,6345,71,MIDDLETON & SWEENEY (NB)
43.093127,B67F72,-89.508676,000000,2486,550250110002011,41,6947,71,MIDDLETON & SOUTH (NB)
43.094313,B67F72,-89.509369,000000,2486,550250110002000,42,6592,71,TERRACE & PARKING LOT (WB)
43.094615,B67F72,-89.511415,000000,2486,550250110002000,43,6966,71,TERRACE & PARMENTER (WB)
43.097276,B67F72,-89.511399,000000,2486,550250111013013,44,6333,71,PARMENTER & UNIV AVE (NB)
43.098825,B67F72,-89.511352,000000,2486,550250111013011,45,6801,71,PARMENTER & NORTH (NB)
43.10143,B67F72,-89.511281,000000,2486,550250111013006,46,6885,71,PARMENTER & LEE (NB)
43.102562,B67F72,-89.513109,000000,2486,550250109042019,47,6798,71,DISCOVERY & PARMENTER (WB)
43.101576,B67F72,-89.520853,000000,2486,550250109042015,48,6701,71,UW HEALTH & MIDDLETON TFR PT (EB)
43.073333,98151F,-89.38386,FFFFFF,2487,550250017042000,1,1101,72,MAIN & CARROLL (EB)
43.074989,98151F,-89.382341,FFFFFF,2487,550250017051008,2,1787,72,PINCKNEY & MAIN (NB)
43.076045,98151F,-89.384707,FFFFFF,2487,550250017053007,3,1100,72,MIFFLIN & PINCKNEY (WB)
43.074933,98151F,-89.386107,FFFFFF,2487,550250017041001,4,1310,72,MIFFLIN & CARROLL (WB)
43.074793,98151F,-89.387846,FFFFFF,2487,550250017041001,5,1558,72,STATE & DAYTON (WB)
43.074811,98151F,-89.389575,FFFFFF,2487,550250017041003,6,898,72,STATE & W JOHNSON (WB)
43.074839,98151F,-89.391389,FFFFFF,2487,550250016043004,7,252,72,STATE & GORHAM (WB)
43.073342,98151F,-89.393873,FFFFFF,2487,550250016031002,8,428,72,GORHAM & BASSETT (WB)
43.073302,98151F,-89.396115,FFFFFF,2487,550250016031004,9,568,72,UNIV AVE & FRANCES (WB)
43.073318,98151F,-89.39797,FFFFFF,2487,550250011021004,10,670,72,UNIV AVE & LAKE (WB)
43.073367,98151F,-89.401463,FFFFFF,2487,550250011021002,11,100,72,UNIV AVE & N PARK (WB)
43.073422,98151F,-89.403854,FFFFFF,2487,550250011021002,12,234,72,UNIV AVE & MILLS (WB)
43.073427,98151F,-89.407056,FFFFFF,2487,550250011022016,13,178,72,UNIV AVE & ORCHARD (WB)
43.073506,98151F,-89.409432,FFFFFF,2487,550250011022016,14,160,72,UNIV AVE & RANDALL (WB)
43.073848,98151F,-89.434612,FFFFFF,2487,550250101001023,15,2698,72,UNIV AVE & U BAY (WB)
43.074877,98151F,-89.438444,FFFFFF,2487,550250101001023,16,2270,72,UNIV AVE & RIDGE (WB)
43.075378,98151F,-89.441324,FFFFFF,2487,550250101001022,17,2642,72,UNIV AVE & SCHMITT (WB)
43.075364,98151F,-89.443429,FFFFFF,2487,550250101001022,18,2714,72,UNIV AVE & SHOREWOOD (WB)
43.07543,98151F,-89.446406,FFFFFF,2487,550250101002018,19,2268,72,UNIV AVE & BLACKHAWK (WB)
43.075488,98151F,-89.451578,FFFFFF,2487,550250101002016,20,2200,72,UNIV AVE & MIDVALE (WB)
43.07545,98151F,-89.456623,FFFFFF,2487,550250101002003,21,2370,72,UNIV AVE & SEGOE (WB)
43.076545,98151F,-89.467769,FFFFFF,2487,550250001002010,22,2790,72,UNIV AVE & WHITNEY (WB)
43.078268,98151F,-89.470391,FFFFFF,2487,550250001002007,23,2867,72,UNIV AVE & FLAMBEAU (NB)
43.080312,98151F,-89.472673,FFFFFF,2487,550250001002001,24,2193,72,UNIV AVE & SPRING HARBOR (NB)
43.082424,98151F,-89.475119,FFFFFF,2487,550250001002001,25,2197,72,UNIV AVE & NORMAN (NB)
43.084706,98151F,-89.477774,FFFFFF,2487,550250001001011,26,6243,72,UNIV AVE & CAPITAL (NB)
43.08811,98151F,-89.483146,FFFFFF,2487,550250001001004,27,6569,72,UNIV AVE & HEIM (NB)
43.090195,98151F,-89.485712,FFFFFF,2487,550250001001017,28,6439,72,ALLEN & UNIV AVE (NB)
43.093922,98151F,-89.485534,FFFFFF,2487,550250001001000,29,6171,72,ALLEN & MARSHALL PK (NB)
43.096507,98151F,-89.485859,FFFFFF,2487,550250111012008,30,6301,72,ALLEN & MENDOTA (NB)
43.100351,98151F,-89.486146,FFFFFF,2487,550250111012008,31,6691,72,ALLEN & MAYWOOD (NB)
43.102158,98151F,-89.486132,FFFFFF,2487,550250111012008,32,6209,72,ALLEN & LAKE (NB)
43.104203,98151F,-89.489335,FFFFFF,2487,550250111024021,49,6674,72,CENTURY & AMHERST (WB)
43.104377,98151F,-89.492923,FFFFFF,2487,550250111024021,50,6628,72,CENTURY & BRANCH (WB)
43.106691,98151F,-89.498486,FFFFFF,2487,550250111022027,51,6288,72,CENTURY & DONNA (WB)
43.108917,98151F,-89.501521,FFFFFF,2487,550250111022027,52,6388,72,CENTURY & PARK (WB)
43.111353,98151F,-89.507008,FFFFFF,2487,550250111021019,57,6684,72,CENTURY & NORTHBROOK (WB)
43.111659,98151F,-89.510421,FFFFFF,2487,550250109042022,58,6264,72,CENTURY & PARMENTER (WB)
43.111616,98151F,-89.514173,FFFFFF,2487,550250109042022,59,6704,72,CENTURY & LAURA (WB)
43.110212,98151F,-89.521217,FFFFFF,2487,550250109042012,60,6486,72,NURSERY & FORSYTHIA (SB)
43.106008,98151F,-89.520846,FFFFFF,2487,550250109042013,61,6859,72,DEMING & NURSERY (EB)
43.101576,98151F,-89.520853,FFFFFF,2487,550250109042015,62,6701,72,UW HEALTH & MIDDLETON TFR PT (EB)
43.053874,EDB819,-89.47553,000000,2488,550250004081021,1,6100,73,WEST TRANSFER POINT
43.053544,EDB819,-89.480319,000000,2488,550250004081021,2,6296,73,TOKAY & UW RESEARCH PK (WB)
43.051597,EDB819,-89.481673,000000,2488,550250004081009,3,6952,73,ODANA & TOKAY (WB)
43.052448,EDB819,-89.483447,000000,2488,550250004081009,4,6154,73,ODANA & SMART MOTORS (WB)
43.053645,EDB819,-89.486266,000000,2488,550250004081001,5,6188,73,ODANA & RESEARCH PK (WB)
43.055129,EDB819,-89.491723,000000,2488,550250004081023,6,6266,73,ODANA & POTOMAC (WB)
43.056702,EDB819,-89.49655,000000,2488,550250004081005,7,6382,73,ODANA & GRND CANYON (WB)
43.056682,EDB819,-89.500363,000000,2488,550250004081005,8,6638,73,ODANA & TOWN CTR SQR (WB)
43.055498,EDB819,-89.503213,000000,2488,550250004051019,9,6422,73,GAMMON & ODANA (SB)
43.050234,EDB819,-89.503589,000000,2488,550250004052002,10,6938,73,WATTS & GAMMON (WB)
43.050687,EDB819,-89.508306,000000,2488,550250004052006,11,6464,73,WATTS & WALMART (WB)
43.050776,EDB819,-89.511032,000000,2488,550250004052007,12,6720,73,WATTS & SKY RDG (WB)
43.051125,EDB819,-89.513992,000000,2488,550250004052002,13,6204,73,WATTS & BURBERRY (WB)
43.052122,EDB819,-89.518129,000000,2488,550250004061005,14,6630,73,WATTS & HIGH PT (WB)
43.054293,EDB819,-89.520554,000000,2488,550250004061005,15,6504,73,WATTS & PRINCETON CLUB (WB)
43.055165,EDB819,-89.523303,000000,2488,550250004061007,16,6842,73,WATTS & COMMERCE (WB)
43.055608,EDB819,-89.525565,000000,2488,550250004061008,17,6622,73,WATTS & PLAZA (WB)
43.062674,EDB819,-89.527162,000000,2488,550250109011136,18,6453,73,JUNCTION & PRAIRIE TWN CTR (NB)
43.065214,EDB819,-89.525544,000000,2488,550250109011096,19,6925,73,JUNCTION & COPPS (NB)
43.066728,EDB819,-89.524119,000000,2488,550250109011096,20,6551,73,JUNCTION & GATEWAY CTRY (NB)
43.068671,EDB819,-89.524157,000000,2488,550250109011096,21,6273,73,JUNCTION & HARBOUR TOWN (NB)
43.072095,EDB819,-89.525077,000000,2488,550250109011096,22,6365,73,JUNCTION & CITY CENTER W (NB)
43.073827,EDB819,-89.526508,000000,2488,550250109011096,23,6605,73,JUNCTION & ATTIC ANGEL (NB)
43.074963,EDB819,-89.527647,000000,2488,550250109011091,24,6700,73,OLD SAUK & JUNCTION (WB)
43.075011,EDB819,-89.531321,000000,2488,550250109011093,25,6342,73,OLD SAUK & SAMUEL (WB)
43.075253,EDB819,-89.532741,000000,2488,550250109011091,26,6867,73,HEARTLAND & OLD SAUK (NB)
43.07658,EDB819,-89.531002,000000,2488,550250109011017,27,6137,73,EXCELSIOR & DEMING (EB)
43.079319,EDB819,-89.529198,000000,2488,550250109011017,28,6843,73,EXCELSIOR & 8417 (NB)
43.080139,EDB819,-89.524526,000000,2488,550250109011022,29,6823,73,FOURIER & EXCELSIOR (NB)
43.082234,EDB819,-89.524628,000000,2488,550250109011179,30,6689,73,FOURIER & J Q HAMMONS (NB)
43.084088,EDB819,-89.526965,000000,2488,550250109011007,31,6931,73,FOURIER & 1233 (NB)
43.085746,EDB819,-89.528658,000000,2488,550250109011006,32,6850,73,DEMING & FOURIER (WB)
43.085514,EDB819,-89.532584,000000,2488,550250109011005,33,6750,73,GIALAMAS & DEMING (WB)
43.086408,EDB819,-89.533808,000000,2488,550250109011004,34,6141,73,GREENWAY & GIALAMAS (NB)
43.088013,EDB819,-89.5326,000000,2488,550250109011004,35,6355,73,GREENWAY & DEER CK APTS (NB)
43.090219,EDB819,-89.529859,000000,2488,550250109011003,36,6889,73,GREENWAY & ASPEN (EB)
43.089995,EDB819,-89.526705,000000,2488,550250109011002,37,6733,73,GREENWAY & DEMING (EB)
43.090522,EDB819,-89.52456,000000,2488,550250109044011,38,6667,73,J Q HAMMONS & GREENWAY (NB)
43.09393,EDB819,-89.524904,000000,2488,550250109044011,39,6983,73,DEMING & J Q HAMMONS (NB)
43.095237,EDB819,-89.523498,000000,2488,550250109044010,40,6261,73,DEMING & TERRACE (NB)
43.098275,EDB819,-89.522797,000000,2488,550250109042019,41,6231,73,DEMING & MURPHY (NB)
43.099028,EDB819,-89.519437,000000,2488,550250109042019,42,6111,73,DEMING & PARK BANK (EB)
43.101576,EDB819,-89.520853,000000,2488,550250109042015,43,6701,73,UW HEALTH & MIDDLETON TFR PT (EB)
43.073333,CB5D2F,-89.38386,000000,2489,550250017042000,1,1101,74,MAIN & CARROLL (EB)
43.074989,CB5D2F,-89.382341,000000,2489,550250017051008,2,1787,74,PINCKNEY & MAIN (NB)
43.076045,CB5D2F,-89.384707,000000,2489,550250017053007,3,1100,74,MIFFLIN & PINCKNEY (WB)
43.074933,CB5D2F,-89.386107,000000,2489,550250017041001,4,1310,74,MIFFLIN & CARROLL (WB)
43.074793,CB5D2F,-89.387846,000000,2489,550250017041001,5,1558,74,STATE & DAYTON (WB)
43.074811,CB5D2F,-89.389575,000000,2489,550250017041003,6,898,74,STATE & W JOHNSON (WB)
43.074839,CB5D2F,-89.391389,000000,2489,550250016043004,7,252,74,STATE & GORHAM (WB)
43.073367,CB5D2F,-89.401463,000000,2489,550250011021002,8,100,74,UNIV AVE & N PARK (WB)
43.073506,CB5D2F,-89.409432,000000,2489,550250011022016,9,160,74,UNIV AVE & RANDALL (WB)
43.073848,CB5D2F,-89.434612,000000,2489,550250101001023,10,2698,74,UNIV AVE & U BAY (WB)
43.075488,CB5D2F,-89.451578,000000,2489,550250101002016,11,2200,74,UNIV AVE & MIDVALE (WB)
43.07545,CB5D2F,-89.456623,000000,2489,550250101002003,12,2370,74,UNIV AVE & SEGOE (WB)
43.082424,CB5D2F,-89.475119,000000,2489,550250001002001,13,2197,74,UNIV AVE & NORMAN (NB)
43.084706,CB5D2F,-89.477774,000000,2489,550250001001011,14,6243,74,UNIV AVE & CAPITAL (NB)
43.08811,CB5D2F,-89.483146,000000,2489,550250001001004,15,6569,74,UNIV AVE & HEIM (NB)
43.090346,CB5D2F,-89.486719,000000,2489,550250111012018,16,6698,74,UNIV AVE & ALLEN (WB)
43.092383,CB5D2F,-89.489697,000000,2489,550250111012018,17,6147,74,UNIV AVE & GATEWAY (NB)
43.095359,CB5D2F,-89.493891,000000,2489,550250111012013,18,6835,74,UNIV AVE & MAPLE (NB)
43.096719,CB5D2F,-89.495909,000000,2489,550250111013023,19,6822,74,UNIV AVE & BRANCH (WB)
43.097087,CB5D2F,-89.498457,000000,2489,550250111013024,20,6632,74,UNIV AVE & MAYFLOWER (WB)
43.097137,CB5D2F,-89.500333,000000,2489,550250111013017,21,6220,74,UNIV AVE & PARK (WB)
43.097075,CB5D2F,-89.504633,000000,2489,550250111013015,22,6132,74,UNIV AVE & PARK LAWN (WB)
43.09698,CB5D2F,-89.508678,000000,2489,550250111013013,23,6156,74,UNIV AVE & MIDDLETON (WB)
43.097276,CB5D2F,-89.511399,000000,2489,550250111013013,24,6333,74,PARMENTER & UNIV AVE (NB)
43.098825,CB5D2F,-89.511352,000000,2489,550250111013011,25,6801,74,PARMENTER & NORTH (NB)
43.10143,CB5D2F,-89.511281,000000,2489,550250111013006,26,6885,74,PARMENTER & LEE (NB)
43.102562,CB5D2F,-89.513109,000000,2489,550250109042019,27,6798,74,DISCOVERY & PARMENTER (WB)
43.101576,CB5D2F,-89.520853,000000,2489,550250109042015,28,6701,74,UW HEALTH & MIDDLETON TFR PT (EB)
43.101272,CB5D2F,-89.518416,000000,2489,550250109042019,29,6924,74,DEMING & DISCOVERY (SB)
43.099067,CB5D2F,-89.519645,000000,2489,550250109042019,30,6470,74,DEMING & COUNTRY INN (WB)
43.098146,CB5D2F,-89.523248,000000,2489,550250109042019,31,6656,74,DEMING & MURPHY (SB)
43.095584,CB5D2F,-89.523672,000000,2489,550250109044008,32,6304,74,DEMING & TERRACE (SB)
43.093243,CB5D2F,-89.526617,000000,2489,550250109044008,33,6240,74,DEMING & MARKET (SB)
43.092986,CB5D2F,-89.530088,000000,2489,550250109044008,34,6138,74,MARKET & ASPEN (WB)
43.092812,CB5D2F,-89.532421,000000,2489,550250109044008,35,6816,74,MARKET & RESEARCH (WB)
43.093357,CB5D2F,-89.534282,000000,2489,550250109044008,36,6562,74,QUARRY & RESEARCH (WB)
43.097389,CB5D2F,-89.5344,000000,2489,550250109042018,37,6845,74,UNIV GRN & PLEASANT VW (EB)
43.098304,CB5D2F,-89.532101,000000,2489,550250109042018,38,6163,74,PARVIEW & MURPHY (NB)
43.102968,CB5D2F,-89.532066,000000,2489,550250109042015,39,6993,74,PARVIEW & FAIRWAY (NB)
43.103198,CB5D2F,-89.535954,000000,2489,550250109042015,40,6774,74,FAIRWAY & PLEASANT VW (WB)
43.107389,CB5D2F,-89.535976,000000,2489,550250109042032,41,6851,74,PLEASANT VW & ETC CORP (NB)
43.109664,CB5D2F,-89.537767,000000,2489,550250109042015,42,6479,74,PLEASANT VW & AIRPORT (NB)
43.109934,CB5D2F,-89.529321,000000,2489,550250109042013,43,6672,74,DEMING & FORSYTHIA (SB)
43.10601,CB5D2F,-89.526419,000000,2489,550250109042013,44,6759,74,DEMING & ARTS STUDIO (EB)
43.106008,CB5D2F,-89.520846,000000,2489,550250109042013,45,6859,74,DEMING & NURSERY (EB)
43.101576,CB5D2F,-89.520853,000000,2489,550250109042015,46,6701,74,UW HEALTH & MIDDLETON TFR PT (EB)
43.074989,FF9400,-89.382341,000000,5247,550250017051008,1,1787,75,PINCKNEY & MAIN (NB)
43.076045,FF9400,-89.384707,000000,5247,550250017053007,2,1100,75,MIFFLIN & PINCKNEY (WB)
43.074513,FF9400,-89.386185,000000,5247,550250017041005,3,1324,75,CARROLL & MIFFLIN (SB)
43.073381,FF9400,-89.386088,000000,5247,550250017041005,4,1790,75,WEST WASH & FAIRCHILD (WB)
43.07273,FF9400,-89.387032,000000,5247,550250017041006,5,168,75,WEST WASH & HENRY (WB)
43.071239,FF9400,-89.38925,000000,5247,550250016062001,6,274,75,WEST WASH & BROOM (WB)
43.070037,FF9400,-89.390899,000000,5247,550250016062002,7,512,75,WEST WASH & BASSETT (WB)
43.069019,FF9400,-89.392346,000000,5247,550250016062002,8,418,75,WEST WASH & BEDFORD (WB)
43.06791,FF9400,-89.393935,000000,5247,550250016063000,9,768,75,WEST WASH & SW COMMUTER (WB)
43.059675,FF9400,-89.400974,000000,5247,550250012002019,10,288,75,S PARK & ERIN (SB)
43.038422,FF9400,-89.404152,000000,5247,550250014021036,11,816,75,FISH HATCHERY & BADGER (SB)
43.018986,FF9400,-89.419776,000000,5247,550250014032015,12,4894,75,S FISH HATCHERY & CADDIS (SB)
42.994048,FF9400,-89.519372,000000,5247,550250108004048,13,4838,75,VERONA & HOMETOWN (WB)
42.992915,FF9400,-89.526556,000000,5247,550250108004044,14,4556,75,VERONA & ENTERPRISE (WB)
42.990477,FF9400,-89.534049,000000,5247,550250108001036,15,4732,75,VERONA & MAIN (WB)
42.98918,FF9400,-89.540719,000000,5247,550250108001046,16,4310,75,VERONA & LEGION (WB)
42.988468,FF9400,-89.545943,000000,5247,550250108001045,17,4918,75,VERONA & HALF MILE (WB)
42.990644,FF9400,-89.560642,000000,5247,550250108002040,18,4557,75,NORTHERN LTS & BRECKENRIDGE (NB)
42.995467,FF9400,-89.564477,000000,5247,550250108003007,19,4400,75,STAFF B & EPIC (SB)
43.075933,CE3023,-89.400154,000000,1872,550250011021000,1,10,80,LANGDON & N PARK (WB)
43.075913,CE3023,-89.403618,000000,1872,550250011022000,2,60,80,OBSERVATORY & BASCOM (WB)
43.076069,CE3023,-89.405625,000000,1872,550250011022000,3,52,80,OBSERVATORY & CHARTER (WB)
43.075144,CE3023,-89.40754,000000,1872,550250011022005,4,488,80,LINDEN & CHARTER (WB)
43.075181,CE3023,-89.410405,000000,1872,550250011022005,5,184,80,LINDEN & HENRY MALL (WB)
43.075201,CE3023,-89.412309,000000,1872,550250011022005,6,532,80,LINDEN & BABCOCK (WB)
43.076463,CE3023,-89.412947,000000,1872,550250011022001,7,2996,80,OBSERVATORY & BABCOCK (WB)
43.076484,CE3023,-89.416199,000000,1872,550250011022002,8,2978,80,OBSERVATORY & ELM (WB)
43.076562,CE3023,-89.419326,000000,1872,550250011022002,9,2442,80,OBSERVATORY & NATATORIUM (WB)
43.076624,CE3023,-89.425635,000000,1872,550250032001007,10,2088,80,OBSERVATORY & WALNUT (WB)
43.077269,CE3023,-89.428881,000000,1872,550250032001012,11,2125,80,HIGHLAND & OBSERVATORY (NB)
43.078818,CE3023,-89.430017,000000,1872,550250032001007,12,2023,80,MARSH & HIGHLAND (EB)
43.080288,CE3023,-89.428135,000000,1872,550250032001002,13,2027,80,U BAY & LOT 60 (NB)
43.084191,CE3023,-89.428835,000000,1872,550250032001000,14,2938,80,U BAY & PICNIC PT (WB)
43.084274,CE3023,-89.433567,000000,1872,550250032001000,15,2041,80,LAKE MENDOTA & U BAY (NB)
43.086257,CE3023,-89.434877,000000,1872,550250032001001,16,2018,80,EAGLE HTS & LOT E (WB)
43.08619,CE3023,-89.436434,000000,1872,550250032001001,17,2026,80,EAGLE HTS & LOT F (WB)
43.086324,CE3023,-89.438598,000000,1872,550250032001001,18,2082,80,EAGLE HTS & SHELTER (WB)
43.075144,A95305,-89.40754,000000,3643,550250011022005,1,488,84,LINDEN & CHARTER (WB)
43.075201,A95305,-89.412309,000000,3643,550250011022005,2,532,84,LINDEN & BABCOCK (WB)
43.076562,A95305,-89.419326,000000,3643,550250011022002,3,2442,84,OBSERVATORY & NATATORIUM (WB)
43.078938,A95305,-89.426671,000000,3643,550250032001002,4,2240,84,MARSH & LOT 60 (WB)
43.084274,A95305,-89.433567,000000,3643,550250032001000,5,2041,84,LAKE MENDOTA & U BAY (NB)
43.086257,A95305,-89.434877,000000,3643,550250032001001,6,2018,84,EAGLE HTS & LOT E (WB)
43.08619,A95305,-89.436434,000000,3643,550250032001001,7,2026,84,EAGLE HTS & LOT F (WB)
43.086324,A95305,-89.438598,000000,3643,550250032001001,8,2082,84,EAGLE HTS & SHELTER (WB)
43.086668,A95305,-89.441711,000000,3643,550250032001001,9,2054,84,EAGLE HTS & LOT M (WB)
43.089087,A95305,-89.438265,000000,3643,550250032001001,10,2039,84,LAKE MENDOTA & LOT N (NB)
43.089721,A95305,-89.437322,000000,3643,550250032001001,11,2061,84,LAKE MENDOTA & LOT P (NB)
43.090518,A95305,-89.435667,000000,3643,550250032001003,12,2071,84,LAKE MENDOTA & LOT Q (NB)
43.089333,A95305,-89.433693,000000,3643,550250032001001,13,2014,84,LAKE MENDOTA & LOT R (SB)
43.086347,A95305,-89.433704,000000,3643,550250032001001,14,2034,84,LAKE MENDOTA & EAGLE HTS (SB)
43.075144,A95305,-89.40754,000000,3643,550250011022005,15,488,84,LINDEN & CHARTER (WB)
43.075933,F48C23,-89.400154,000000,1873,550250011021000,1,10,81,LANGDON & N PARK (WB)
43.075913,F48C23,-89.403618,000000,1873,550250011022000,2,60,81,OBSERVATORY & BASCOM (WB)
43.076069,F48C23,-89.405625,000000,1873,550250011022000,3,52,81,OBSERVATORY & CHARTER (WB)
43.076628,F48C23,-89.407047,000000,1873,550250011022000,4,56,81,OBSERVATORY & LIZ WATERS (WB)
43.076463,F48C23,-89.412947,000000,1873,550250011022001,5,2996,81,OBSERVATORY & BABCOCK (WB)
43.07623,F48C23,-89.416055,000000,1873,550250011022003,6,2064,81,ELM & OBSERVATORY (SB)
43.075075,F48C23,-89.413129,000000,1873,550250011022015,7,2003,81,LINDEN & BABCOCK (EB)
43.075039,F48C23,-89.41024,000000,1873,550250011022017,8,573,81,LINDEN & HENRY MALL (EB)
43.074985,F48C23,-89.406475,000000,1873,550250011022016,9,438,81,LINDEN & CHARTER (EB)
43.074079,F48C23,-89.406253,000000,1873,550250011022016,10,706,81,CHARTER & UNIV AVE (SB)
43.072388,F48C23,-89.405846,000000,1873,550250011012000,11,490,81,CHARTER & W JOHNSON (SB)
43.072093,F48C23,-89.404315,000000,1873,550250011011003,12,741,81,W JOHNSON & MILLS (EB)
43.072027,F48C23,-89.400138,000000,1873,550250016064002,13,455,81,W JOHNSON & N PARK (EB)
43.073034,F48C23,-89.397332,000000,1873,550250016032001,14,765,81,LAKE & UNIV AVE (NB)
43.074321,F48C23,-89.397315,000000,1873,550250016031005,15,91,81,LAKE & STATE (NB)
43.075921,F48C23,-89.397611,000000,1873,550250011021000,16,40,81,LANGDON & LAKE (WB)
43.075933,F48C23,-89.400154,000000,1873,550250011021000,17,10,81,LANGDON & N PARK (WB)
43.075933,0068B5,-89.400154,000000,1874,550250011021000,1,10,82,LANGDON & N PARK (WB)
43.073367,0068B5,-89.401463,000000,1874,550250011021002,2,100,82,UNIV AVE & N PARK (WB)
43.073422,0068B5,-89.403854,000000,1874,550250011021002,3,234,82,UNIV AVE & MILLS (WB)
43.073427,0068B5,-89.407056,000000,1874,550250011022016,4,178,82,UNIV AVE & ORCHARD (WB)
43.073506,0068B5,-89.409432,000000,1874,550250011022016,5,160,82,UNIV AVE & RANDALL (WB)
43.073169,0068B5,-89.413972,000000,1874,550250009021003,6,542,82,BREESE & UNIV AVE (SB)
43.070448,0068B5,-89.414016,000000,1874,550250009021008,7,454,82,BREESE & HOYT (SB)
43.067782,0068B5,-89.413476,000000,1874,550250011012014,8,533,82,REGENT & BREESE (EB)
43.067729,0068B5,-89.409231,000000,1874,550250012003000,9,971,82,REGENT & RANDALL (EB)
43.067722,0068B5,-89.407559,000000,1874,550250012004004,10,583,82,REGENT & ORCHARD (EB)
43.067669,0068B5,-89.4038,000000,1874,550250012004001,11,327,82,REGENT & MILLS (EB)
43.068063,0068B5,-89.400749,000000,1874,550250016063003,12,115,82,N PARK & REGENT (NB)
43.069205,0068B5,-89.400796,000000,1874,550250016063003,13,483,82,N PARK & SPRING (NB)
43.070794,0068B5,-89.400718,000000,1874,550250016063002,14,561,82,N PARK & DAYTON (NB)
43.070865,0068B5,-89.398733,000000,1874,550250016063001,15,73,82,DAYTON & E CAMPUS MALL (EB)
43.070847,0068B5,-89.395205,000000,1874,550250016062004,16,853,82,DAYTON & MARION (EB)
43.069775,0068B5,-89.393793,000000,1874,550250016062004,17,558,82,BEDFORD & MIFFLIN (SB)
43.068993,0068B5,-89.39214,000000,1874,550250016051003,18,967,82,WEST WASH & BEDFORD (EB)
43.069851,0068B5,-89.390442,000000,1874,550250016051003,19,710,82,BASSETT & WEST WASH (SB)
43.068607,0068B5,-89.388929,000000,1874,550250016051002,20,520,82,BASSETT & DOTY (SB)
43.068441,0068B5,-89.387009,000000,1874,550250016052001,21,313,82,WILSON & BASSETT (EB)
43.07015,0068B5,-89.387089,000000,1874,550250017042010,22,161,82,BROOM & DOTY (NB)
43.071306,0068B5,-89.388566,000000,1874,550250017042012,23,965,82,BROOM & WEST WASH (NB)
43.073066,0068B5,-89.391032,000000,1874,550250017041009,24,593,82,BROOM & DAYTON (NB)
43.074081,0068B5,-89.392363,000000,1874,550250016031000,25,87,82,BROOM & GORHAM (NB)
43.073342,0068B5,-89.393873,000000,1874,550250016031002,26,428,82,GORHAM & BASSETT (WB)
43.073302,0068B5,-89.396115,000000,1874,550250016031004,27,568,82,UNIV AVE & FRANCES (WB)
43.074321,0068B5,-89.397315,000000,1874,550250016031005,28,91,82,LAKE & STATE (NB)
43.075921,0068B5,-89.397611,000000,1874,550250011021000,29,40,82,LANGDON & LAKE (WB)
43.075933,0068B5,-89.400154,000000,1874,550250011021000,30,10,82,LANGDON & N PARK (WB)
