stop_id,stop_name,stop_lat,stop_lon,route_short_name,route_id,route_color,route_text_color,stop_sequence
2561,UNIV AVE & HIGHLAND (EB),43.072025,-89.428286,01,1826,E3D23E,000000,1
2605,UNIV AVE & WALNUT (EB),43.072282,-89.42482,01,1826,E3D23E,000000,2
2717,UNIV AVE & FOREST (EB),43.072703,-89.421277,01,1826,E3D23E,000000,3
2921,UNIV AVE & PRINCETON (EB),43.073222,-89.417524,01,1826,E3D23E,000000,4
133,UNIV AVE & BREESE (EB),43.073337,-89.413257,01,1826,E3D23E,000000,5
809,CAMPUS & BABCOCK RR (EB),43.073266,-89.411092,01,1826,E3D23E,000000,6
581,W JOHNSON & CHARTER (EB),43.072094,-89.406012,01,1826,E3D23E,000000,7
741,W JOHNSON & MILLS (EB),43.072093,-89.404315,01,1826,E3D23E,000000,8
455,W JOHNSON & N PARK (EB),43.072027,-89.400138,01,1826,E3D23E,000000,9
435,W JOHNSON & LAKE (EB),43.071984,-89.39718,01,1826,E3D23E,000000,10
941,W JOHNSON & FRANCES (EB),43.071968,-89.395488,01,1826,E3D23E,000000,11
470,BASSETT & DAYTON (SB),43.071687,-89.392872,01,1826,E3D23E,000000,12
710,BASSETT & WEST WASH (SB),43.069851,-89.390442,01,1826,E3D23E,000000,13
520,BASSETT & DOTY (SB),43.068607,-89.388929,01,1826,E3D23E,000000,14
313,WILSON & BASSETT (EB),43.068441,-89.387009,01,1826,E3D23E,000000,15
791,WILSON & HAMILTON (EB),43.070286,-89.384452,01,1826,E3D23E,000000,16
1101,MAIN & CARROLL (EB),43.073333,-89.38386,01,1826,E3D23E,000000,17
1787,PINCKNEY & MAIN (NB),43.074989,-89.382341,01,1826,E3D23E,000000,18
2175,SHEBOYGAN & EAU CLAIRE (EB),43.072917,-89.463696,02,1827,AF0067,FFFFFF,9
2101,SHEBOYGAN & STATE OFFICE (EB),43.072765,-89.459507,02,1827,AF0067,FFFFFF,10
2395,SHEBOYGAN & SEGOE (EB),43.072941,-89.457299,02,1827,AF0067,FFFFFF,11
2752,SEGOE & 518 SEGOE (SB),43.071655,-89.455834,02,1827,AF0067,FFFFFF,12
2501,HILLDALE DR & MALL (EB),43.071304,-89.452812,02,1827,AF0067,FFFFFF,13
2741,MIDVALE & HEATHER CR (NB),43.071719,-89.450996,02,1827,AF0067,FFFFFF,14
2191,UNIV AVE & MIDVALE (EB),43.075163,-89.450398,02,1827,AF0067,FFFFFF,15
2755,UNIV AVE & BLACKHAWK (EB),43.075172,-89.447094,02,1827,AF0067,FFFFFF,16
2595,UNIV AVE & SHOREWOOD (EB),43.075113,-89.443898,02,1827,AF0067,FFFFFF,17
2715,UNIV AVE & SCHMITT (EB),43.075127,-89.441055,02,1827,AF0067,FFFFFF,18
2945,UNIV AVE & RIDGE (EB),43.074633,-89.438481,02,1827,AF0067,FFFFFF,19
2131,U BAY & UNIV AVE (NB),43.073971,-89.433665,02,1827,AF0067,FFFFFF,20
2473,HIGHLAND & WAISMAN CTR (NB),43.078181,-89.433241,02,1827,AF0067,FFFFFF,21
2349,HIGHLAND & MARSH (EB),43.078504,-89.430495,02,1827,AF0067,FFFFFF,22
2916,HIGHLAND & OBSERVATORY (SB),43.076839,-89.429079,02,1827,AF0067,FFFFFF,23
2822,HIGHLAND & VA HOSP (SB),43.074538,-89.428895,02,1827,AF0067,FFFFFF,24
2561,UNIV AVE & HIGHLAND (EB),43.072025,-89.428286,02,1827,AF0067,FFFFFF,25
2605,UNIV AVE & WALNUT (EB),43.072282,-89.42482,02,1827,AF0067,FFFFFF,26
2717,UNIV AVE & FOREST (EB),43.072703,-89.421277,02,1827,AF0067,FFFFFF,27
2921,UNIV AVE & PRINCETON (EB),43.073222,-89.417524,02,1827,AF0067,FFFFFF,28
133,UNIV AVE & BREESE (EB),43.073337,-89.413257,02,1827,AF0067,FFFFFF,29
809,CAMPUS & BABCOCK RR (EB),43.073266,-89.411092,02,1827,AF0067,FFFFFF,30
581,W JOHNSON & CHARTER (EB),43.072094,-89.406012,02,1827,AF0067,FFFFFF,31
741,W JOHNSON & MILLS (EB),43.072093,-89.404315,02,1827,AF0067,FFFFFF,32
455,W JOHNSON & N PARK (EB),43.072027,-89.400138,02,1827,AF0067,FFFFFF,33
435,W JOHNSON & LAKE (EB),43.071984,-89.39718,02,1827,AF0067,FFFFFF,34
941,W JOHNSON & FRANCES (EB),43.071968,-89.395488,02,1827,AF0067,FFFFFF,35
555,W JOHNSON & BASSETT (EB),43.072371,-89.393298,02,1827,AF0067,FFFFFF,36
839,W JOHNSON & BROOM (EB),43.073638,-89.391446,02,1827,AF0067,FFFFFF,37
883,STATE & FAIRCHILD (EB),43.074713,-89.388266,02,1827,AF0067,FFFFFF,38
1663,STATE & MIFFLIN (EB),43.074668,-89.386819,02,1827,AF0067,FFFFFF,39
1101,MAIN & CARROLL (EB),43.073333,-89.38386,02,1827,AF0067,FFFFFF,40
1787,PINCKNEY & MAIN (NB),43.074989,-89.382341,02,1827,AF0067,FFFFFF,41
1495,PINCKNEY & MIFFLIN (NB),43.076112,-89.383795,02,1827,AF0067,FFFFFF,42
1261,HAMILTON & E JOHNSON (NB),43.078669,-89.383931,02,1827,AF0067,FFFFFF,43
1227,E JOHNSON & HANCOCK (EB),43.079626,-89.382881,02,1827,AF0067,FFFFFF,44
1831,E JOHNSON & BLAIR (EB),43.080788,-89.381307,02,1827,AF0067,FFFFFF,45
1393,E JOHNSON & BLOUNT (EB),43.081772,-89.379814,02,1827,AF0067,FFFFFF,46
1121,E JOHNSON & LIVINGSTON (EB),43.082937,-89.378175,02,1827,AF0067,FFFFFF,47
1159,E JOHNSON & PATERSON (EB),43.084322,-89.376284,02,1827,AF0067,FFFFFF,48
1187,E JOHNSON & BREARLY (EB),43.085591,-89.374529,02,1827,AF0067,FFFFFF,49
1205,E JOHNSON & INGERSOLL (EB),43.086848,-89.372727,02,1827,AF0067,FFFFFF,50
1443,E JOHNSON & FEW (EB),43.088117,-89.370905,02,1827,AF0067,FFFFFF,51
1325,E JOHNSON & BALDWIN (EB),43.089625,-89.368783,02,1827,AF0067,FFFFFF,52
1595,E JOHNSON & THORNTON (EB),43.091733,-89.365766,02,1827,AF0067,FFFFFF,53
1707,FORDEM & E JOHNSON (NB),43.093514,-89.36356,02,1827,AF0067,FFFFFF,54
1177,FORDEM & LAKEWOOD (NB),43.096916,-89.363693,02,1827,AF0067,FFFFFF,55
1379,FORDEM & MC GUIRE (NB),43.101039,-89.363946,02,1827,AF0067,FFFFFF,56
1717,N SHERMAN & FORDEM (NB),43.103622,-89.363897,02,1827,AF0067,FFFFFF,62
1923,N SHERMAN & COMMERCIAL (NB),43.106605,-89.363886,02,1827,AF0067,FFFFFF,63
1715,N SHERMAN & OXFORD (NB),43.109372,-89.363835,02,1827,AF0067,FFFFFF,64
1161,N SHERMAN & ROTH (NB),43.111349,-89.363772,02,1827,AF0067,FFFFFF,65
1123,ROTH & RUSKIN (EB),43.111376,-89.36166,02,1827,AF0067,FFFFFF,66
5100,NORTH TRANSFER POINT,43.112847,-89.358591,02,1827,AF0067,FFFFFF,67
2505,MONROE & GLENWAY (EB),43.053068,-89.434926,03,1828,CD8382,000000,16
2759,MONROE & CHAPMAN (EB),43.054934,-89.432244,03,1828,CD8382,000000,17
2673,MONROE & PICKFORD (EB),43.055985,-89.430504,03,1828,CD8382,000000,18
2883,MONROE & KNICKERBOCKER (EB),43.057082,-89.428935,03,1828,CD8382,000000,19
2499,MONROE & COMMONWEALTH (EB),43.058084,-89.427417,03,1828,CD8382,000000,20
2139,MONROE & WEST LAWN (EB),43.05915,-89.425744,03,1828,CD8382,000000,21
2389,MONROE & LEONARD (EB),43.060894,-89.423128,03,1828,CD8382,000000,22
2447,MONROE & EDGEWOOD (EB),43.062282,-89.421015,03,1828,CD8382,000000,23
2887,MONROE & PROSPECT (EB),43.063745,-89.418805,03,1828,CD8382,000000,24
2749,MONROE & HARRISON (EB),43.064509,-89.417554,03,1828,CD8382,000000,25
2255,MONROE & GARFIELD (EB),43.066157,-89.415123,03,1828,CD8382,000000,26
349,BREESE & REGENT (NB),43.06802,-89.4138,03,1828,CD8382,000000,27
751,BREESE & HOYT (NB),43.070348,-89.413796,03,1828,CD8382,000000,28
133,UNIV AVE & BREESE (EB),43.073337,-89.413257,03,1828,CD8382,000000,29
809,CAMPUS & BABCOCK RR (EB),43.073266,-89.411092,03,1828,CD8382,000000,30
581,W JOHNSON & CHARTER (EB),43.072094,-89.406012,03,1828,CD8382,000000,31
741,W JOHNSON & MILLS (EB),43.072093,-89.404315,03,1828,CD8382,000000,32
455,W JOHNSON & N PARK (EB),43.072027,-89.400138,03,1828,CD8382,000000,33
435,W JOHNSON & LAKE (EB),43.071984,-89.39718,03,1828,CD8382,000000,34
941,W JOHNSON & FRANCES (EB),43.071968,-89.395488,03,1828,CD8382,000000,35
555,W JOHNSON & BASSETT (EB),43.072371,-89.393298,03,1828,CD8382,000000,36
839,W JOHNSON & BROOM (EB),43.073638,-89.391446,03,1828,CD8382,000000,37
883,STATE & FAIRCHILD (EB),43.074713,-89.388266,03,1828,CD8382,000000,38
1663,STATE & MIFFLIN (EB),43.074668,-89.386819,03,1828,CD8382,000000,39
1101,MAIN & CARROLL (EB),43.073333,-89.38386,03,1828,CD8382,000000,40
1823,MAIN & PINCKNEY (EB),43.074447,-89.38217,03,1828,CD8382,000000,41
1737,KING & WILSON (EB),43.074574,-89.378787,03,1828,CD8382,000000,42
1839,WILSON & FRANKLIN (EB),43.07565,-89.376687,03,1828,CD8382,000000,43
1509,WILLIAMSON & BLOUNT (EB),43.077193,-89.372879,03,1828,CD8382,000000,44
1167,JENIFER & LIVINGSTON (EB),43.077877,-89.370083,03,1828,CD8382,000000,45
1615,JENIFER & PATERSON (EB),43.078706,-89.368915,03,1828,CD8382,000000,46
1959,JENIFER & BREARLY (EB),43.080202,-89.366831,03,1828,CD8382,000000,47
1505,JENIFER & INGERSOLL (EB),43.081231,-89.365346,03,1828,CD8382,000000,48
1559,JENIFER & FEW (EB),43.08245,-89.363517,03,1828,CD8382,000000,49
1689,JENIFER & BALDWIN (EB),43.083733,-89.361807,03,1828,CD8382,000000,50
1657,BALDWIN & WILLIAMSON (NB),43.084425,-89.362346,03,1828,CD8382,000000,57
1213,WILLIAMSON & DICKINSON (EB),43.085864,-89.360574,03,1828,CD8382,000000,58
1645,WILLIAMSON & ROGERS (EB),43.087341,-89.359007,03,1828,CD8382,000000,59
1935,WINNEBAGO & RIVERSIDE (NB),43.088625,-89.357788,03,1828,CD8382,000000,60
1901,WINNEBAGO & FIRST (NB),43.090406,-89.356378,03,1828,CD8382,000000,61
1753,WINNEBAGO & ATWOOD (NB),43.091726,-89.355363,03,1828,CD8382,000000,62
1961,ATWOOD & RUSK (EB),43.092493,-89.352818,03,1828,CD8382,000000,63
1643,EASTWOOD & DIVISION (EB),43.092613,-89.350783,03,1828,CD8382,000000,64
1887,ATWOOD & EVERGREEN (EB),43.093344,-89.34866,03,1828,CD8382,000000,65
1391,ATWOOD & OHIO (EB),43.093771,-89.346728,03,1828,CD8382,000000,66
1211,ATWOOD & HUDSON (EB),43.093902,-89.34524,03,1828,CD8382,000000,67
1127,ATWOOD & MARQUETTE (EB),43.093851,-89.342317,03,1828,CD8382,000000,68
1905,ATWOOD & LAKELAND (EB),43.091657,-89.336,03,1828,CD8382,000000,69
1225,WALTER & ATWOOD (NB),43.089833,-89.3291,03,1828,CD8382,000000,70
1785,WALTER & CAPITOL CITY (NB),43.090986,-89.32794,03,1828,CD8382,000000,71
1809,WALTER & RICHARD (NB),43.093288,-89.326693,03,1828,CD8382,000000,72
1153,WALTER & DAWES (NB),43.095591,-89.326586,03,1828,CD8382,000000,73
1105,MILWAUKEE & WALTER (EB),43.098137,-89.326231,03,1828,CD8382,000000,74
7100,EAST TRANSFER POINT,43.098601,-89.322445,03,1828,CD8382,000000,75
4100,SOUTH TRANSFER POINT,43.039101,-89.394589,04,1829,007A48,000000,1
590,BADGER & CYPRESS (WB),43.038552,-89.397554,04,1829,007A48,000000,2
782,BADGER & FIEDLER (WB),43.038665,-89.401933,04,1829,007A48,000000,3
499,FISH HATCHERY & BADGER (NB),43.038853,-89.403803,04,1829,007A48,000000,4
405,FISH HATCHERY & CATALPA (NB),43.041795,-89.403858,04,1829,007A48,000000,5
391,FISH HATCHERY & CARVER (NB),43.044572,-89.403792,04,1829,007A48,000000,6
845,FISH HATCHERY & PLAENERT (NB),43.049332,-89.400594,04,1829,007A48,000000,7
843,FISH HATCHERY & APPLETON (NB),43.05165,-89.399062,04,1829,007A48,000000,8
915,FISH HATCHERY & MIDLAND (NB),43.054455,-89.398926,04,1829,007A48,000000,9
519,S PARK & FISH HATCHERY (NB),43.057177,-89.398815,04,1829,007A48,000000,10
904,ERIN & S PARK (WB),43.059961,-89.401245,04,1829,007A48,000000,11
300,ERIN & MILLS (WB),43.059929,-89.403804,04,1829,007A48,000000,12
375,MILLS & VILAS (NB),43.063364,-89.403935,04,1829,007A48,000000,13
167,MILLS & MOUND (NB),43.065159,-89.403999,04,1829,007A48,000000,14
841,MILLS & REGENT (NB),43.067533,-89.403989,04,1829,007A48,000000,15
739,MILLS & COLLEGE (NB),43.068482,-89.404008,04,1829,007A48,000000,16
445,MILLS & SPRING (NB),43.069877,-89.404025,04,1829,007A48,000000,17
837,MILLS & DAYTON (NB),43.070832,-89.404028,04,1829,007A48,000000,18
441,MILLS & W JOHNSON (NB),43.071895,-89.40404,04,1829,007A48,000000,19
455,W JOHNSON & N PARK (EB),43.072027,-89.400138,04,1829,007A48,000000,20
765,LAKE & UNIV AVE (NB),43.073034,-89.397332,04,1829,007A48,000000,21
265,STATE & LAKE (EB),43.074887,-89.396803,04,1829,007A48,000000,22
505,STATE & GILMAN (EB),43.074809,-89.393711,04,1829,007A48,000000,23
549,STATE & GORHAM (EB),43.074723,-89.392031,04,1829,007A48,000000,24
803,STATE & W JOHNSON (EB),43.074686,-89.390278,04,1829,007A48,000000,25
883,STATE & FAIRCHILD (EB),43.074713,-89.388266,04,1829,007A48,000000,26
1663,STATE & MIFFLIN (EB),43.074668,-89.386819,04,1829,007A48,000000,27
1101,MAIN & CARROLL (EB),43.073333,-89.38386,04,1829,007A48,000000,28
1823,MAIN & PINCKNEY (EB),43.074447,-89.38217,04,1829,007A48,000000,29
1737,KING & WILSON (EB),43.074574,-89.378787,04,1829,007A48,000000,30
1839,WILSON & FRANKLIN (EB),43.07565,-89.376687,04,1829,007A48,000000,31
1509,WILLIAMSON & BLOUNT (EB),43.077193,-89.372879,04,1829,007A48,000000,32
1167,JENIFER & LIVINGSTON (EB),43.077877,-89.370083,04,1829,007A48,000000,33
1615,JENIFER & PATERSON (EB),43.078706,-89.368915,04,1829,007A48,000000,34
1959,JENIFER & BREARLY (EB),43.080202,-89.366831,04,1829,007A48,000000,35
1505,JENIFER & INGERSOLL (EB),43.081231,-89.365346,04,1829,007A48,000000,36
1559,JENIFER & FEW (EB),43.08245,-89.363517,04,1829,007A48,000000,37
1689,JENIFER & BALDWIN (EB),43.083733,-89.361807,04,1829,007A48,000000,38
1657,BALDWIN & WILLIAMSON (NB),43.084425,-89.362346,04,1829,007A48,000000,39
1213,WILLIAMSON & DICKINSON (EB),43.085864,-89.360574,04,1829,007A48,000000,40
1645,WILLIAMSON & ROGERS (EB),43.087341,-89.359007,04,1829,007A48,000000,41
1935,WINNEBAGO & RIVERSIDE (NB),43.088625,-89.357788,04,1829,007A48,000000,42
1901,WINNEBAGO & FIRST (NB),43.090406,-89.356378,04,1829,007A48,000000,43
1499,WINNEBAGO & ATWOOD (NB),43.09234,-89.354874,04,1829,007A48,000000,44
1575,WINNEBAGO & LINDEN (NB),43.094228,-89.353369,04,1829,007A48,000000,45
1343,WINNEBAGO & FOURTH (NB),43.095275,-89.352591,04,1829,007A48,000000,46
1659,WINNEBAGO & LAFOLLETTE (NB),43.096617,-89.351495,04,1829,007A48,000000,47
1233,EAST WASH & SIXTH (EB),43.09845,-89.350762,04,1829,007A48,000000,48
1311,EAST WASH & MILWAUKEE (EB),43.100527,-89.348409,04,1829,007A48,000000,49
1777,OAK & EAST WASH (NB),43.104066,-89.343096,04,1829,007A48,000000,50
1973,OAK & COMMERCIAL (NB),43.106612,-89.342826,04,1829,007A48,000000,51
1326,COMMERCIAL & NORTH LAWN (WB),43.10688,-89.345137,04,1829,007A48,000000,52
1852,COMMERCIAL & KEDZIE (WB),43.106915,-89.347308,04,1829,007A48,000000,53
1394,COMMERCIAL & NORTH (WB),43.106902,-89.351556,04,1829,007A48,000000,54
1427,PACKERS & COMMERCIAL (NB),43.107064,-89.354439,04,1829,007A48,000000,55
1380,ABERG & LOFTSGORDAN RR (WB),43.114268,-89.357264,04,1829,007A48,000000,56
5100,NORTH TRANSFER POINT,43.112847,-89.358591,04,1829,007A48,000000,57
4100,SOUTH TRANSFER POINT,43.039101,-89.394589,05,1830,B46A5B,000000,1
475,S PARK & BUICK (NB),43.041511,-89.393876,05,1830,B46A5B,000000,2
171,FISHER & DANE (NB),43.042875,-89.391838,05,1830,B46A5B,000000,3
643,FISHER & BRAM (NB),43.045582,-89.391687,05,1830,B46A5B,000000,4
197,BELD & KENWARD (NB),43.047713,-89.39271,05,1830,B46A5B,000000,5
745,S PARK & WINGRA (NB),43.049428,-89.393931,05,1830,B46A5B,000000,6
181,S PARK & BELD (NB),43.052375,-89.394985,05,1830,B46A5B,000000,7
107,S PARK & OLIN (NB),43.054417,-89.396632,05,1830,B46A5B,000000,8
519,S PARK & FISH HATCHERY (NB),43.057177,-89.398815,05,1830,B46A5B,000000,9
251,S PARK & ERIN (NB),43.060125,-89.400619,05,1830,B46A5B,000000,10
633,WEST WASH & S PARK (EB),43.063424,-89.399942,05,1830,B46A5B,000000,11
113,WEST WASH & PED BRIDGE (EB),43.064785,-89.39803,05,1830,B46A5B,000000,12
225,WEST WASH & PARK VIEW (EB),43.065887,-89.396487,05,1830,B46A5B,000000,13
469,WEST WASH & SW COMMUTER (EB),43.067563,-89.394149,05,1830,B46A5B,000000,14
967,WEST WASH & BEDFORD (EB),43.068993,-89.39214,05,1830,B46A5B,000000,15
473,WEST WASH & BASSETT (EB),43.070249,-89.390356,05,1830,B46A5B,000000,16
989,WEST WASH & BROOM (EB),43.071578,-89.388518,05,1830,B46A5B,000000,17
235,WEST WASH & HENRY (EB),43.072462,-89.387306,05,1830,B46A5B,000000,18
1163,WEST WASH & CARROLL (EB),43.073602,-89.385637,05,1830,B46A5B,000000,19
1101,MAIN & CARROLL (EB),43.073333,-89.38386,05,1830,B46A5B,000000,20
1787,PINCKNEY & MAIN (NB),43.074989,-89.382341,05,1830,B46A5B,000000,21
1495,PINCKNEY & MIFFLIN (NB),43.076112,-89.383795,05,1830,B46A5B,000000,22
1261,HAMILTON & E JOHNSON (NB),43.078669,-89.383931,05,1830,B46A5B,000000,23
1227,E JOHNSON & HANCOCK (EB),43.079626,-89.382881,05,1830,B46A5B,000000,24
1831,E JOHNSON & BLAIR (EB),43.080788,-89.381307,05,1830,B46A5B,000000,25
1393,E JOHNSON & BLOUNT (EB),43.081772,-89.379814,05,1830,B46A5B,000000,26
1121,E JOHNSON & LIVINGSTON (EB),43.082937,-89.378175,05,1830,B46A5B,000000,27
1159,E JOHNSON & PATERSON (EB),43.084322,-89.376284,05,1830,B46A5B,000000,28
1187,E JOHNSON & BREARLY (EB),43.085591,-89.374529,05,1830,B46A5B,000000,29
1205,E JOHNSON & INGERSOLL (EB),43.086848,-89.372727,05,1830,B46A5B,000000,30
1443,E JOHNSON & FEW (EB),43.088117,-89.370905,05,1830,B46A5B,000000,31
1325,E JOHNSON & BALDWIN (EB),43.089625,-89.368783,05,1830,B46A5B,000000,32
1595,E JOHNSON & THORNTON (EB),43.091733,-89.365766,05,1830,B46A5B,000000,33
1333,E JOHNSON & FORDEM (EB),43.093124,-89.363646,05,1830,B46A5B,000000,34
1843,E JOHNSON & FIRST (EB),43.094346,-89.361754,05,1830,B46A5B,000000,35
1131,E JOHNSON & THIRD (EB),43.097031,-89.358522,05,1830,B46A5B,000000,36
1675,E JOHNSON & FOURTH (EB),43.098321,-89.356842,05,1830,B46A5B,000000,37
1949,E JOHNSON & SIXTH (EB),43.100346,-89.354129,05,1830,B46A5B,000000,38
1319,E JOHNSON & SEVENTH (EB),43.10149,-89.352586,05,1830,B46A5B,000000,39
1511,E JOHNSON & NORTH (EB),43.103078,-89.350485,05,1830,B46A5B,000000,40
1598,NORTH & MIFFLIN (SB),43.101439,-89.349567,05,1830,B46A5B,000000,41
1293,MILWAUKEE & EAST WASH (EB),43.100042,-89.348438,05,1830,B46A5B,000000,42
1133,MILWAUKEE & WAUBESA (EB),43.099959,-89.344128,05,1830,B46A5B,000000,43
1975,MILWAUKEE & MARQUETTE (EB),43.099895,-89.34172,05,1830,B46A5B,000000,44
1913,MILWAUKEE & ST PAUL (EB),43.099821,-89.337362,05,1830,B46A5B,000000,45
1855,MILWAUKEE & BRYAN (EB),43.099774,-89.335456,05,1830,B46A5B,000000,46
1437,MILWAUKEE & FAIR OAKS (EB),43.09968,-89.332824,05,1830,B46A5B,000000,47
1751,MILWAUKEE & FAIR OAKS (EB),43.099378,-89.331504,05,1830,B46A5B,000000,48
1309,MILWAUKEE & LEON (EB),43.098284,-89.329172,05,1830,B46A5B,000000,49
1105,MILWAUKEE & WALTER (EB),43.098137,-89.326231,05,1830,B46A5B,000000,50
7100,EAST TRANSFER POINT,43.098601,-89.322445,05,1830,B46A5B,000000,51
6100,WEST TRANSFER POINT,43.053874,-89.47553,06,1831,EC2B27,000000,1
2939,TOKAY & BLUEBIRD (EB),43.053527,-89.469568,06,1831,EC2B27,000000,14
2323,TOKAY & SEGOE (EB),43.053582,-89.465952,06,1831,EC2B27,000000,15
2417,TOKAY & WEDGEWOOD (EB),43.053574,-89.463706,06,1831,EC2B27,000000,16
2161,TOKAY & HILLTOP (EB),43.05353,-89.458795,06,1831,EC2B27,000000,17
2615,TOKAY & CHARLES (EB),43.053522,-89.455117,06,1831,EC2B27,000000,18
2111,TOKAY & MIDVALE (EB),43.053452,-89.450526,06,1831,EC2B27,000000,19
2233,TOKAY & CHATHAM (EB),43.053408,-89.447638,06,1831,EC2B27,000000,20
2431,TOKAY & FREDERICK (EB),43.053354,-89.444516,06,1831,EC2B27,000000,21
2889,TOEPFER & TOKAY (NB),43.053798,-89.441819,06,1831,EC2B27,000000,22
2387,TOEPFER & ST CLAIR (NB),43.05595,-89.441765,06,1831,EC2B27,000000,23
2435,TOEPFER & MEYER (NB),43.05761,-89.441783,06,1831,EC2B27,000000,24
2937,TOEPFER & EUCLID (NB),43.059371,-89.441855,06,1831,EC2B27,000000,25
2737,MINERAL PT & TOEPFER (EB),43.060694,-89.441601,06,1831,EC2B27,000000,26
2659,SPEEDWAY & GLENWAY (EB),43.061148,-89.438018,06,1831,EC2B27,000000,27
2231,SPEEDWAY & FRANKLIN (EB),43.062457,-89.436293,06,1831,EC2B27,000000,28
2137,SPEEDWAY & HILLCREST (EB),43.064089,-89.434146,06,1831,EC2B27,000000,29
2377,REGENT & HIGHLAND (EB),43.067915,-89.427925,06,1831,EC2B27,000000,30
2773,REGENT & VISTA (EB),43.067921,-89.426123,06,1831,EC2B27,000000,31
2899,REGENT & ALLEN (EB),43.067881,-89.423467,06,1831,EC2B27,000000,32
2949,REGENT & PROSPECT (EB),43.067806,-89.420944,06,1831,EC2B27,000000,33
2691,REGENT & SPOONER (EB),43.067814,-89.416537,06,1831,EC2B27,000000,34
533,REGENT & BREESE (EB),43.067782,-89.413476,06,1831,EC2B27,000000,35
971,REGENT & RANDALL (EB),43.067729,-89.409231,06,1831,EC2B27,000000,36
583,REGENT & ORCHARD (EB),43.067722,-89.407559,06,1831,EC2B27,000000,37
327,REGENT & MILLS (EB),43.067669,-89.4038,06,1831,EC2B27,000000,38
115,N PARK & REGENT (NB),43.068063,-89.400749,06,1831,EC2B27,000000,39
483,N PARK & SPRING (NB),43.069205,-89.400796,06,1831,EC2B27,000000,40
561,N PARK & DAYTON (NB),43.070794,-89.400718,06,1831,EC2B27,000000,41
455,W JOHNSON & N PARK (EB),43.072027,-89.400138,06,1831,EC2B27,000000,42
765,LAKE & UNIV AVE (NB),43.073034,-89.397332,06,1831,EC2B27,000000,43
265,STATE & LAKE (EB),43.074887,-89.396803,06,1831,EC2B27,000000,44
505,STATE & GILMAN (EB),43.074809,-89.393711,06,1831,EC2B27,000000,45
549,STATE & GORHAM (EB),43.074723,-89.392031,06,1831,EC2B27,000000,46
803,STATE & W JOHNSON (EB),43.074686,-89.390278,06,1831,EC2B27,000000,47
883,STATE & FAIRCHILD (EB),43.074713,-89.388266,06,1831,EC2B27,000000,48
1663,STATE & MIFFLIN (EB),43.074668,-89.386819,06,1831,EC2B27,000000,49
1101,MAIN & CARROLL (EB),43.073333,-89.38386,06,1831,EC2B27,000000,50
1787,PINCKNEY & MAIN (NB),43.074989,-89.382341,06,1831,EC2B27,000000,51
1323,EAST WASH & WEBSTER (EB),43.076387,-89.381563,06,1831,EC2B27,000000,52
1579,EAST WASH & BLAIR (EB),43.078328,-89.378807,06,1831,EC2B27,000000,53
1453,EAST WASH & BLOUNT (EB),43.079614,-89.376965,06,1831,EC2B27,000000,54
1565,EAST WASH & PATERSON (EB),43.08238,-89.373012,06,1831,EC2B27,000000,55
1199,EAST WASH & INGERSOLL (EB),43.085012,-89.369345,06,1831,EC2B27,000000,57
1883,EAST WASH & BALDWIN (EB),43.087367,-89.365943,06,1831,EC2B27,000000,58
1805,EAST WASH & DICKINSON (EB),43.088337,-89.364485,06,1831,EC2B27,000000,59
1513,EAST WASH & YAHARA (EB),43.089788,-89.362438,06,1831,EC2B27,000000,60
1241,EAST WASH & FIRST (EB),43.091981,-89.359353,06,1831,EC2B27,000000,61
1107,EAST WASH & SECOND (EB),43.093708,-89.357055,06,1831,EC2B27,000000,62
1141,EAST WASH & FOURTH (EB),43.095914,-89.354117,06,1831,EC2B27,000000,63
1233,EAST WASH & SIXTH (EB),43.09845,-89.350762,06,1831,EC2B27,000000,64
1311,EAST WASH & MILWAUKEE (EB),43.100527,-89.348409,06,1831,EC2B27,000000,65
1269,EAST WASH & E JOHNSON (EB),43.102851,-89.344693,06,1831,EC2B27,000000,66
1481,EAST WASH & MARQUETTE (EB),43.1043,-89.341592,06,1831,EC2B27,000000,67
1757,EAST WASH & ABERG (EB),43.106581,-89.339242,06,1831,EC2B27,000000,68
9339,EAST WASH & MELVIN (EB),43.109287,-89.335505,06,1831,EC2B27,000000,69
9135,EAST WASH & LEXINGTON (EB),43.111189,-89.332935,06,1831,EC2B27,000000,70
9405,WRIGHT & CARPENTER (NB),43.113923,-89.330523,06,1831,EC2B27,000000,71
9171,WRIGHT & STRAUBEL (NB),43.117277,-89.330457,06,1831,EC2B27,000000,72
9101,WRIGHT & MADISON COLL (NB),43.121035,-89.330281,06,1831,EC2B27,000000,73
9725,KINSMAN & WRIGHT (EB),43.125664,-89.329772,06,1831,EC2B27,000000,74
9787,KINSMAN & STOUGHTON (EB),43.125594,-89.327209,06,1831,EC2B27,000000,75
9797,KINSMAN & BARTILLON (EB),43.125565,-89.323294,06,1831,EC2B27,000000,76
9182,STOUGHTON FT & ORIN (SB),43.122955,-89.324782,06,1831,EC2B27,000000,77
9306,STOUGHTON FT & STOUGHTON (SB),43.121535,-89.324555,06,1831,EC2B27,000000,78
9551,EAST WASH & MAC ARTHUR (EB),43.117444,-89.32342,06,1831,EC2B27,000000,82
9573,EAST WASH & MENDOTA (EB),43.118978,-89.321043,06,1831,EC2B27,000000,83
9491,EAST WASH & LIEN (EB),43.121439,-89.317484,06,1831,EC2B27,000000,84
9587,EAST WASH & PORTAGE (EB),43.123771,-89.314007,06,1831,EC2B27,000000,85
9442,EAGAN & EAST WASH (SB),43.126141,-89.310211,06,1831,EC2B27,000000,86
9677,EAST TOWNE & EAGAN (EB),43.125271,-89.308828,06,1831,EC2B27,000000,87
9800,E TOWNE RNG & SHELTER (EB),43.126576,-89.306961,06,1831,EC2B27,000000,108
2131,U BAY & UNIV AVE (NB),43.073971,-89.433665,09,1833,AD9B4C,000000,1
2473,HIGHLAND & WAISMAN CTR (NB),43.078181,-89.433241,09,1833,AD9B4C,000000,2
2349,HIGHLAND & MARSH (EB),43.078504,-89.430495,09,1833,AD9B4C,000000,3
2916,HIGHLAND & OBSERVATORY (SB),43.076839,-89.429079,09,1833,AD9B4C,000000,4
2822,HIGHLAND & VA HOSP (SB),43.074538,-89.428895,09,1833,AD9B4C,000000,5
2561,UNIV AVE & HIGHLAND (EB),43.072025,-89.428286,09,1833,AD9B4C,000000,6
2605,UNIV AVE & WALNUT (EB),43.072282,-89.42482,09,1833,AD9B4C,000000,7
2717,UNIV AVE & FOREST (EB),43.072703,-89.421277,09,1833,AD9B4C,000000,8
2921,UNIV AVE & PRINCETON (EB),43.073222,-89.417524,09,1833,AD9B4C,000000,9
133,UNIV AVE & BREESE (EB),43.073337,-89.413257,09,1833,AD9B4C,000000,10
809,CAMPUS & BABCOCK RR (EB),43.073266,-89.411092,09,1833,AD9B4C,000000,11
581,W JOHNSON & CHARTER (EB),43.072094,-89.406012,09,1833,AD9B4C,000000,12
741,W JOHNSON & MILLS (EB),43.072093,-89.404315,09,1833,AD9B4C,000000,13
455,W JOHNSON & N PARK (EB),43.072027,-89.400138,09,1833,AD9B4C,000000,14
435,W JOHNSON & LAKE (EB),43.071984,-89.39718,09,1833,AD9B4C,000000,15
941,W JOHNSON & FRANCES (EB),43.071968,-89.395488,09,1833,AD9B4C,000000,16
555,W JOHNSON & BASSETT (EB),43.072371,-89.393298,09,1833,AD9B4C,000000,17
839,W JOHNSON & BROOM (EB),43.073638,-89.391446,09,1833,AD9B4C,000000,18
567,W JOHNSON & CARROLL (EB),43.075933,-89.388251,09,1833,AD9B4C,000000,19
597,E JOHNSON & PINCKNEY (EB),43.077407,-89.38603,09,1833,AD9B4C,000000,20
1227,E JOHNSON & HANCOCK (EB),43.079626,-89.382881,09,1833,AD9B4C,000000,21
1831,E JOHNSON & BLAIR (EB),43.080788,-89.381307,09,1833,AD9B4C,000000,22
1393,E JOHNSON & BLOUNT (EB),43.081772,-89.379814,09,1833,AD9B4C,000000,23
1121,E JOHNSON & LIVINGSTON (EB),43.082937,-89.378175,09,1833,AD9B4C,000000,24
1159,E JOHNSON & PATERSON (EB),43.084322,-89.376284,09,1833,AD9B4C,000000,25
1187,E JOHNSON & BREARLY (EB),43.085591,-89.374529,09,1833,AD9B4C,000000,26
1205,E JOHNSON & INGERSOLL (EB),43.086848,-89.372727,09,1833,AD9B4C,000000,27
1443,E JOHNSON & FEW (EB),43.088117,-89.370905,09,1833,AD9B4C,000000,28
1325,E JOHNSON & BALDWIN (EB),43.089625,-89.368783,09,1833,AD9B4C,000000,29
1595,E JOHNSON & THORNTON (EB),43.091733,-89.365766,09,1833,AD9B4C,000000,30
1333,E JOHNSON & FORDEM (EB),43.093124,-89.363646,09,1833,AD9B4C,000000,31
1843,E JOHNSON & FIRST (EB),43.094346,-89.361754,09,1833,AD9B4C,000000,32
1131,E JOHNSON & THIRD (EB),43.097031,-89.358522,09,1833,AD9B4C,000000,33
1675,E JOHNSON & FOURTH (EB),43.098321,-89.356842,09,1833,AD9B4C,000000,34
1949,E JOHNSON & SIXTH (EB),43.100346,-89.354129,09,1833,AD9B4C,000000,35
1319,E JOHNSON & SEVENTH (EB),43.10149,-89.352586,09,1833,AD9B4C,000000,36
1511,E JOHNSON & NORTH (EB),43.103078,-89.350485,09,1833,AD9B4C,000000,37
1598,NORTH & MIFFLIN (SB),43.101439,-89.349567,09,1833,AD9B4C,000000,38
1293,MILWAUKEE & EAST WASH (EB),43.100042,-89.348438,09,1833,AD9B4C,000000,39
1133,MILWAUKEE & WAUBESA (EB),43.099959,-89.344128,09,1833,AD9B4C,000000,40
1975,MILWAUKEE & MARQUETTE (EB),43.099895,-89.34172,09,1833,AD9B4C,000000,41
1913,MILWAUKEE & ST PAUL (EB),43.099821,-89.337362,09,1833,AD9B4C,000000,42
1855,MILWAUKEE & BRYAN (EB),43.099774,-89.335456,09,1833,AD9B4C,000000,43
1437,MILWAUKEE & FAIR OAKS (EB),43.09968,-89.332824,09,1833,AD9B4C,000000,44
1751,MILWAUKEE & FAIR OAKS (EB),43.099378,-89.331504,09,1833,AD9B4C,000000,45
1309,MILWAUKEE & LEON (EB),43.098284,-89.329172,09,1833,AD9B4C,000000,46
1105,MILWAUKEE & WALTER (EB),43.098137,-89.326231,09,1833,AD9B4C,000000,47
7100,EAST TRANSFER POINT,43.098601,-89.322445,09,1833,AD9B4C,000000,48
178,UNIV AVE & ORCHARD (WB),43.073427,-89.407056,10,4084,808000,000000,1
581,W JOHNSON & CHARTER (EB),43.072094,-89.406012,10,4084,808000,000000,2
741,W JOHNSON & MILLS (EB),43.072093,-89.404315,10,4084,808000,000000,3
455,W JOHNSON & N PARK (EB),43.072027,-89.400138,10,4084,808000,000000,4
435,W JOHNSON & LAKE (EB),43.071984,-89.39718,10,4084,808000,000000,5
941,W JOHNSON & FRANCES (EB),43.071968,-89.395488,10,4084,808000,000000,6
555,W JOHNSON & BASSETT (EB),43.072371,-89.393298,10,4084,808000,000000,25
839,W JOHNSON & BROOM (EB),43.073638,-89.391446,10,4084,808000,000000,26
567,W JOHNSON & CARROLL (EB),43.075933,-89.388251,10,4084,808000,000000,27
597,E JOHNSON & PINCKNEY (EB),43.077407,-89.38603,10,4084,808000,000000,28
1227,E JOHNSON & HANCOCK (EB),43.079626,-89.382881,10,4084,808000,000000,29
1831,E JOHNSON & BLAIR (EB),43.080788,-89.381307,10,4084,808000,000000,30
1393,E JOHNSON & BLOUNT (EB),43.081772,-89.379814,10,4084,808000,000000,31
1121,E JOHNSON & LIVINGSTON (EB),43.082937,-89.378175,10,4084,808000,000000,32
1159,E JOHNSON & PATERSON (EB),43.084322,-89.376284,10,4084,808000,000000,33
1187,E JOHNSON & BREARLY (EB),43.085591,-89.374529,10,4084,808000,000000,34
1205,E JOHNSON & INGERSOLL (EB),43.086848,-89.372727,10,4084,808000,000000,35
1443,E JOHNSON & FEW (EB),43.088117,-89.370905,10,4084,808000,000000,36
1325,E JOHNSON & BALDWIN (EB),43.089625,-89.368783,10,4084,808000,000000,37
1595,E JOHNSON & THORNTON (EB),43.091733,-89.365766,10,4084,808000,000000,38
1333,E JOHNSON & FORDEM (EB),43.093124,-89.363646,10,4084,808000,000000,39
1624,FIRST & DAYTON (SB),43.093636,-89.361465,10,4084,808000,000000,40
1372,FIRST & MAIN (SB),43.091183,-89.358005,10,4084,808000,000000,41
1901,WINNEBAGO & FIRST (NB),43.090406,-89.356378,10,4084,808000,000000,42
1753,WINNEBAGO & ATWOOD (NB),43.091726,-89.355363,10,4084,808000,000000,43
1101,MAIN & CARROLL (EB),43.073333,-89.38386,11,2478,D3886A,000000,43
1872,M L K JR & CCB (SB),43.07292,-89.381872,11,2478,D3886A,000000,44
248,WILSON & CARROLL (WB),43.071909,-89.382367,11,2478,D3886A,000000,45
564,WILSON & HAMILTON (WB),43.070796,-89.38391,11,2478,D3886A,000000,46
668,DOTY & HENRY (WB),43.070985,-89.385498,11,2478,D3886A,000000,47
492,JOHN NOLEN & LAKESIDE (SB),43.055744,-89.381871,11,2478,D3886A,000000,48
862,JOHN NOLEN & OLIN (SB),43.050331,-89.377666,11,2478,D3886A,000000,49
166,RIMROCK & JOHN NOLEN (WB),43.046257,-89.374941,11,2478,D3886A,000000,50
410,RIMROCK & E RUSK (SB),43.042921,-89.377437,11,2478,D3886A,000000,51
3811,BADGER & RIMROCK (EB),43.038248,-89.378585,11,2478,D3886A,000000,52
3505,NOB HILL & BADGER (EB),43.041527,-89.373862,11,2478,D3886A,000000,53
3241,NOB HILL & WEA BLDG (EB),43.042266,-89.369517,11,2478,D3886A,000000,54
3351,INDUSTRIAL & DETOX CENTER (EB),43.041356,-89.360731,11,2478,D3886A,000000,55
3931,INDUSTRIAL & SOUTH TOWNE (EB),43.04076,-89.355116,11,2478,D3886A,000000,56
3457,SOUTH TOWNE & ROYAL (NB),43.042282,-89.354226,11,2478,D3886A,000000,57
3615,BROADWAY & FAYETTE (EB),43.046945,-89.351408,11,2478,D3886A,000000,58
3841,BROADWAY & HOBOKEN (EB),43.047066,-89.346968,11,2478,D3886A,000000,59
3733,BROADWAY & WPS DR (EB),43.047011,-89.343898,11,2478,D3886A,000000,60
3301,BROADWAY & BRIDGE (EB),43.046965,-89.340697,11,2478,D3886A,000000,61
3195,COLLINS & DUTCH MILL P&R (EB),43.047505,-89.304259,11,2478,D3886A,000000,62
809,CAMPUS & BABCOCK RR (EB),43.073266,-89.411092,12,1834,9B8821,000000,17
581,W JOHNSON & CHARTER (EB),43.072094,-89.406012,12,1834,9B8821,000000,18
741,W JOHNSON & MILLS (EB),43.072093,-89.404315,12,1834,9B8821,000000,19
455,W JOHNSON & N PARK (EB),43.072027,-89.400138,12,1834,9B8821,000000,20
435,W JOHNSON & LAKE (EB),43.071984,-89.39718,12,1834,9B8821,000000,21
941,W JOHNSON & FRANCES (EB),43.071968,-89.395488,12,1834,9B8821,000000,22
555,W JOHNSON & BASSETT (EB),43.072371,-89.393298,12,1834,9B8821,000000,23
839,W JOHNSON & BROOM (EB),43.073638,-89.391446,12,1834,9B8821,000000,24
883,STATE & FAIRCHILD (EB),43.074713,-89.388266,12,1834,9B8821,000000,25
1663,STATE & MIFFLIN (EB),43.074668,-89.386819,12,1834,9B8821,000000,26
1101,MAIN & CARROLL (EB),43.073333,-89.38386,12,1834,9B8821,000000,27
1872,M L K JR & CCB (SB),43.07292,-89.381872,12,1834,9B8821,000000,28
248,WILSON & CARROLL (WB),43.071909,-89.382367,12,1834,9B8821,000000,29
564,WILSON & HAMILTON (WB),43.070796,-89.38391,12,1834,9B8821,000000,30
668,DOTY & HENRY (WB),43.070985,-89.385498,12,1834,9B8821,000000,31
492,JOHN NOLEN & LAKESIDE (SB),43.055744,-89.381871,12,1834,9B8821,000000,32
862,JOHN NOLEN & OLIN (SB),43.050331,-89.377666,12,1834,9B8821,000000,33
650,JOHN NOLEN & RIMROCK (SB),43.046292,-89.373695,12,1834,9B8821,000000,34
3432,FRAZIER & RAYWOOD (WB),43.047262,-89.354358,12,1834,9B8821,000000,35
3754,FRAZIER & WAUNONA (WB),43.047291,-89.356161,12,1834,9B8821,000000,36
3143,WAUNONA & FAYETTE (EB),43.049446,-89.351606,12,1834,9B8821,000000,37
3555,LAKE PT & FAYETTE (EB),43.04825,-89.351029,12,1834,9B8821,000000,38
3419,LAKE PT & HOBOKEN (EB),43.048227,-89.347184,12,1834,9B8821,000000,39
3101,LAKE PT & WEBER (EB),43.048067,-89.345251,12,1834,9B8821,000000,40
3261,LAKE PT & 1531 (EB),43.048079,-89.342252,12,1834,9B8821,000000,41
3323,LAKE PT & BRIDGE (EB),43.048256,-89.339659,12,1834,9B8821,000000,42
3195,COLLINS & DUTCH MILL P&R (EB),43.047505,-89.304259,12,1834,9B8821,000000,43
100,UNIV AVE & N PARK (WB),43.073367,-89.401463,13,2479,803E0E,000000,1
256,MILLS & UNIV AVE (SB),43.073078,-89.404181,13,2479,803E0E,000000,2
180,N PARK & DAYTON (SB),43.071167,-89.400986,13,2479,803E0E,000000,3
388,N PARK & SPRING (SB),43.069488,-89.401068,13,2479,803E0E,000000,4
546,S PARK & REGENT (SB),43.06736,-89.401101,13,2479,803E0E,000000,5
162,S PARK & MERITER (SB),43.065181,-89.400965,13,2479,803E0E,000000,6
840,S PARK & WEST WASH (SB),43.062937,-89.400947,13,2479,803E0E,000000,7
288,S PARK & ERIN (SB),43.059675,-89.400974,13,2479,803E0E,000000,8
174,S PARK & FISH HATCHERY (SB),43.056492,-89.398699,13,2479,803E0E,000000,9
877,OLIN & LOWELL (EB),43.053994,-89.395262,13,2479,803E0E,000000,10
147,OLIN & HICKORY (EB),43.053953,-89.391914,13,2479,803E0E,000000,11
289,OLIN & GILSON (EB),43.053925,-89.389955,13,2479,803E0E,000000,12
367,OLIN & LAKE (EB),43.053792,-89.387207,13,2479,803E0E,000000,13
465,OLIN & COLBY (EB),43.053143,-89.384483,13,2479,803E0E,000000,14
153,OLIN & EXPO (EB),43.052103,-89.380619,13,2479,803E0E,000000,15
862,JOHN NOLEN & OLIN (SB),43.050331,-89.377666,13,2479,803E0E,000000,16
166,RIMROCK & JOHN NOLEN (WB),43.046257,-89.374941,13,2479,803E0E,000000,17
410,RIMROCK & E RUSK (SB),43.042921,-89.377437,13,2479,803E0E,000000,18
828,E RUSK & RIMROCK (WB),43.042813,-89.378494,13,2479,803E0E,000000,19
789,N RUSK & ARDMORE (NB),43.042593,-89.384138,13,2479,803E0E,000000,20
127,ARDMORE & KOSTER (NB),43.043924,-89.385784,13,2479,803E0E,000000,21
448,N RUSK & SUNNYMEADE (SB),43.042128,-89.384273,13,2479,803E0E,000000,22
154,N RUSK & NYGARD (SB),43.040332,-89.384307,13,2479,803E0E,000000,23
462,BADGER & PED BRIDGE (WB),43.038437,-89.388471,13,2479,803E0E,000000,24
144,BADGER & COLONIAL HTS (WB),43.038521,-89.390684,13,2479,803E0E,000000,25
4100,SOUTH TRANSFER POINT,43.039101,-89.394589,13,2479,803E0E,000000,26
6460,TREE & GAMMON (WB),43.065676,-89.503293,14,1835,778D22,000000,3
6778,TREE & WESTFIELD (WB),43.063963,-89.507513,14,1835,778D22,000000,4
6962,WESTFIELD & MINERAL PT (SB),43.061329,-89.507892,14,1835,778D22,000000,12
6755,MINERAL PT & WESTFIELD (EB),43.060568,-89.507484,14,1835,778D22,000000,13
6883,MINERAL PT & GAMMON (EB),43.060548,-89.502256,14,1835,778D22,000000,14
6373,GRND CANYON & MINERAL PT (NB),43.061561,-89.497082,14,1835,778D22,000000,15
6351,OFFSHORE & YELLOWSTONE (EB),43.063282,-89.493227,14,1835,778D22,000000,16
6447,OFFSHORE & NAUTILUS (EB),43.063201,-89.48907,14,1835,778D22,000000,17
6239,MASTHEAD & ISLAND (EB),43.063239,-89.486681,14,1835,778D22,000000,18
6151,MINERAL PT & CUNA (EB),43.060714,-89.481592,14,1835,778D22,000000,19
2535,ROSA & MINERAL PT (NB),43.061364,-89.478395,14,1835,778D22,000000,20
2603,ROSA & DRIFTWOOD (NB),43.063381,-89.478406,14,1835,778D22,000000,21
2449,ROSA & STADIUM (NB),43.065856,-89.478405,14,1835,778D22,000000,22
2109,REGENT & ROSA (EB),43.067851,-89.478158,14,1835,778D22,000000,23
2639,REGENT & GLEN (EB),43.067992,-89.475404,14,1835,778D22,000000,24
2183,REGENT & ROCK (EB),43.068002,-89.473689,14,1835,778D22,000000,25
2153,REGENT & MERRILL CREST (EB),43.06794,-89.470467,14,1835,778D22,000000,26
2201,REGENT & WHITNEY (EB),43.067995,-89.46799,14,1835,778D22,000000,27
2121,EAU CLAIRE & REGENT (NB),43.069288,-89.463166,14,1835,778D22,000000,28
2175,SHEBOYGAN & EAU CLAIRE (EB),43.072917,-89.463696,14,1835,778D22,000000,29
6253,RANDOLPH & WESTWARD (NB),43.061329,-89.512643,15,1836,BCC926,000000,13
6277,RANDOLPH & TREE (NB),43.063944,-89.512543,15,1836,BCC926,000000,14
6539,HIGH PT & TREE (NB),43.06435,-89.517279,15,1836,BCC926,000000,15
6665,HIGH PT & BRULE (NB),43.068085,-89.517485,15,1836,BCC926,000000,16
6531,HIGH PT & SAUK CREEK (NB),43.072378,-89.519752,15,1836,BCC926,000000,17
6189,OLD SAUK & HIGH PT (EB),43.074947,-89.518261,15,1836,BCC926,000000,47
6873,OLD SAUK & WIDGEON (EB),43.075,-89.513038,15,1836,BCC926,000000,48
6245,OLD SAUK & SAUKDALE (EB),43.075087,-89.509374,15,1836,BCC926,000000,49
6327,WESTFIELD & OLD SAUK (NB),43.075419,-89.507475,15,1836,BCC926,000000,51
6309,SAWMILL & WESTFIELD (EB),43.079964,-89.509348,15,1836,BCC926,000000,52
6817,SAWMILL & RAMSGATE (EB),43.081301,-89.506125,15,1836,BCC926,000000,53
6615,SAWMILL & GAMMON (EB),43.081137,-89.502574,15,1836,BCC926,000000,54
6921,OLD SAUK & GAMMON (EB),43.076576,-89.502099,15,1836,BCC926,000000,55
6115,OLD SAUK & EVERGLADE (EB),43.075167,-89.497972,15,1836,BCC926,000000,56
6857,OLD SAUK & YOSEMITE (EB),43.075137,-89.493718,15,1836,BCC926,000000,57
6233,OLD SAUK & OZARK (EB),43.075122,-89.488792,15,1836,BCC926,000000,58
6161,OLD SAUK & CRESTWOOD ES (EB),43.075134,-89.481607,15,1836,BCC926,000000,59
2617,OLD MIDDLETON & ROSA (EB),43.074652,-89.477558,15,1836,BCC926,000000,60
2205,OLD MIDDLETON & GETTLE (EB),43.074126,-89.473967,15,1836,BCC926,000000,61
2787,OLD MIDDLETON & WHITNEY (EB),43.073913,-89.467931,15,1836,BCC926,000000,62
2397,SHEBOYGAN & WHITNEY (EB),43.073027,-89.46715,15,1836,BCC926,000000,63
2175,SHEBOYGAN & EAU CLAIRE (EB),43.072917,-89.463696,15,1836,BCC926,000000,64
7605,PFLAUM & ALDER (EB),43.061955,-89.323655,16,2480,B86FAD,000000,21
7739,PFLAUM & GROVELAND (EB),43.062024,-89.320145,16,2480,B86FAD,000000,22
7119,PFLAUM & HERRO (EB),43.062112,-89.315494,16,2480,B86FAD,000000,23
7107,TURNER & PFLAUM (NB),43.062441,-89.314123,16,2480,B86FAD,000000,24
7709,TURNER & LINDA VISTA (NB),43.063878,-89.314372,16,2480,B86FAD,000000,25
7663,TURNER & HOB (NB),43.066178,-89.314333,16,2480,B86FAD,000000,26
7165,TURNER & KAY (NB),43.06808,-89.314308,16,2480,B86FAD,000000,27
7729,TURNER & RUTH (NB),43.06978,-89.314289,16,2480,B86FAD,000000,28
7115,TURNER & ALLIS (NB),43.071113,-89.314104,16,2480,B86FAD,000000,29
7761,TURNER & BUCKEYE (NB),43.07359,-89.314099,16,2480,B86FAD,000000,30
7322,BUCKEYE & SPAANEM (WB),43.073988,-89.315236,16,2480,B86FAD,000000,31
7838,BUCKEYE & LAKEVIEW (WB),43.075344,-89.317865,16,2480,B86FAD,000000,32
7152,BUCKEYE & DAVIES (WB),43.077154,-89.32016,16,2480,B86FAD,000000,33
7388,BUCKEYE & MONONA (WB),43.079852,-89.323601,16,2480,B86FAD,000000,34
7215,ATWOOD & COTTAGE GR (NB),43.083989,-89.325059,16,2480,B86FAD,000000,35
7379,ATWOOD & OLBRICH (NB),43.086032,-89.325902,16,2480,B86FAD,000000,36
7745,ATWOOD & MARGARET (NB),43.087462,-89.327075,16,2480,B86FAD,000000,37
1225,WALTER & ATWOOD (NB),43.089833,-89.3291,16,2480,B86FAD,000000,38
1785,WALTER & CAPITOL CITY (NB),43.090986,-89.32794,16,2480,B86FAD,000000,39
1809,WALTER & RICHARD (NB),43.093288,-89.326693,16,2480,B86FAD,000000,40
1153,WALTER & DAWES (NB),43.095591,-89.326586,16,2480,B86FAD,000000,41
1105,MILWAUKEE & WALTER (EB),43.098137,-89.326231,16,2480,B86FAD,000000,42
7100,EAST TRANSFER POINT,43.098601,-89.322445,16,2480,B86FAD,000000,43
5100,NORTH TRANSFER POINT,43.112847,-89.358591,17,1837,3B69B3,000000,1
1895,ABERG & LOFTSGORDAN RR (EB),43.114135,-89.357806,17,1837,3B69B3,000000,2
9837,SHOPKO & ABERG (NB),43.111181,-89.346808,17,1837,3B69B3,000000,3
9274,SHOPKO DR & SHOPKO NORTH (WB),43.112843,-89.34808,17,1837,3B69B3,000000,4
9361,COMMERCIAL & FAIR OAKS (EB),43.106242,-89.330982,17,1837,3B69B3,000000,5
1420,FAIR OAKS & CHICAGO (SB),43.101735,-89.33104,17,1837,3B69B3,000000,6
1751,MILWAUKEE & FAIR OAKS (EB),43.099378,-89.331504,17,1837,3B69B3,000000,7
1309,MILWAUKEE & LEON (EB),43.098284,-89.329172,17,1837,3B69B3,000000,8
1105,MILWAUKEE & WALTER (EB),43.098137,-89.326231,17,1837,3B69B3,000000,9
7100,EAST TRANSFER POINT,43.098601,-89.322445,17,1837,3B69B3,000000,10
6100,WEST TRANSFER POINT,43.053874,-89.47553,18,1838,3966B0,000000,1
2939,TOKAY & BLUEBIRD (EB),43.053527,-89.469568,18,1838,3966B0,000000,2
2323,TOKAY & SEGOE (EB),43.053582,-89.465952,18,1838,3966B0,000000,3
2417,TOKAY & WEDGEWOOD (EB),43.053574,-89.463706,18,1838,3966B0,000000,4
2161,TOKAY & HILLTOP (EB),43.05353,-89.458795,18,1838,3966B0,000000,5
2615,TOKAY & CHARLES (EB),43.053522,-89.455117,18,1838,3966B0,000000,6
2476,MIDVALE & TOKAY (SB),43.053332,-89.451292,18,1838,3966B0,000000,7
2634,MIDVALE & ODANA (SB),43.049837,-89.451287,18,1838,3966B0,000000,8
4176,MIDVALE & YUMA (SB),43.045718,-89.451351,18,1838,3966B0,000000,9
4342,MIDVALE & CHEROKEE (SB),43.042198,-89.451286,18,1838,3966B0,000000,10
4354,MIDVALE & NAKOMA (SB),43.038599,-89.451354,18,1838,3966B0,000000,11
4714,VERONA FT & RED ARROW (WB),43.03272,-89.457765,18,1838,3966B0,000000,12
4500,RED ARROW & THURSTON (SB),43.030803,-89.456654,18,1838,3966B0,000000,13
4202,RED ARROW & JENEWEIN (SB),43.028841,-89.456243,18,1838,3966B0,000000,14
4580,RED ARROW & PAWNEE (SB),43.02679,-89.455845,18,1838,3966B0,000000,15
4856,CRESCENT & RED ARROW (WB),43.025628,-89.45547,18,1838,3966B0,000000,16
4990,CRESCENT & ALLIED (WB),43.024823,-89.459435,18,1838,3966B0,000000,17
4791,ALLIED & LOVELL (NB),43.027154,-89.459602,18,1838,3966B0,000000,28
4849,ALLIED & JENEWEIN (NB),43.029251,-89.459298,18,1838,3966B0,000000,29
4663,ALLIED & THURSTON (NB),43.031621,-89.458948,18,1838,3966B0,000000,30
4179,VERONA FT & RED ARROW (EB),43.033246,-89.456844,18,1838,3966B0,000000,31
4901,VERONA FT & MADISON PLZ (EB),43.034058,-89.454939,18,1838,3966B0,000000,32
4215,BRITTA & HELENE (EB),43.035009,-89.452535,18,1838,3966B0,000000,33
4957,WHENONA & BELTLINE FT (S) (NB),43.034561,-89.448522,18,1838,3966B0,000000,34
4685,BELTLINE FT (S) & DANBURY (EB),43.03442,-89.447002,18,1838,3966B0,000000,35
4539,BELTLINE FT (S) & SEMINOLE (EB),43.034349,-89.44335,18,1838,3966B0,000000,36
4873,BELTLINE FT (S) & ALHAMBRA (EB),43.03497,-89.435651,18,1838,3966B0,000000,37
4139,BELTLINE FT (S) & GRANDVIEW (EB),43.035132,-89.433005,18,1838,3966B0,000000,38
4377,BELTLINE FT (S) & LANDMARK (EB),43.034736,-89.428451,18,1838,3966B0,000000,39
4841,BELTLINE FT (S) & TODD (EB),43.034909,-89.423209,18,1838,3966B0,000000,40
4426,COHO & BELTLINE FT (S) (SB),43.034417,-89.415027,18,1838,3966B0,000000,41
4739,GREENWAY & COHO (EB),43.030878,-89.414401,18,1838,3966B0,000000,42
4373,GREENWAY & BRYANT (EB),43.031169,-89.410895,18,1838,3966B0,000000,43
4845,FISH HATCHERY & EMIL (NB),43.03682,-89.405028,18,1838,3966B0,000000,44
353,BADGER & FISH HATCHERY (EB),43.038566,-89.403078,18,1838,3966B0,000000,45
121,BADGER & FIEDLER (EB),43.038531,-89.401256,18,1838,3966B0,000000,46
173,BADGER & CYPRESS (EB),43.038513,-89.39803,18,1838,3966B0,000000,47
4100,SOUTH TRANSFER POINT,43.039101,-89.394589,18,1838,3966B0,000000,48
1787,PINCKNEY & MAIN (NB),43.074989,-89.382341,19,1839,B8DB99,000000,1
1100,MIFFLIN & PINCKNEY (WB),43.076045,-89.384707,19,1839,B8DB99,000000,2
1324,CARROLL & MIFFLIN (SB),43.074513,-89.386185,19,1839,B8DB99,000000,3
1101,MAIN & CARROLL (EB),43.073333,-89.38386,19,1839,B8DB99,000000,4
1872,M L K JR & CCB (SB),43.07292,-89.381872,19,1839,B8DB99,000000,5
248,WILSON & CARROLL (WB),43.071909,-89.382367,19,1839,B8DB99,000000,6
564,WILSON & HAMILTON (WB),43.070796,-89.38391,19,1839,B8DB99,000000,7
668,DOTY & HENRY (WB),43.070985,-89.385498,19,1839,B8DB99,000000,8
161,BROOM & DOTY (NB),43.07015,-89.387089,19,1839,B8DB99,000000,9
965,BROOM & WEST WASH (NB),43.071306,-89.388566,19,1839,B8DB99,000000,10
593,BROOM & DAYTON (NB),43.073066,-89.391032,19,1839,B8DB99,000000,11
87,BROOM & GORHAM (NB),43.074081,-89.392363,19,1839,B8DB99,000000,12
428,GORHAM & BASSETT (WB),43.073342,-89.393873,19,1839,B8DB99,000000,13
568,UNIV AVE & FRANCES (WB),43.073302,-89.396115,19,1839,B8DB99,000000,14
670,UNIV AVE & LAKE (WB),43.073318,-89.39797,19,1839,B8DB99,000000,15
100,UNIV AVE & N PARK (WB),43.073367,-89.401463,19,1839,B8DB99,000000,16
234,UNIV AVE & MILLS (WB),43.073422,-89.403854,19,1839,B8DB99,000000,17
178,UNIV AVE & ORCHARD (WB),43.073427,-89.407056,19,1839,B8DB99,000000,18
160,UNIV AVE & RANDALL (WB),43.073506,-89.409432,19,1839,B8DB99,000000,19
692,UNIV AVE & BREESE (WB),43.073499,-89.41429,19,1839,B8DB99,000000,20
2806,UNIV AVE & PRINCETON (WB),43.073303,-89.418141,19,1839,B8DB99,000000,21
2146,UNIV AVE & FOREST (WB),43.072783,-89.421882,19,1839,B8DB99,000000,22
2880,ALLEN & UNIV AVE (SB),43.072267,-89.423809,19,1839,B8DB99,000000,23
2678,ALLEN & CHAMBERLAIN (SB),43.070976,-89.423829,19,1839,B8DB99,000000,24
2306,ALLEN & REGENT (SB),43.068101,-89.423858,19,1839,B8DB99,000000,25
2640,ALLEN & COMMONWEALTH (SB),43.065599,-89.423855,19,1839,B8DB99,000000,26
2180,COMMONWEALTH & RUGBY (SB),43.064393,-89.425259,19,1839,B8DB99,000000,27
2624,COMMONWEALTH & LEONARD (SB),43.061991,-89.42633,19,1839,B8DB99,000000,28
2710,COMMONWEALTH & GREGORY (SB),43.060187,-89.427267,19,1839,B8DB99,000000,29
2480,COMMONWEALTH & MONROE (SB),43.058434,-89.427391,19,1839,B8DB99,000000,30
2380,MONROE & KNICKERBOCKER (WB),43.057409,-89.428746,19,1839,B8DB99,000000,31
2132,MONROE & PICKFORD (WB),43.056288,-89.430408,19,1839,B8DB99,000000,32
2838,MONROE & CHAPMAN (WB),43.055183,-89.43202,19,1839,B8DB99,000000,33
2914,MONROE & WESTERN (WB),43.054074,-89.433649,19,1839,B8DB99,000000,34
2112,MONROE & GLENWAY (WB),43.052792,-89.43559,19,1839,B8DB99,000000,35
4718,NAKOMA & SPRING (WB),43.05082,-89.437311,19,1839,B8DB99,000000,36
4382,NAKOMA & HURON (WB),43.048108,-89.439125,19,1839,B8DB99,000000,37
4846,NAKOMA & SEMINOLE (WB),43.044112,-89.443696,19,1839,B8DB99,000000,38
4346,NAKOMA & WABAN (WB),43.041218,-89.447407,19,1839,B8DB99,000000,39
4964,NAKOMA & WHENONA (WB),43.039941,-89.449075,19,1839,B8DB99,000000,40
4354,MIDVALE & NAKOMA (SB),43.038599,-89.451354,19,1839,B8DB99,000000,41
4967,CHALET GDNS & VERONA FT (EB),43.027775,-89.46379,19,1839,B8DB99,000000,70
5100,NORTH TRANSFER POINT,43.112847,-89.358591,20,1840,A7533E,000000,1
1895,ABERG & LOFTSGORDAN RR (EB),43.114135,-89.357806,20,1840,A7533E,000000,2
5733,PACKERS & SCHLIMGEN (NB),43.118642,-89.354854,20,1840,A7533E,000000,9
9381,INTERNATIONAL & PACKERS (NB),43.121837,-89.353764,20,1840,A7533E,000000,10
9107,INTERNATIONAL & ANDERSON (NB),43.123952,-89.350932,20,1840,A7533E,000000,11
9493,INTERNATIONAL & AMERICAN (NB),43.125738,-89.349818,20,1840,A7533E,000000,12
9729,INTERNATIONAL & ELDER CARE (NB),43.127378,-89.348976,20,1840,A7533E,000000,13
9817,INTERNATIONAL & DARWIN (NB),43.129226,-89.348354,20,1840,A7533E,000000,14
9503,INTERNATIONAL & AIR FRT (NB),43.131995,-89.347213,20,1840,A7533E,000000,15
9169,AIRPORT & ARRIVALS SIX (NB),43.137269,-89.346458,20,1840,A7533E,000000,16
9340,INTERNATIONAL & ECON LOT (SB),43.131556,-89.348533,20,1840,A7533E,000000,17
9168,INTERNATIONAL & DARWIN (SB),43.128598,-89.348674,20,1840,A7533E,000000,18
9488,INTERNATIONAL & ELDER CARE (SB),43.127457,-89.349215,20,1840,A7533E,000000,19
9790,INTERNATIONAL & AMERICAN (SB),43.125322,-89.350103,20,1840,A7533E,000000,20
9847,ANDERSON & PANKRATZ (EB),43.121969,-89.349465,20,1840,A7533E,000000,21
9259,ANDERSON & HOFFMAN (EB),43.120142,-89.333407,20,1840,A7533E,000000,22
9675,ANDERSON & WRIGHT (EB),43.12005,-89.330159,20,1840,A7533E,000000,23
9201,ANDERSON & MADISON COLL (EB),43.120719,-89.326575,20,1840,A7533E,000000,24
9551,EAST WASH & MAC ARTHUR (EB),43.117444,-89.32342,20,1840,A7533E,000000,28
9573,EAST WASH & MENDOTA (EB),43.118978,-89.321043,20,1840,A7533E,000000,29
9685,LIEN & EAST WASH (EB),43.120918,-89.317174,20,1840,A7533E,000000,30
9231,LIEN & PARKSIDE (EB),43.120907,-89.314889,20,1840,A7533E,000000,31
9849,LIEN & THIERER (EB),43.121109,-89.310874,20,1840,A7533E,000000,32
9719,EAGAN & LIEN (NB),43.121313,-89.307191,20,1840,A7533E,000000,33
9677,EAST TOWNE & EAGAN (EB),43.125271,-89.308828,20,1840,A7533E,000000,34
9800,E TOWNE RNG & SHELTER (EB),43.126576,-89.306961,20,1840,A7533E,000000,35
5765,SCHOOL & NORTHPORT (NB),43.138369,-89.382933,21,1841,729680,000000,14
5127,SCHOOL & HAVEY (NB),43.14089,-89.382876,21,1841,729680,000000,15
5173,SCHOOL & FULTON (NB),43.143707,-89.382811,21,1841,729680,000000,16
5625,SCHOOL & NORTHLAND (NB),43.145959,-89.382706,21,1841,729680,000000,17
5797,NORTHLAND & JUDY (EB),43.145657,-89.38063,21,1841,729680,000000,18
5105,NORTHLAND & MANDRAKE (EB),43.145047,-89.378245,21,1841,729680,000000,19
5607,NORTHLAND & DELAWARE (EB),43.145234,-89.375428,21,1841,729680,000000,20
5865,DELAWARE & TENNESSEE (EB),43.144974,-89.37392,21,1841,729680,000000,21
5847,DELAWARE & ESCH (EB),43.144605,-89.370337,21,1841,729680,000000,22
5411,DELAWARE & DAKOTA (EB),43.14336,-89.3682,21,1841,729680,000000,23
5287,DELAWARE & N SHERMAN (EB),43.142471,-89.363283,21,1841,729680,000000,24
5888,N SHERMAN & SUNFIELD (SB),43.139293,-89.363298,21,1841,729680,000000,25
5432,N SHERMAN & LAKE VW (SB),43.137344,-89.363323,21,1841,729680,000000,26
5335,TENNYSON & N SHERMAN (EB),43.134798,-89.363067,21,1841,729680,000000,27
5993,TENNYSON & ELIOT (EB),43.134743,-89.360929,21,1841,729680,000000,28
5427,TENNYSON & PACKERS (EB),43.134606,-89.355765,21,1841,729680,000000,29
5549,PACKERS & SCOTT (SB),43.133047,-89.355466,21,1841,729680,000000,30
5356,LONDONDERRY & PACKERS (WB),43.1302,-89.355625,21,1841,729680,000000,31
5306,LONDONDERRY & DRYDEN (WB),43.129987,-89.358523,21,1841,729680,000000,32
5109,NORTHPORT & DRYDEN (EB),43.128761,-89.358674,21,1841,729680,000000,33
5320,PACKERS & ELKA (SB),43.12593,-89.355489,21,1841,729680,000000,34
5228,PACKERS & MANLEY (SB),43.123745,-89.35522,21,1841,729680,000000,35
5856,PACKERS & INTERNATIONAL (SB),43.121158,-89.355222,21,1841,729680,000000,36
5420,PACKERS & SCHLIMGEN (SB),43.118481,-89.355249,21,1841,729680,000000,37
1380,ABERG & LOFTSGORDAN RR (WB),43.114268,-89.357264,21,1841,729680,000000,38
5100,NORTH TRANSFER POINT,43.112847,-89.358591,21,1841,729680,000000,39
5100,NORTH TRANSFER POINT,43.112847,-89.358591,22,1842,44BC9B,000000,1
1410,ROTH & RUSKIN (WB),43.111485,-89.361702,22,1842,44BC9B,000000,2
1341,N SHERMAN & ABERG (NB),43.114017,-89.363678,22,1842,44BC9B,000000,3
5361,N SHERMAN & BOYD (NB),43.115261,-89.363662,22,1842,44BC9B,000000,4
5199,N SHERMAN & SCHLIMGEN (NB),43.119129,-89.363612,22,1842,44BC9B,000000,5
5407,N SHERMAN & MELROSE (NB),43.123392,-89.363554,22,1842,44BC9B,000000,6
5683,N SHERMAN & TRAILSWAY (NB),43.126131,-89.36347,22,1842,44BC9B,000000,7
5823,N SHERMAN & SHERMAN PLZ (NB),43.128984,-89.363451,22,1842,44BC9B,000000,8
5366,NORTHPORT & N SHERMAN (WB),43.130984,-89.363787,22,1842,44BC9B,000000,9
5346,NORTHPORT & WARNER PK (WB),43.132579,-89.367369,22,1842,44BC9B,000000,10
5142,TROY & FORSTER (WB),43.133782,-89.373194,22,1842,44BC9B,000000,11
5178,TROY & GOODLAND (WB),43.133815,-89.377623,22,1842,44BC9B,000000,12
5260,TROY & PED XING (WB),43.133808,-89.380586,22,1842,44BC9B,000000,13
5796,TROY & SCHOOL (WB),43.133809,-89.383636,22,1842,44BC9B,000000,14
5342,TROY & KARSTENS (WB),43.133837,-89.386191,22,1842,44BC9B,000000,15
5536,TROY & LERDAHL (WB),43.133858,-89.389188,22,1842,44BC9B,000000,16
5950,TROY & HARPER (WB),43.133868,-89.393252,22,1842,44BC9B,000000,17
5197,TROY & NORTH (NB),43.134756,-89.397039,22,1842,44BC9B,000000,18
5203,GREEN & MEADOW RG (NB),43.137606,-89.397757,22,1842,44BC9B,000000,19
5657,MURPHY & GREEN (EB),43.139003,-89.396769,22,1842,44BC9B,000000,20
5835,NORTH & TOUSSAINT (EB),43.140791,-89.395223,22,1842,44BC9B,000000,21
5397,KNUTSON & NORTHPORT (EB),43.141765,-89.392668,22,1842,44BC9B,000000,22
5705,NORTHPORT & KENNEDY (EB),43.139364,-89.387245,22,1842,44BC9B,000000,23
5421,NORTHPORT & SCHOOL (EB),43.138029,-89.383477,22,1842,44BC9B,000000,24
5663,NORTHPORT & BARBY (EB),43.137079,-89.380611,22,1842,44BC9B,000000,25
5815,NORTHPORT & GOODLAND (EB),43.135788,-89.376552,22,1842,44BC9B,000000,26
5149,NORTHPORT & TROY (EB),43.133888,-89.371272,22,1842,44BC9B,000000,27
5899,NORTHPORT & WARNER PK (EB),43.132194,-89.367356,22,1842,44BC9B,000000,28
5162,N SHERMAN & NORTHPORT (SB),43.130285,-89.363614,22,1842,44BC9B,000000,29
5382,N SHERMAN & TRAILSWAY (SB),43.126353,-89.363707,22,1842,44BC9B,000000,30
5354,N SHERMAN & MELROSE (SB),43.123167,-89.363757,22,1842,44BC9B,000000,31
5748,N SHERMAN & SCHLIMGEN (SB),43.119129,-89.363834,22,1842,44BC9B,000000,32
5296,N SHERMAN & BOYD (SB),43.115268,-89.363874,22,1842,44BC9B,000000,33
1755,ABERG & RUSKIN (EB),43.114182,-89.361655,22,1842,44BC9B,000000,34
5100,NORTH TRANSFER POINT,43.112847,-89.358591,22,1842,44BC9B,000000,35
1101,MAIN & CARROLL (EB),43.073333,-89.38386,25,1844,A29F9A,000000,1
1787,PINCKNEY & MAIN (NB),43.074989,-89.382341,25,1844,A29F9A,000000,2
1323,EAST WASH & WEBSTER (EB),43.076387,-89.381563,25,1844,A29F9A,000000,3
1579,EAST WASH & BLAIR (EB),43.078328,-89.378807,25,1844,A29F9A,000000,4
1199,EAST WASH & INGERSOLL (EB),43.085012,-89.369345,25,1844,A29F9A,000000,5
1805,EAST WASH & DICKINSON (EB),43.088337,-89.364485,25,1844,A29F9A,000000,6
1241,EAST WASH & FIRST (EB),43.091981,-89.359353,25,1844,A29F9A,000000,7
1141,EAST WASH & FOURTH (EB),43.095914,-89.354117,25,1844,A29F9A,000000,8
1311,EAST WASH & MILWAUKEE (EB),43.100527,-89.348409,25,1844,A29F9A,000000,9
1269,EAST WASH & E JOHNSON (EB),43.102851,-89.344693,25,1844,A29F9A,000000,10
9339,EAST WASH & MELVIN (EB),43.109287,-89.335505,25,1844,A29F9A,000000,11
9573,EAST WASH & MENDOTA (EB),43.118978,-89.321043,25,1844,A29F9A,000000,12
9163,EAST WASH & INDEPENDENCE (EB),43.128046,-89.307798,25,1844,A29F9A,000000,13
9147,EASTPARK & P&R LOT (NB),43.148578,-89.286323,25,1844,A29F9A,000000,14
9595,AMERICAN & AMERICAN FAM (NB),43.152442,-89.286434,25,1844,A29F9A,000000,15
9803,AMERICAN & TANCHO (NB),43.154542,-89.285307,25,1844,A29F9A,000000,16
9684,AM FAM DR & AMERICAN (WB),43.158124,-89.285783,25,1844,A29F9A,000000,17
9900,AM FAM DR & HQ BLDG (SB),43.156645,-89.287527,25,1844,A29F9A,000000,18
9744,BUTTONWOOD & AMERICAN (WB),43.150716,-89.290122,25,1844,A29F9A,000000,19
9358,BILTMORE & BUTTONWOOD (SB),43.150234,-89.293475,25,1844,A29F9A,000000,20
9246,BILTMORE & 4702 (SB),43.147841,-89.294222,25,1844,A29F9A,000000,21
9766,BILTMORE & EASTPARK (SB),43.146111,-89.292024,25,1844,A29F9A,000000,22
9527,TERRACE & TERRACE (EB),43.143487,-89.295649,25,1844,A29F9A,000000,23
9113,TERRACE & 5117 (EB),43.142372,-89.293675,25,1844,A29F9A,000000,24
9581,TERRACE & HERZING UNIV (EB),43.143983,-89.291099,25,1844,A29F9A,000000,25
9901,TERRACE & UW CLINIC (EB),43.144748,-89.290275,25,1844,A29F9A,000000,26
9747,TERRACE & EASTPARK (EB),43.146117,-89.29141,25,1844,A29F9A,000000,27
9472,AMERICAN & EASTPARK (SB),43.147441,-89.290069,25,1844,A29F9A,000000,28
9800,E TOWNE RNG & SHELTER (EB),43.126576,-89.306961,26,3727,561083,FFFFFF,1
9163,EAST WASH & INDEPENDENCE (EB),43.128046,-89.307798,26,3727,561083,FFFFFF,2
9321,EAST WASH & ZEIER (EB),43.129771,-89.305312,26,3727,561083,FFFFFF,3
9475,EAST WASH & E SPRINGS (EB),43.131721,-89.302529,26,3727,561083,FFFFFF,4
9333,AMERICAN & EASTPARK (NB),43.148058,-89.289833,26,3727,561083,FFFFFF,5
9744,BUTTONWOOD & AMERICAN (WB),43.150716,-89.290122,26,3727,561083,FFFFFF,6
9358,BILTMORE & BUTTONWOOD (SB),43.150234,-89.293475,26,3727,561083,FFFFFF,7
9246,BILTMORE & 4702 (SB),43.147841,-89.294222,26,3727,561083,FFFFFF,8
9766,BILTMORE & EASTPARK (SB),43.146111,-89.292024,26,3727,561083,FFFFFF,9
9472,AMERICAN & EASTPARK (SB),43.147441,-89.290069,26,3727,561083,FFFFFF,10
9520,EAST WASH & E SPRINGS (WB),43.131596,-89.303431,26,3727,561083,FFFFFF,11
9928,EAST TOWNE & ZEIER (WB),43.128849,-89.30503,26,3727,561083,FFFFFF,12
9224,EAST TOWNE & INDEPENDENCE (WB),43.127195,-89.307726,26,3727,561083,FFFFFF,13
9800,E TOWNE RNG & SHELTER (EB),43.126576,-89.306961,26,3727,561083,FFFFFF,14
47,BABCOCK & LINDEN (NB),43.074639,-89.412718,27,1845,7DC0D0,000000,1
573,LINDEN & HENRY MALL (EB),43.075039,-89.41024,27,1845,7DC0D0,000000,2
438,LINDEN & CHARTER (EB),43.074985,-89.406475,27,1845,7DC0D0,000000,3
706,CHARTER & UNIV AVE (SB),43.074079,-89.406253,27,1845,7DC0D0,000000,4
490,CHARTER & W JOHNSON (SB),43.072388,-89.405846,27,1845,7DC0D0,000000,5
741,W JOHNSON & MILLS (EB),43.072093,-89.404315,27,1845,7DC0D0,000000,6
455,W JOHNSON & N PARK (EB),43.072027,-89.400138,27,1845,7DC0D0,000000,29
435,W JOHNSON & LAKE (EB),43.071984,-89.39718,27,1845,7DC0D0,000000,30
941,W JOHNSON & FRANCES (EB),43.071968,-89.395488,27,1845,7DC0D0,000000,31
555,W JOHNSON & BASSETT (EB),43.072371,-89.393298,27,1845,7DC0D0,000000,32
839,W JOHNSON & BROOM (EB),43.073638,-89.391446,27,1845,7DC0D0,000000,33
567,W JOHNSON & CARROLL (EB),43.075933,-89.388251,27,1845,7DC0D0,000000,34
597,E JOHNSON & PINCKNEY (EB),43.077407,-89.38603,27,1845,7DC0D0,000000,35
1227,E JOHNSON & HANCOCK (EB),43.079626,-89.382881,27,1845,7DC0D0,000000,36
1831,E JOHNSON & BLAIR (EB),43.080788,-89.381307,27,1845,7DC0D0,000000,37
1393,E JOHNSON & BLOUNT (EB),43.081772,-89.379814,27,1845,7DC0D0,000000,38
1121,E JOHNSON & LIVINGSTON (EB),43.082937,-89.378175,27,1845,7DC0D0,000000,39
1159,E JOHNSON & PATERSON (EB),43.084322,-89.376284,27,1845,7DC0D0,000000,40
1187,E JOHNSON & BREARLY (EB),43.085591,-89.374529,27,1845,7DC0D0,000000,41
1205,E JOHNSON & INGERSOLL (EB),43.086848,-89.372727,27,1845,7DC0D0,000000,42
1443,E JOHNSON & FEW (EB),43.088117,-89.370905,27,1845,7DC0D0,000000,43
1325,E JOHNSON & BALDWIN (EB),43.089625,-89.368783,27,1845,7DC0D0,000000,44
1595,E JOHNSON & THORNTON (EB),43.091733,-89.365766,27,1845,7DC0D0,000000,45
1333,E JOHNSON & FORDEM (EB),43.093124,-89.363646,27,1845,7DC0D0,000000,46
1843,E JOHNSON & FIRST (EB),43.094346,-89.361754,27,1845,7DC0D0,000000,47
1427,PACKERS & COMMERCIAL (NB),43.107064,-89.354439,27,1845,7DC0D0,000000,55
1380,ABERG & LOFTSGORDAN RR (WB),43.114268,-89.357264,27,1845,7DC0D0,000000,56
5100,NORTH TRANSFER POINT,43.112847,-89.358591,27,1845,7DC0D0,000000,57
2131,U BAY & UNIV AVE (NB),43.073971,-89.433665,28,1846,00B6D1,000000,16
2473,HIGHLAND & WAISMAN CTR (NB),43.078181,-89.433241,28,1846,00B6D1,000000,17
2349,HIGHLAND & MARSH (EB),43.078504,-89.430495,28,1846,00B6D1,000000,18
2091,OBSERVATORY & HIGHLAND (EB),43.076973,-89.428672,28,1846,00B6D1,000000,19
2007,OBSERVATORY & WALNUT (EB),43.076472,-89.424517,28,1846,00B6D1,000000,20
2267,OBSERVATORY & NATATORIUM (EB),43.0764,-89.419931,28,1846,00B6D1,000000,21
2195,OBSERVATORY & ELM (EB),43.076391,-89.416264,28,1846,00B6D1,000000,22
2145,OBSERVATORY & BABCOCK (EB),43.076355,-89.41303,28,1846,00B6D1,000000,23
298,BABCOCK & LINDEN (SB),43.07537,-89.412845,28,1846,00B6D1,000000,24
573,LINDEN & HENRY MALL (EB),43.075039,-89.41024,28,1846,00B6D1,000000,25
438,LINDEN & CHARTER (EB),43.074985,-89.406475,28,1846,00B6D1,000000,26
706,CHARTER & UNIV AVE (SB),43.074079,-89.406253,28,1846,00B6D1,000000,27
490,CHARTER & W JOHNSON (SB),43.072388,-89.405846,28,1846,00B6D1,000000,28
741,W JOHNSON & MILLS (EB),43.072093,-89.404315,28,1846,00B6D1,000000,29
455,W JOHNSON & N PARK (EB),43.072027,-89.400138,28,1846,00B6D1,000000,30
435,W JOHNSON & LAKE (EB),43.071984,-89.39718,28,1846,00B6D1,000000,31
941,W JOHNSON & FRANCES (EB),43.071968,-89.395488,28,1846,00B6D1,000000,32
555,W JOHNSON & BASSETT (EB),43.072371,-89.393298,28,1846,00B6D1,000000,33
839,W JOHNSON & BROOM (EB),43.073638,-89.391446,28,1846,00B6D1,000000,34
567,W JOHNSON & CARROLL (EB),43.075933,-89.388251,28,1846,00B6D1,000000,35
597,E JOHNSON & PINCKNEY (EB),43.077407,-89.38603,28,1846,00B6D1,000000,36
1227,E JOHNSON & HANCOCK (EB),43.079626,-89.382881,28,1846,00B6D1,000000,37
1831,E JOHNSON & BLAIR (EB),43.080788,-89.381307,28,1846,00B6D1,000000,38
1393,E JOHNSON & BLOUNT (EB),43.081772,-89.379814,28,1846,00B6D1,000000,39
1121,E JOHNSON & LIVINGSTON (EB),43.082937,-89.378175,28,1846,00B6D1,000000,40
1159,E JOHNSON & PATERSON (EB),43.084322,-89.376284,28,1846,00B6D1,000000,41
1187,E JOHNSON & BREARLY (EB),43.085591,-89.374529,28,1846,00B6D1,000000,42
1205,E JOHNSON & INGERSOLL (EB),43.086848,-89.372727,28,1846,00B6D1,000000,43
1443,E JOHNSON & FEW (EB),43.088117,-89.370905,28,1846,00B6D1,000000,44
1325,E JOHNSON & BALDWIN (EB),43.089625,-89.368783,28,1846,00B6D1,000000,45
1595,E JOHNSON & THORNTON (EB),43.091733,-89.365766,28,1846,00B6D1,000000,46
1707,FORDEM & E JOHNSON (NB),43.093514,-89.36356,28,1846,00B6D1,000000,47
1177,FORDEM & LAKEWOOD (NB),43.096916,-89.363693,28,1846,00B6D1,000000,48
1379,FORDEM & MC GUIRE (NB),43.101039,-89.363946,28,1846,00B6D1,000000,49
1717,N SHERMAN & FORDEM (NB),43.103622,-89.363897,28,1846,00B6D1,000000,55
1923,N SHERMAN & COMMERCIAL (NB),43.106605,-89.363886,28,1846,00B6D1,000000,56
1715,N SHERMAN & OXFORD (NB),43.109372,-89.363835,28,1846,00B6D1,000000,57
1161,N SHERMAN & ROTH (NB),43.111349,-89.363772,28,1846,00B6D1,000000,58
1123,ROTH & RUSKIN (EB),43.111376,-89.36166,28,1846,00B6D1,000000,59
5100,NORTH TRANSFER POINT,43.112847,-89.358591,28,1846,00B6D1,000000,60
133,UNIV AVE & BREESE (EB),43.073337,-89.413257,29,1847,2398A4,000000,1
809,CAMPUS & BABCOCK RR (EB),43.073266,-89.411092,29,1847,2398A4,000000,2
581,W JOHNSON & CHARTER (EB),43.072094,-89.406012,29,1847,2398A4,000000,3
741,W JOHNSON & MILLS (EB),43.072093,-89.404315,29,1847,2398A4,000000,4
455,W JOHNSON & N PARK (EB),43.072027,-89.400138,29,1847,2398A4,000000,5
765,LAKE & UNIV AVE (NB),43.073034,-89.397332,29,1847,2398A4,000000,6
265,STATE & LAKE (EB),43.074887,-89.396803,29,1847,2398A4,000000,7
505,STATE & GILMAN (EB),43.074809,-89.393711,29,1847,2398A4,000000,8
549,STATE & GORHAM (EB),43.074723,-89.392031,29,1847,2398A4,000000,9
803,STATE & W JOHNSON (EB),43.074686,-89.390278,29,1847,2398A4,000000,10
883,STATE & FAIRCHILD (EB),43.074713,-89.388266,29,1847,2398A4,000000,11
1663,STATE & MIFFLIN (EB),43.074668,-89.386819,29,1847,2398A4,000000,12
1101,MAIN & CARROLL (EB),43.073333,-89.38386,29,1847,2398A4,000000,13
1787,PINCKNEY & MAIN (NB),43.074989,-89.382341,29,1847,2398A4,000000,14
1323,EAST WASH & WEBSTER (EB),43.076387,-89.381563,29,1847,2398A4,000000,15
1199,EAST WASH & INGERSOLL (EB),43.085012,-89.369345,29,1847,2398A4,000000,16
1805,EAST WASH & DICKINSON (EB),43.088337,-89.364485,29,1847,2398A4,000000,17
1513,EAST WASH & YAHARA (EB),43.089788,-89.362438,29,1847,2398A4,000000,18
1847,FIRST & MIFFLIN (NB),43.093235,-89.360634,29,1847,2398A4,000000,19
1427,PACKERS & COMMERCIAL (NB),43.107064,-89.354439,29,1847,2398A4,000000,20
5143,PACKERS & INTERNATIONAL (NB),43.121847,-89.354913,29,1847,2398A4,000000,21
5256,SHERMAN PLZ DR & P&R (WB),43.129175,-89.362191,29,1847,2398A4,000000,22
5741,N SHERMAN & NORTHPORT (NB),43.131023,-89.363409,29,1847,2398A4,000000,23
5461,N SHERMAN & THACKERAY (NB),43.132613,-89.363354,29,1847,2398A4,000000,24
5753,N SHERMAN & TENNYSON (NB),43.135081,-89.36328,29,1847,2398A4,000000,25
5889,N SHERMAN & LAKE VW (NB),43.137204,-89.363141,29,1847,2398A4,000000,26
5385,N SHERMAN & MAYFIELD (NB),43.140301,-89.363067,29,1847,2398A4,000000,27
5253,N SHERMAN & DELAWARE (NB),43.143071,-89.362948,29,1847,2398A4,000000,28
5230,WHEELER & N SHERMAN (WB),43.147431,-89.363252,29,1847,2398A4,000000,29
5484,WHEELER & GOLF VIEW (WB),43.147799,-89.367481,29,1847,2398A4,000000,30
5874,WHEELER & WHEELER (WB),43.148322,-89.368759,29,1847,2398A4,000000,31
5295,COMANCHE & GOLF COURSE (NB),43.148969,-89.372116,29,1847,2398A4,000000,32
5628,MENOMONIE & COMANCHE (WB),43.152667,-89.373812,29,1847,2398A4,000000,33
5126,MENOMONIE & CHINOOK (WB),43.152933,-89.378204,29,1847,2398A4,000000,34
5107,BURNING WD & ARAPAHOE (EB),43.155235,-89.374808,29,1847,2398A4,000000,35
5473,MANITOWISH & BURNING WD (EB),43.158249,-89.373843,29,1847,2398A4,000000,36
5214,MANITOWISH & COMANCHE (SB),43.156496,-89.372214,29,1847,2398A4,000000,37
5540,COMANCHE & GOLF COURSE (SB),43.149078,-89.372349,29,1847,2398A4,000000,38
5610,WHEELER & COMANCHE (WB),43.148331,-89.372367,29,1847,2398A4,000000,39
5702,WHEELER & DELAWARE (WB),43.148335,-89.375415,29,1847,2398A4,000000,40
5982,WHEELER & ILENE (WB),43.148402,-89.379601,29,1847,2398A4,000000,41
5370,SCHOOL & NORTHLAND (SB),43.14587,-89.382855,29,1847,2398A4,000000,42
5620,SCHOOL & FULTON (SB),43.143682,-89.382915,29,1847,2398A4,000000,43
5814,SCHOOL & HAVEY (SB),43.141173,-89.383019,29,1847,2398A4,000000,44
7100,EAST TRANSFER POINT,43.098601,-89.322445,30,1848,DA8A39,000000,1
7169,MILWAUKEE & DEMPSEY (EB),43.098159,-89.318457,30,1848,DA8A39,000000,2
9753,NAKOOSA & WALMART (EB),43.109169,-89.312384,30,1848,DA8A39,000000,9
9388,WALSH & NAKOOSA (SB),43.109958,-89.310019,30,1848,DA8A39,000000,10
9778,WALSH & COMMERCIAL (SB),43.106901,-89.310088,30,1848,DA8A39,000000,11
9591,COMMERCIAL & REDLAND (EB),43.106648,-89.305052,30,1848,DA8A39,000000,12
9243,N THOMPSON & COMMERCIAL (NB),43.106947,-89.300502,30,1848,DA8A39,000000,13
9439,N THOMPSON & JANA (NB),43.108613,-89.298854,30,1848,DA8A39,000000,14
9137,N THOMPSON & MESTA (NB),43.109521,-89.29671,30,1848,DA8A39,000000,15
9745,N THOMPSON & GOLDEN LF (NB),43.112074,-89.29613,30,1848,DA8A39,000000,16
9951,N THOMPSON & SYCAMORE (NB),43.114157,-89.296,30,1848,DA8A39,000000,17
9645,N THOMPSON & OAK VALLEY (NB),43.116115,-89.296404,30,1848,DA8A39,000000,18
9291,N THOMPSON & WAYWOOD (NB),43.118986,-89.297711,30,1848,DA8A39,000000,19
9432,LIEN & ZEIER (WB),43.121169,-89.300506,30,1848,DA8A39,000000,20
9719,EAGAN & LIEN (NB),43.121313,-89.307191,30,1848,DA8A39,000000,21
9677,EAST TOWNE & EAGAN (EB),43.125271,-89.308828,30,1848,DA8A39,000000,22
9800,E TOWNE RNG & SHELTER (EB),43.126576,-89.306961,30,1848,DA8A39,000000,23
7100,EAST TRANSFER POINT,43.098601,-89.322445,32,1850,3280A9,000000,1
7169,MILWAUKEE & DEMPSEY (EB),43.098159,-89.318457,32,1850,3280A9,000000,3
7167,MILWAUKEE & WALBRIDGE (EB),43.098285,-89.313595,32,1850,3280A9,000000,4
7209,MILWAUKEE & PORTLAND (EB),43.098663,-89.307331,32,1850,3280A9,000000,5
7633,MILWAUKEE & MILO (EB),43.098726,-89.304818,32,1850,3280A9,000000,6
7175,MILWAUKEE & SWANTON (EB),43.098773,-89.300405,32,1850,3280A9,000000,7
7381,MILWAUKEE & DAFFODIL (EB),43.098851,-89.296724,32,1850,3280A9,000000,8
7201,MILWAUKEE & ANDREW (EB),43.098908,-89.290621,32,1850,3280A9,000000,9
7622,SEVERN & ST ALBANS (WB),43.097353,-89.289243,32,1850,3280A9,000000,10
7234,MERRYTURN & BROOKSHIRE (SB),43.095451,-89.291052,32,1850,3280A9,000000,11
7214,MERRYTURN & RETANA (SB),43.091961,-89.291128,32,1850,3280A9,000000,12
7762,MERRYTURN & SPICEBUSH (SB),43.090613,-89.292026,32,1850,3280A9,000000,13
7154,MERRYTURN & KEVINS (SB),43.088771,-89.293117,32,1850,3280A9,000000,14
7590,MERRYTURN & QUEENSBRIDGE (SB),43.08705,-89.293062,32,1850,3280A9,000000,15
7830,INWOOD & OPEN WOOD (SB),43.085868,-89.294271,32,1850,3280A9,000000,16
7820,INWOOD & COTTAGE GR (SB),43.084601,-89.294083,32,1850,3280A9,000000,17
7991,COTTAGE GR & ELLEN (EB),43.084357,-89.289516,32,1850,3280A9,000000,18
7906,S THOMPSON & DROSTER (SB),43.082987,-89.286087,32,1850,3280A9,000000,19
7680,S THOMPSON & 1306 (SB),43.079632,-89.283531,32,1850,3280A9,000000,20
7840,S THOMPSON & GRAFTON (SB),43.076891,-89.282795,32,1850,3280A9,000000,21
7362,S THOMPSON & DONAUER (SB),43.07438,-89.28299,32,1850,3280A9,000000,22
7610,BUCKEYE & S THOMPSON (WB),43.0736,-89.283231,32,1850,3280A9,000000,23
7984,BUCKEYE & ELLEN (WB),43.073547,-89.288171,32,1850,3280A9,000000,24
7213,VONDRON & BUCKEYE (NB),43.073679,-89.291428,32,1850,3280A9,000000,25
7880,VONDRON & MONTGOMERY (NB),43.075181,-89.291426,32,1850,3280A9,000000,26
7766,STARKER & VONDRON (WB),43.077162,-89.291802,32,1850,3280A9,000000,27
7916,STARKER & WOODVALE (WB),43.077162,-89.295598,32,1850,3280A9,000000,28
7188,STARKER & ANGEL CREST (WB),43.077001,-89.299849,32,1850,3280A9,000000,29
7180,STARKER & ACEWOOD (WB),43.07693,-89.30312,32,1850,3280A9,000000,30
7933,ACEWOOD & ACADEMY (NB),43.077626,-89.303158,32,1850,3280A9,000000,31
7181,ACEWOOD & LEO (NB),43.080911,-89.302901,32,1850,3280A9,000000,32
7125,ACEWOOD & FERRIS (NB),43.0828,-89.302912,32,1850,3280A9,000000,33
7925,ACEWOOD & COTTAGE GR (NB),43.08453,-89.30297,32,1850,3280A9,000000,34
7313,ACEWOOD & MARTHA (NB),43.086194,-89.302991,32,1850,3280A9,000000,35
7369,ACEWOOD & GOLDFINCH (NB),43.088437,-89.302698,32,1850,3280A9,000000,36
7969,ACEWOOD & ONYX (NB),43.091784,-89.302181,32,1850,3280A9,000000,37
7943,ACEWOOD & AGATE (NB),43.09486,-89.302153,32,1850,3280A9,000000,38
7121,CRYSTAL & DIAMOND (NB),43.09794,-89.303277,32,1850,3280A9,000000,39
7190,MILWAUKEE & MILO (WB),43.098881,-89.30446,32,1850,3280A9,000000,40
7948,MILWAUKEE & KARMENTA (WB),43.098853,-89.305952,32,1850,3280A9,000000,41
7846,MILWAUKEE & PORTLAND (WB),43.09878,-89.307376,32,1850,3280A9,000000,42
7832,MILWAUKEE & WITTWER (WB),43.098705,-89.310032,32,1850,3280A9,000000,43
7734,MILWAUKEE & WALBRIDGE (WB),43.098533,-89.314063,32,1850,3280A9,000000,44
7398,MILWAUKEE & DEMPSEY (WB),43.098329,-89.317814,32,1850,3280A9,000000,45
7100,EAST TRANSFER POINT,43.098601,-89.322445,32,1850,3280A9,000000,46
9518,WITTWER & WALBRIDGE (SB),43.10255,-89.311316,33,1851,00A69B,000000,4
9612,WITTWER & MILWAUKEE (SB),43.098782,-89.310372,33,1851,00A69B,000000,5
7734,MILWAUKEE & WALBRIDGE (WB),43.098533,-89.314063,33,1851,00A69B,000000,6
7398,MILWAUKEE & DEMPSEY (WB),43.098329,-89.317814,33,1851,00A69B,000000,7
7100,EAST TRANSFER POINT,43.098601,-89.322445,33,1851,00A69B,000000,8
7100,EAST TRANSFER POINT,43.098601,-89.322445,34,1852,976C25,000000,1
1886,MILWAUKEE & WALTER (WB),43.098287,-89.326946,34,1852,976C25,000000,2
1206,MILWAUKEE & LEON (WB),43.098618,-89.329599,34,1852,976C25,000000,3
1555,FAIR OAKS & MILWAUKEE (NB),43.100058,-89.331816,34,1852,976C25,000000,4
1873,FAIR OAKS & CHICAGO (NB),43.101598,-89.330925,34,1852,976C25,000000,5
9203,FAIR OAKS & COMMERCIAL (NB),43.107129,-89.330507,34,1852,976C25,000000,6
9693,FAIR OAKS & LEXINGTON (NB),43.1105,-89.330448,34,1852,976C25,000000,7
9111,FAIR OAKS & EAST WASH (NB),43.112642,-89.330398,34,1852,976C25,000000,8
9405,WRIGHT & CARPENTER (NB),43.113923,-89.330523,34,1852,976C25,000000,9
9171,WRIGHT & STRAUBEL (NB),43.117277,-89.330457,34,1852,976C25,000000,10
9101,WRIGHT & MADISON COLL (NB),43.121035,-89.330281,34,1852,976C25,000000,11
9725,KINSMAN & WRIGHT (EB),43.125664,-89.329772,34,1852,976C25,000000,12
9787,KINSMAN & STOUGHTON (EB),43.125594,-89.327209,34,1852,976C25,000000,13
9237,STOUGHTON FT & STOUGHTON (EB),43.121047,-89.324493,34,1852,976C25,000000,14
9175,STOUGHTON FT & ORIN (NB),43.12288,-89.324673,34,1852,976C25,000000,15
9373,BARTILLON & KINSMAN (NB),43.125453,-89.32304,34,1852,976C25,000000,16
9918,KINSMAN & STOUGHTON (WB),43.125714,-89.325629,34,1852,976C25,000000,17
9364,WRIGHT & KINSMAN (SB),43.125554,-89.330307,34,1852,976C25,000000,18
9100,WRIGHT & MADISON COLL (SB),43.121259,-89.330514,34,1852,976C25,000000,19
9642,WRIGHT & STRAUBEL (SB),43.117203,-89.330632,34,1852,976C25,000000,20
9378,WRIGHT & CARPENTER (SB),43.113802,-89.330741,34,1852,976C25,000000,21
9564,FAIR OAKS & EAST WASH (SB),43.112371,-89.330515,34,1852,976C25,000000,22
9802,FAIR OAKS & LEXINGTON (SB),43.110813,-89.330622,34,1852,976C25,000000,23
9288,FAIR OAKS & COMMERCIAL (SB),43.10717,-89.330686,34,1852,976C25,000000,24
1420,FAIR OAKS & CHICAGO (SB),43.101735,-89.33104,34,1852,976C25,000000,25
1751,MILWAUKEE & FAIR OAKS (EB),43.099378,-89.331504,34,1852,976C25,000000,26
1309,MILWAUKEE & LEON (EB),43.098284,-89.329172,34,1852,976C25,000000,27
1105,MILWAUKEE & WALTER (EB),43.098137,-89.326231,34,1852,976C25,000000,28
7100,EAST TRANSFER POINT,43.098601,-89.322445,34,1852,976C25,000000,29
9800,E TOWNE RNG & SHELTER (EB),43.126576,-89.306961,36,3728,4D5613,000000,1
9783,EAST TOWNE & INDEPENDENCE (EB),43.127454,-89.307105,36,3728,4D5613,000000,2
9391,EAST TOWNE & ZEIER (EB),43.12915,-89.304264,36,3728,4D5613,000000,3
9351,EAST TOWNE & E SPRINGS (EB),43.130674,-89.30184,36,3728,4D5613,000000,4
9701,HI CROSSING & E SPRINGS (EB),43.131979,-89.297718,36,3728,4D5613,000000,5
9577,HI CROSSING & CROSSROADS (EB),43.136249,-89.290783,36,3728,4D5613,000000,6
9131,CITY VIEW & HI CROSSING (EB),43.138414,-89.289148,36,3728,4D5613,000000,7
9826,CITY VIEW & BURKE (SB),43.135601,-89.288004,36,3728,4D5613,000000,8
9498,CITY VIEW & HOLBURN (SB),43.133497,-89.287946,36,3728,4D5613,000000,9
9950,WALL & CITY VIEW (WB),43.132638,-89.288096,36,3728,4D5613,000000,10
9615,CROSSROADS & WALL (NB),43.132354,-89.29037,36,3728,4D5613,000000,11
9349,CROSSROADS & 2801 (NB),43.134359,-89.290144,36,3728,4D5613,000000,12
9264,HI CROSSING & CROSSROADS (WB),43.135936,-89.291389,36,3728,4D5613,000000,13
9140,E SPRINGS & HI CROSSING (SB),43.131485,-89.29765,36,3728,4D5613,000000,14
9310,E SPRINGS & PETSMART (SB),43.12963,-89.294922,36,3728,4D5613,000000,15
9620,E SPRINGS & MENARDS (WB),43.127908,-89.293555,36,3728,4D5613,000000,16
9860,E SPRINGS & ZEIER (WB),43.125358,-89.299739,36,3728,4D5613,000000,17
9917,ZEIER & TOYS-R-US EAST (NB),43.126969,-89.301651,36,3728,4D5613,000000,18
9928,EAST TOWNE & ZEIER (WB),43.128849,-89.30503,36,3728,4D5613,000000,19
9224,EAST TOWNE & INDEPENDENCE (WB),43.127195,-89.307726,36,3728,4D5613,000000,20
9800,E TOWNE RNG & SHELTER (EB),43.126576,-89.306961,36,3728,4D5613,000000,21
1101,MAIN & CARROLL (EB),43.073333,-89.38386,37,1853,CB6B77,000000,27
1787,PINCKNEY & MAIN (NB),43.074989,-89.382341,37,1853,CB6B77,000000,28
1323,EAST WASH & WEBSTER (EB),43.076387,-89.381563,37,1853,CB6B77,000000,29
1579,EAST WASH & BLAIR (EB),43.078328,-89.378807,37,1853,CB6B77,000000,30
1453,EAST WASH & BLOUNT (EB),43.079614,-89.376965,37,1853,CB6B77,000000,31
1565,EAST WASH & PATERSON (EB),43.08238,-89.373012,37,1853,CB6B77,000000,32
1199,EAST WASH & INGERSOLL (EB),43.085012,-89.369345,37,1853,CB6B77,000000,34
1883,EAST WASH & BALDWIN (EB),43.087367,-89.365943,37,1853,CB6B77,000000,35
1805,EAST WASH & DICKINSON (EB),43.088337,-89.364485,37,1853,CB6B77,000000,36
1513,EAST WASH & YAHARA (EB),43.089788,-89.362438,37,1853,CB6B77,000000,37
1241,EAST WASH & FIRST (EB),43.091981,-89.359353,37,1853,CB6B77,000000,38
1372,FIRST & MAIN (SB),43.091183,-89.358005,37,1853,CB6B77,000000,39
1901,WINNEBAGO & FIRST (NB),43.090406,-89.356378,37,1853,CB6B77,000000,40
1753,WINNEBAGO & ATWOOD (NB),43.091726,-89.355363,37,1853,CB6B77,000000,41
1961,ATWOOD & RUSK (EB),43.092493,-89.352818,37,1853,CB6B77,000000,42
1643,EASTWOOD & DIVISION (EB),43.092613,-89.350783,37,1853,CB6B77,000000,43
1887,ATWOOD & EVERGREEN (EB),43.093344,-89.34866,37,1853,CB6B77,000000,44
1391,ATWOOD & OHIO (EB),43.093771,-89.346728,37,1853,CB6B77,000000,45
1211,ATWOOD & HUDSON (EB),43.093902,-89.34524,37,1853,CB6B77,000000,46
1127,ATWOOD & MARQUETTE (EB),43.093851,-89.342317,37,1853,CB6B77,000000,47
1905,ATWOOD & LAKELAND (EB),43.091657,-89.336,37,1853,CB6B77,000000,48
7888,ATWOOD & WALTER (SB),43.089232,-89.329345,37,1853,CB6B77,000000,49
7296,ATWOOD & MARGARET (SB),43.087605,-89.327416,37,1853,CB6B77,000000,50
7182,ATWOOD & OLBRICH (SB),43.086239,-89.326214,37,1853,CB6B77,000000,51
7834,ATWOOD & COTTAGE GR (SB),43.08341,-89.325035,37,1853,CB6B77,000000,52
7131,BUCKEYE & MONONA (EB),43.079693,-89.323633,37,1853,CB6B77,000000,53
7827,BUCKEYE & DAVIES (EB),43.077016,-89.320194,37,1853,CB6B77,000000,54
7559,BUCKEYE & LAKEVIEW (EB),43.075289,-89.317974,37,1853,CB6B77,000000,55
7127,BUCKEYE & SPAANEM (EB),43.073885,-89.315432,37,1853,CB6B77,000000,56
7247,BUCKEYE & TURNER (EB),43.073729,-89.313901,37,1853,CB6B77,000000,57
7689,BUCKEYE & CAMDEN (EB),43.073493,-89.311599,37,1853,CB6B77,000000,58
7235,BUCKEYE & STOUGHTON FT (EB),43.073097,-89.308054,37,1853,CB6B77,000000,59
7168,STOUGHTON FT & DEAN EAST (WB),43.071458,-89.308406,37,1853,CB6B77,000000,60
7914,STOUGHTON FT & HELGESEN (SB),43.066646,-89.309025,37,1853,CB6B77,000000,61
7340,STOUGHTON FT & PFLAUM (SB),43.062733,-89.308895,37,1853,CB6B77,000000,62
7384,STOUGHTON FT & PFLAUM (SB),43.061196,-89.310002,37,1853,CB6B77,000000,63
2282,SHEBOYGAN & WHITNEY (WB),43.073167,-89.467124,38,1854,8D89B3,000000,1
2513,OLD MIDDLETON & EAU CLAIRE (EB),43.074639,-89.464422,38,1854,8D89B3,000000,2
2923,UNIV AVE & SEGOE (EB),43.075173,-89.456248,38,1854,8D89B3,000000,3
2191,UNIV AVE & MIDVALE (EB),43.075163,-89.450398,38,1854,8D89B3,000000,4
2755,UNIV AVE & BLACKHAWK (EB),43.075172,-89.447094,38,1854,8D89B3,000000,5
2595,UNIV AVE & SHOREWOOD (EB),43.075113,-89.443898,38,1854,8D89B3,000000,6
2715,UNIV AVE & SCHMITT (EB),43.075127,-89.441055,38,1854,8D89B3,000000,7
2945,UNIV AVE & RIDGE (EB),43.074633,-89.438481,38,1854,8D89B3,000000,8
2131,U BAY & UNIV AVE (NB),43.073971,-89.433665,38,1854,8D89B3,000000,9
2473,HIGHLAND & WAISMAN CTR (NB),43.078181,-89.433241,38,1854,8D89B3,000000,10
2349,HIGHLAND & MARSH (EB),43.078504,-89.430495,38,1854,8D89B3,000000,11
2091,OBSERVATORY & HIGHLAND (EB),43.076973,-89.428672,38,1854,8D89B3,000000,12
2007,OBSERVATORY & WALNUT (EB),43.076472,-89.424517,38,1854,8D89B3,000000,13
2267,OBSERVATORY & NATATORIUM (EB),43.0764,-89.419931,38,1854,8D89B3,000000,14
2195,OBSERVATORY & ELM (EB),43.076391,-89.416264,38,1854,8D89B3,000000,15
2145,OBSERVATORY & BABCOCK (EB),43.076355,-89.41303,38,1854,8D89B3,000000,16
298,BABCOCK & LINDEN (SB),43.07537,-89.412845,38,1854,8D89B3,000000,17
573,LINDEN & HENRY MALL (EB),43.075039,-89.41024,38,1854,8D89B3,000000,18
438,LINDEN & CHARTER (EB),43.074985,-89.406475,38,1854,8D89B3,000000,19
706,CHARTER & UNIV AVE (SB),43.074079,-89.406253,38,1854,8D89B3,000000,20
490,CHARTER & W JOHNSON (SB),43.072388,-89.405846,38,1854,8D89B3,000000,21
741,W JOHNSON & MILLS (EB),43.072093,-89.404315,38,1854,8D89B3,000000,22
455,W JOHNSON & N PARK (EB),43.072027,-89.400138,38,1854,8D89B3,000000,23
435,W JOHNSON & LAKE (EB),43.071984,-89.39718,38,1854,8D89B3,000000,24
941,W JOHNSON & FRANCES (EB),43.071968,-89.395488,38,1854,8D89B3,000000,25
470,BASSETT & DAYTON (SB),43.071687,-89.392872,38,1854,8D89B3,000000,26
710,BASSETT & WEST WASH (SB),43.069851,-89.390442,38,1854,8D89B3,000000,27
520,BASSETT & DOTY (SB),43.068607,-89.388929,38,1854,8D89B3,000000,28
313,WILSON & BASSETT (EB),43.068441,-89.387009,38,1854,8D89B3,000000,29
791,WILSON & HAMILTON (EB),43.070286,-89.384452,38,1854,8D89B3,000000,30
1101,MAIN & CARROLL (EB),43.073333,-89.38386,38,1854,8D89B3,000000,31
1823,MAIN & PINCKNEY (EB),43.074447,-89.38217,38,1854,8D89B3,000000,32
1737,KING & WILSON (EB),43.074574,-89.378787,38,1854,8D89B3,000000,33
1839,WILSON & FRANKLIN (EB),43.07565,-89.376687,38,1854,8D89B3,000000,34
1509,WILLIAMSON & BLOUNT (EB),43.077193,-89.372879,38,1854,8D89B3,000000,35
1167,JENIFER & LIVINGSTON (EB),43.077877,-89.370083,38,1854,8D89B3,000000,36
1615,JENIFER & PATERSON (EB),43.078706,-89.368915,38,1854,8D89B3,000000,37
1959,JENIFER & BREARLY (EB),43.080202,-89.366831,38,1854,8D89B3,000000,38
1505,JENIFER & INGERSOLL (EB),43.081231,-89.365346,38,1854,8D89B3,000000,39
1559,JENIFER & FEW (EB),43.08245,-89.363517,38,1854,8D89B3,000000,40
1689,JENIFER & BALDWIN (EB),43.083733,-89.361807,38,1854,8D89B3,000000,41
1813,SPAIGHT & DICKINSON (EB),43.084353,-89.359098,38,1854,8D89B3,000000,42
1260,ROGERS & RUTLEDGE (SB),43.085112,-89.35659,38,1854,8D89B3,000000,43
1143,RUTLEDGE & RIVERSIDE (EB),43.086405,-89.354443,38,1854,8D89B3,000000,44
1695,RUTLEDGE & WALTON (EB),43.087174,-89.353376,38,1854,8D89B3,000000,45
1305,RUTLEDGE & RUSSELL (EB),43.088216,-89.352237,38,1854,8D89B3,000000,46
1995,DIVISION & OAKRIDGE (NB),43.090168,-89.351013,38,1854,8D89B3,000000,47
1643,EASTWOOD & DIVISION (EB),43.092613,-89.350783,38,1854,8D89B3,000000,48
1887,ATWOOD & EVERGREEN (EB),43.093344,-89.34866,38,1854,8D89B3,000000,49
1391,ATWOOD & OHIO (EB),43.093771,-89.346728,38,1854,8D89B3,000000,50
1211,ATWOOD & HUDSON (EB),43.093902,-89.34524,38,1854,8D89B3,000000,51
1127,ATWOOD & MARQUETTE (EB),43.093851,-89.342317,38,1854,8D89B3,000000,52
1905,ATWOOD & LAKELAND (EB),43.091657,-89.336,38,1854,8D89B3,000000,59
1225,WALTER & ATWOOD (NB),43.089833,-89.3291,38,1854,8D89B3,000000,65
1785,WALTER & CAPITOL CITY (NB),43.090986,-89.32794,38,1854,8D89B3,000000,66
7161,HARGROVE & TULANE (EB),43.090656,-89.325406,38,1854,8D89B3,000000,67
7767,DENNETT & RING (EB),43.090197,-89.321586,38,1854,8D89B3,000000,68
7638,DEMPSEY & DENNETT (SB),43.090121,-89.316451,38,1854,8D89B3,000000,69
7304,DEMPSEY & ANCHOR (SB),43.088405,-89.316388,38,1854,8D89B3,000000,70
7374,DEMPSEY & COTTAGE GR (SB),43.083701,-89.316303,38,1854,8D89B3,000000,71
7490,DEMPSEY & GARY (SB),43.081493,-89.316322,38,1854,8D89B3,000000,72
7670,DEMPSEY & MAHER (SB),43.080165,-89.316263,38,1854,8D89B3,000000,73
7658,DAVIES & MAJOR (WB),43.078472,-89.317973,38,1854,8D89B3,000000,74
7174,DAVIES & BUCKEYE (WB),43.077095,-89.319879,38,1854,8D89B3,000000,75
7559,BUCKEYE & LAKEVIEW (EB),43.075289,-89.317974,38,1854,8D89B3,000000,77
7127,BUCKEYE & SPAANEM (EB),43.073885,-89.315432,38,1854,8D89B3,000000,78
7578,TURNER & BUCKEYE (SB),43.073658,-89.314206,38,1854,8D89B3,000000,79
7716,TURNER & ALLIS (SB),43.071416,-89.314192,38,1854,8D89B3,000000,80
7348,TURNER & RUTH (SB),43.070036,-89.314397,38,1854,8D89B3,000000,81
7132,TURNER & KAY (SB),43.068368,-89.314419,38,1854,8D89B3,000000,82
7694,TURNER & HOB (SB),43.066436,-89.314442,38,1854,8D89B3,000000,83
7402,TURNER & LINDA VISTA (SB),43.063927,-89.314479,38,1854,8D89B3,000000,84
7640,TURNER & PFLAUM (SB),43.06246,-89.314291,38,1854,8D89B3,000000,85
7194,PFLAUM & HERRO (WB),43.062309,-89.315672,38,1854,8D89B3,000000,86
7232,PFLAUM & GROVELAND (WB),43.062179,-89.319971,38,1854,8D89B3,000000,87
7144,PFLAUM & ALDER (WB),43.062092,-89.323745,38,1854,8D89B3,000000,88
7917,TOMPKINS & ALDER (EB),43.058296,-89.32354,38,1854,8D89B3,000000,89
7653,TOMPKINS & GROVELAND (EB),43.058419,-89.319396,38,1854,8D89B3,000000,90
7903,TOMPKINS & HERRO (EB),43.058487,-89.315294,38,1854,8D89B3,000000,91
7287,TOMPKINS & MAHER (EB),43.058501,-89.312973,38,1854,8D89B3,000000,92
7525,TOMPKINS & STOUGHTON FT (EB),43.058565,-89.310111,38,1854,8D89B3,000000,93
7807,STOUGHTON FT & PFLAUM (NB),43.061306,-89.309885,38,1854,8D89B3,000000,94
7100,EAST TRANSFER POINT,43.098601,-89.322445,39,1855,6291A8,000000,1
7169,MILWAUKEE & DEMPSEY (EB),43.098159,-89.318457,39,1855,6291A8,000000,2
7235,BUCKEYE & STOUGHTON FT (EB),43.073097,-89.308054,39,1855,6291A8,000000,17
7168,STOUGHTON FT & DEAN EAST (WB),43.071458,-89.308406,39,1855,6291A8,000000,32
7277,HELGESEN & STOUGHTON FT (EB),43.06681,-89.308624,39,1855,6291A8,000000,33
7199,HELGESEN & ADVANCE (EB),43.066327,-89.303294,39,1855,6291A8,000000,34
7391,PFLAUM & ADVANCE (EB),43.062325,-89.302822,39,1855,6291A8,000000,35
7613,PFLAUM & MMSD BLDG (EB),43.062352,-89.300462,39,1855,6291A8,000000,36
7535,PFLAUM & MUSTANG (EB),43.062294,-89.295473,39,1855,6291A8,000000,37
7411,PFLAUM & AGRICULTURE (EB),43.061797,-89.294073,39,1855,6291A8,000000,38
7244,DAIRY & AGRICULTURE (WB),43.05953,-89.294165,39,1855,6291A8,000000,39
7290,DAIRY & 2802 (SB),43.058052,-89.295121,39,1855,6291A8,000000,40
7815,WORLD DAIRY & DAIRY (EB),43.056305,-89.294767,39,1855,6291A8,000000,41
7503,WORLD DAIRY & AGRICULTURE (EB),43.056288,-89.291815,39,1855,6291A8,000000,42
7187,DATCP DR & AGRICULTURE (EB),43.058298,-89.292205,39,1855,6291A8,000000,43
7359,DATCP DR & N WORLD DAIRY (NB),43.060249,-89.290992,39,1855,6291A8,000000,44
7987,VONDRON & DATCP DR (NB),43.062357,-89.291392,39,1855,6291A8,000000,45
7583,VONDRON & MUSTANG (NB),43.065284,-89.291339,39,1855,6291A8,000000,46
7229,VONDRON & S THOMPSON (NB),43.067088,-89.291346,39,1855,6291A8,000000,47
7861,VONDRON & DOLORES (NB),43.07032,-89.291375,39,1855,6291A8,000000,48
7479,BUCKEYE & VONDRON (EB),43.073367,-89.291092,39,1855,6291A8,000000,49
7203,BUCKEYE & ELLEN (EB),43.073426,-89.288125,39,1855,6291A8,000000,50
7711,BUCKEYE & S THOMPSON (EB),43.073478,-89.283156,39,1855,6291A8,000000,51
7919,KINGS MILL & BUCKEYE (NB),43.075572,-89.27791,39,1855,6291A8,000000,52
7273,KINGS MILL & COTTONTAIL (NB),43.076466,-89.276624,39,1855,6291A8,000000,53
7320,COTTONTAIL & DELL (SB),43.075536,-89.276537,39,1855,6291A8,000000,54
4100,SOUTH TRANSFER POINT,43.039101,-89.394589,40,1856,00ABCE,000000,1
590,BADGER & CYPRESS (WB),43.038552,-89.397554,40,1856,00ABCE,000000,2
782,BADGER & FIEDLER (WB),43.038665,-89.401933,40,1856,00ABCE,000000,3
816,FISH HATCHERY & BADGER (SB),43.038422,-89.404152,40,1856,00ABCE,000000,4
4192,FISH HATCHERY & EMIL (SB),43.036861,-89.405319,40,1856,00ABCE,000000,5
4516,BELTLINE FT (N) & ROCKY'S (WB),43.035184,-89.410399,40,1856,00ABCE,000000,6
4108,BELTLINE FT (N) & CULVERS (WB),43.035513,-89.416021,40,1856,00ABCE,000000,7
4144,BELTLINE FT (N) & TODD (WB),43.035656,-89.422336,40,1856,00ABCE,000000,8
4876,BELTLINE FT (S) & SERGENIANS (WB),43.03512,-89.425134,40,1856,00ABCE,000000,9
4968,BELTLINE FT (S) & LANDMARK (WB),43.03499,-89.428985,40,1856,00ABCE,000000,10
4360,GRANDVIEW & BELTLINE FT (S) (SB),43.034944,-89.433609,40,1856,00ABCE,000000,11
4466,GRANDVIEW & KINGSTON (SB),43.029698,-89.431752,40,1856,00ABCE,000000,12
4914,GRANDVIEW & SANDWOOD (SB),43.027108,-89.431431,40,1856,00ABCE,000000,13
4834,POST & KNOLLWOOD (SB),43.025998,-89.430542,40,1856,00ABCE,000000,14
4945,POST & TODD (EB),43.02678,-89.42622,40,1856,00ABCE,000000,15
4837,POST & LEOPOLD (EB),43.026374,-89.423289,40,1856,00ABCE,000000,16
4613,POST & TRACEWAY (EB),43.02662,-89.419171,40,1856,00ABCE,000000,17
4953,POST & COHO (EB),43.026796,-89.414699,40,1856,00ABCE,000000,21
4752,FISH HATCHERY & POST (SB),43.026281,-89.413077,40,1856,00ABCE,000000,22
4188,FISH HATCHERY & TRACEWAY (SB),43.023921,-89.415283,40,1856,00ABCE,000000,23
4182,HIGH RDG & CAHILL (WB),43.021914,-89.418909,40,1856,00ABCE,000000,24
4506,HIGH RDG & COUNTRY C APT (WB),43.021946,-89.420455,40,1856,00ABCE,000000,25
4788,ROYAL WULFF & HIGH RDG (SB),43.021309,-89.421541,40,1856,00ABCE,000000,26
4273,CADDIS & ROYAL WULFF (EB),43.020118,-89.421682,40,1856,00ABCE,000000,27
4699,CADDIS & CAHILL (EB),43.019686,-89.420395,40,1856,00ABCE,000000,28
4707,S FISH HATCHERY & CADDIS (NB),43.019433,-89.419016,40,1856,00ABCE,000000,29
4941,FISH HATCHERY & HIGH RDG (NB),43.021357,-89.417218,40,1856,00ABCE,000000,30
4637,FISH HATCHERY & TRACEWAY (NB),43.023974,-89.414678,40,1856,00ABCE,000000,31
4523,FISH HATCHERY & POST (NB),43.027501,-89.41175,40,1856,00ABCE,000000,32
4449,FISH HATCHERY & GREENWAY (NB),43.030453,-89.409629,40,1856,00ABCE,000000,33
4845,FISH HATCHERY & EMIL (NB),43.03682,-89.405028,40,1856,00ABCE,000000,43
353,BADGER & FISH HATCHERY (EB),43.038566,-89.403078,40,1856,00ABCE,000000,44
121,BADGER & FIEDLER (EB),43.038531,-89.401256,40,1856,00ABCE,000000,45
173,BADGER & CYPRESS (EB),43.038513,-89.39803,40,1856,00ABCE,000000,46
4100,SOUTH TRANSFER POINT,43.039101,-89.394589,40,1856,00ABCE,000000,47
2643,HIGHLAND & UNIV AVE (NB),43.072487,-89.42858,44,2481,8F8A64,000000,1
2393,HIGHLAND & VA HOSP (NB),43.074141,-89.428672,44,2481,8F8A64,000000,2
2091,OBSERVATORY & HIGHLAND (EB),43.076973,-89.428672,44,2481,8F8A64,000000,3
2007,OBSERVATORY & WALNUT (EB),43.076472,-89.424517,44,2481,8F8A64,000000,4
2267,OBSERVATORY & NATATORIUM (EB),43.0764,-89.419931,44,2481,8F8A64,000000,5
2195,OBSERVATORY & ELM (EB),43.076391,-89.416264,44,2481,8F8A64,000000,6
2145,OBSERVATORY & BABCOCK (EB),43.076355,-89.41303,44,2481,8F8A64,000000,7
298,BABCOCK & LINDEN (SB),43.07537,-89.412845,44,2481,8F8A64,000000,8
573,LINDEN & HENRY MALL (EB),43.075039,-89.41024,44,2481,8F8A64,000000,9
438,LINDEN & CHARTER (EB),43.074985,-89.406475,44,2481,8F8A64,000000,10
706,CHARTER & UNIV AVE (SB),43.074079,-89.406253,44,2481,8F8A64,000000,11
490,CHARTER & W JOHNSON (SB),43.072388,-89.405846,44,2481,8F8A64,000000,12
741,W JOHNSON & MILLS (EB),43.072093,-89.404315,44,2481,8F8A64,000000,13
104,MILLS & DAYTON (SB),43.071201,-89.404196,44,2481,8F8A64,000000,14
392,MILLS & SPRING (SB),43.069713,-89.404121,44,2481,8F8A64,000000,15
190,MILLS & REGENT (SB),43.067968,-89.404154,44,2481,8F8A64,000000,16
624,MILLS & MOUND (SB),43.065527,-89.404126,44,2481,8F8A64,000000,17
158,MILLS & VILAS (SB),43.062925,-89.404157,44,2481,8F8A64,000000,18
459,ERIN & MILLS (EB),43.059792,-89.403677,44,2481,8F8A64,000000,19
288,S PARK & ERIN (SB),43.059675,-89.400974,44,2481,8F8A64,000000,20
174,S PARK & FISH HATCHERY (SB),43.056492,-89.398699,44,2481,8F8A64,000000,21
877,OLIN & LOWELL (EB),43.053994,-89.395262,44,2481,8F8A64,000000,22
147,OLIN & HICKORY (EB),43.053953,-89.391914,44,2481,8F8A64,000000,23
694,GILSON & OLIN (SB),43.053736,-89.390313,44,2481,8F8A64,000000,24
570,GILSON & CEDAR (SB),43.051996,-89.390897,44,2481,8F8A64,000000,25
110,GILSON & BELD (WB),43.049853,-89.392523,44,2481,8F8A64,000000,26
124,S PARK & WINGRA (SB),43.049011,-89.394252,44,2481,8F8A64,000000,27
730,S PARK & BURR OAK (SB),43.044418,-89.394266,44,2481,8F8A64,000000,28
906,S PARK & BUICK (SB),43.041568,-89.394207,44,2481,8F8A64,000000,29
4100,SOUTH TRANSFER POINT,43.039101,-89.394589,44,2481,8F8A64,000000,30
1101,MAIN & CARROLL (EB),43.073333,-89.38386,47,1860,885CA0,000000,1
1787,PINCKNEY & MAIN (NB),43.074989,-89.382341,47,1860,885CA0,000000,2
1100,MIFFLIN & PINCKNEY (WB),43.076045,-89.384707,47,1860,885CA0,000000,3
1324,CARROLL & MIFFLIN (SB),43.074513,-89.386185,47,1860,885CA0,000000,15
1790,WEST WASH & FAIRCHILD (WB),43.073381,-89.386088,47,1860,885CA0,000000,16
168,WEST WASH & HENRY (WB),43.07273,-89.387032,47,1860,885CA0,000000,17
274,WEST WASH & BROOM (WB),43.071239,-89.38925,47,1860,885CA0,000000,18
512,WEST WASH & BASSETT (WB),43.070037,-89.390899,47,1860,885CA0,000000,19
418,WEST WASH & BEDFORD (WB),43.069019,-89.392346,47,1860,885CA0,000000,20
768,WEST WASH & SW COMMUTER (WB),43.06791,-89.393935,47,1860,885CA0,000000,21
516,WEST WASH & REGENT (WB),43.066757,-89.395761,47,1860,885CA0,000000,22
770,WEST WASH & PED BRIDGE (WB),43.064678,-89.398696,47,1860,885CA0,000000,23
840,S PARK & WEST WASH (SB),43.062937,-89.400947,47,1860,885CA0,000000,24
288,S PARK & ERIN (SB),43.059675,-89.400974,47,1860,885CA0,000000,25
266,FISH HATCHERY & S PARK (SB),43.056514,-89.399025,47,1860,885CA0,000000,26
146,FISH HATCHERY & MIDLAND (SB),43.054058,-89.399144,47,1860,885CA0,000000,27
530,FISH HATCHERY & APPLETON (SB),43.051775,-89.399231,47,1860,885CA0,000000,28
536,FISH HATCHERY & WINGRA (SB),43.050533,-89.399881,47,1860,885CA0,000000,29
456,FISH HATCHERY & CARVER (SB),43.044304,-89.404027,47,1860,885CA0,000000,30
170,FISH HATCHERY & CATALPA (SB),43.041582,-89.404077,47,1860,885CA0,000000,31
816,FISH HATCHERY & BADGER (SB),43.038422,-89.404152,47,1860,885CA0,000000,32
4192,FISH HATCHERY & EMIL (SB),43.036861,-89.405319,47,1860,885CA0,000000,33
4882,GREENWAY & BRYANT (WB),43.031418,-89.410611,47,1860,885CA0,000000,34
4224,GREENWAY & COHO (WB),43.030975,-89.414447,47,1860,885CA0,000000,35
4100,SOUTH TRANSFER POINT,43.039101,-89.394589,48,1861,F171A9,000000,15
4622,FISH HATCHERY & GREENWAY (SB),43.031121,-89.409524,48,1861,F171A9,000000,16
4752,FISH HATCHERY & POST (SB),43.026281,-89.413077,48,1861,F171A9,000000,17
4188,FISH HATCHERY & TRACEWAY (SB),43.023921,-89.415283,48,1861,F171A9,000000,18
4148,S FISH HATCHERY & HIGH RDG (SB),43.021074,-89.417898,48,1861,F171A9,000000,19
4894,S FISH HATCHERY & CADDIS (SB),43.018986,-89.419776,48,1861,F171A9,000000,20
4682,S FISH HATCHERY & CAHILL (SB),43.016356,-89.423203,48,1861,F171A9,000000,21
4387,E CHERYL & RESEARCH PK (EB),43.00496,-89.425015,48,1861,F171A9,000000,22
4245,E CHERYL & WOODS HLW (EB),43.004853,-89.420613,48,1861,F171A9,000000,23
4982,RESEARCH PK & WOODS HLW (WB),43.00684,-89.420452,48,1861,F171A9,000000,24
4766,RESEARCH PK & LACY (SB),43.001505,-89.42557,48,1861,F171A9,000000,25
4512,RESEARCH PK & CASTLE RK (SB),43.000001,-89.426396,48,1861,F171A9,000000,26
4840,RESEARCH PK & TRI-NORTH (SB),42.997065,-89.426914,48,1861,F171A9,000000,27
4462,RESEARCH PK & NOBEL (SB),42.995507,-89.425533,48,1861,F171A9,000000,28
4328,NOBEL & S FISH HATCHERY (WB),42.995292,-89.427962,48,1861,F171A9,000000,29
6100,WEST TRANSFER POINT,43.053874,-89.47553,50,1862,F17225,000000,1
2324,WHITNEY & WESTGATE (SB),43.051809,-89.473671,50,1862,F17225,000000,3
2522,WHITNEY & ODANA (SB),43.049491,-89.473676,50,1862,F17225,000000,4
8418,WHITNEY & SCHROEDER (SB),43.045827,-89.473669,50,1862,F17225,000000,5
8274,WHITNEY & GILBERT (WB),43.044315,-89.474105,50,1862,F17225,000000,6
8138,WHITNEY & PIPING ROCK (WB),43.041911,-89.477547,50,1862,F17225,000000,7
8452,WHITNEY & HAMMERSLEY (SB),43.039362,-89.477752,50,1862,F17225,000000,8
8118,WHITNEY & TOLMAN (SB),43.037014,-89.47776,50,1862,F17225,000000,9
8796,WHITNEY & BARTLETT (SB),43.033657,-89.47722,50,1862,F17225,000000,10
8512,RAYMOND & WHITNEY (WB),43.032046,-89.477532,50,1862,F17225,000000,11
8712,RAYMOND & LELAND (WB),43.032055,-89.480041,50,1862,F17225,000000,12
8352,RAYMOND & CAMERON (WB),43.032064,-89.482878,50,1862,F17225,000000,13
8100,RAYMOND & PRAIRIE (WB),43.032032,-89.489123,50,1862,F17225,000000,14
8872,RAYMOND & FRISCH (WB),43.03196,-89.493853,50,1862,F17225,000000,15
8281,MC KENNA & RAYMOND (NB),43.032145,-89.496795,50,1862,F17225,000000,16
8565,MC KENNA & PARK HTS (NB),43.035887,-89.496918,50,1862,F17225,000000,17
8166,MC KENNA & HAMMERSLEY (WB),43.038637,-89.500038,50,1862,F17225,000000,18
8160,MC KENNA & GAMMON (WB),43.03943,-89.503726,50,1862,F17225,000000,19
8301,MC KENNA & MORRAINE VW (NB),43.041377,-89.504826,50,1862,F17225,000000,20
8769,GAMMON & GAMMON (NB),43.044202,-89.503454,50,1862,F17225,000000,21
8131,GAMMON & SCHROEDER (NB),43.046524,-89.503072,50,1862,F17225,000000,22
8119,WATTS & GAMMON (EB),43.0501,-89.502701,50,1862,F17225,000000,23
8409,WATTS & WOODMANS (EB),43.050175,-89.500996,50,1862,F17225,000000,24
8650,STRUCK & WATTS (SB),43.049818,-89.496024,50,1862,F17225,000000,25
8310,STRUCK & SCHROEDER (SB),43.046484,-89.496588,50,1862,F17225,000000,26
8531,SCHROEDER & CHAPEL HILL (EB),43.046239,-89.494087,50,1862,F17225,000000,27
8219,SCHROEDER & RAYOVAC (EB),43.046263,-89.491247,50,1862,F17225,000000,28
8237,SCHROEDER & HATHAWAY (EB),43.046286,-89.48845,50,1862,F17225,000000,29
8427,SCHROEDER & WHITE OAKS (EB),43.046311,-89.484384,50,1862,F17225,000000,30
8235,SCHROEDER & SAYBROOK (EB),43.046328,-89.479373,50,1862,F17225,000000,31
8247,SCHROEDER & SCHROEDER (EB),43.046317,-89.47775,50,1862,F17225,000000,32
2383,WHITNEY & MEDICAL (NB),43.048648,-89.47333,50,1862,F17225,000000,33
2665,WHITNEY & ODANA (NB),43.050661,-89.47332,50,1862,F17225,000000,34
6100,WEST TRANSFER POINT,43.053874,-89.47553,50,1862,F17225,000000,35
6100,WEST TRANSFER POINT,43.053874,-89.47553,51,1863,EE4D98,000000,1
2324,WHITNEY & WESTGATE (SB),43.051809,-89.473671,51,1863,EE4D98,000000,2
2522,WHITNEY & ODANA (SB),43.049491,-89.473676,51,1863,EE4D98,000000,3
8418,WHITNEY & SCHROEDER (SB),43.045827,-89.473669,51,1863,EE4D98,000000,4
8274,WHITNEY & GILBERT (WB),43.044315,-89.474105,51,1863,EE4D98,000000,5
8138,WHITNEY & PIPING ROCK (WB),43.041911,-89.477547,51,1863,EE4D98,000000,6
8452,WHITNEY & HAMMERSLEY (SB),43.039362,-89.477752,51,1863,EE4D98,000000,7
8118,WHITNEY & TOLMAN (SB),43.037014,-89.47776,51,1863,EE4D98,000000,8
8796,WHITNEY & BARTLETT (SB),43.033657,-89.47722,51,1863,EE4D98,000000,9
8512,RAYMOND & WHITNEY (WB),43.032046,-89.477532,51,1863,EE4D98,000000,10
8712,RAYMOND & LELAND (WB),43.032055,-89.480041,51,1863,EE4D98,000000,11
8352,RAYMOND & CAMERON (WB),43.032064,-89.482878,51,1863,EE4D98,000000,12
8826,PRAIRIE & RAYMOND (SB),43.031583,-89.488896,51,1863,EE4D98,000000,13
8606,PRAIRIE & PIONEER (SB),43.029554,-89.488885,51,1863,EE4D98,000000,14
8308,PILGRIM & PRAIRIE (WB),43.026199,-89.489192,51,1863,EE4D98,000000,15
8304,PILGRIM & SARA (WB),43.026227,-89.491825,51,1863,EE4D98,000000,16
8654,PILGRIM & PILGRIM (WB),43.026602,-89.49471,51,1863,EE4D98,000000,17
8200,PILGRIM & MC KENNA (WB),43.02714,-89.496671,51,1863,EE4D98,000000,18
8818,MC KENNA & YORKTOWN (SB),43.024308,-89.499722,51,1863,EE4D98,000000,19
8194,MC KENNA & LANCASTER (SB),43.022076,-89.503082,51,1863,EE4D98,000000,20
8410,CARNWOOD & MC KENNA (WB),43.019804,-89.503455,51,1863,EE4D98,000000,21
8405,MUIR FIELD & CARNWOOD (NB),43.019973,-89.506403,51,1863,EE4D98,000000,22
8941,MUIR FIELD & LANCASTER (NB),43.022388,-89.505393,51,1863,EE4D98,000000,23
8519,MUIR FIELD & GLADSTONE (NB),43.024492,-89.505377,51,1863,EE4D98,000000,24
8723,MUIR FIELD & LINDFIELD (NB),43.027008,-89.50549,51,1863,EE4D98,000000,25
8893,MUIR FIELD & RAYMOND (NB),43.03051,-89.507768,51,1863,EE4D98,000000,26
8745,RAYMOND & CANTERBURY (EB),43.031551,-89.501692,51,1863,EE4D98,000000,27
8779,RAYMOND & MC KENNA (EB),43.031617,-89.496622,51,1863,EE4D98,000000,28
8709,RAYMOND & FRISCH (EB),43.031673,-89.493266,51,1863,EE4D98,000000,29
8239,PRAIRIE & RAYMOND (NB),43.032187,-89.488701,51,1863,EE4D98,000000,30
8919,PRAIRIE & LOMAX (NB),43.034515,-89.48859,51,1863,EE4D98,000000,31
8253,PRAIRIE & JACOBS (NB),43.03658,-89.488513,51,1863,EE4D98,000000,32
8323,PRAIRIE & HAMMERSLEY (NB),43.03897,-89.488421,51,1863,EE4D98,000000,33
8319,BROOKWOOD & HAMMERSLEY (NB),43.039402,-89.485661,51,1863,EE4D98,000000,34
8735,PIPING ROCK & BROOKWOOD (EB),43.041094,-89.485996,51,1863,EE4D98,000000,35
8421,PIPING ROCK & MANHASSET (EB),43.041061,-89.480505,51,1863,EE4D98,000000,36
8633,WHITNEY & PIPING ROCK (EB),43.041913,-89.477063,51,1863,EE4D98,000000,37
8605,WHITNEY & GILBERT (EB),43.044054,-89.473856,51,1863,EE4D98,000000,38
2383,WHITNEY & MEDICAL (NB),43.048648,-89.47333,51,1863,EE4D98,000000,39
2665,WHITNEY & ODANA (NB),43.050661,-89.47332,51,1863,EE4D98,000000,40
6100,WEST TRANSFER POINT,43.053874,-89.47553,51,1863,EE4D98,000000,41
6100,WEST TRANSFER POINT,43.053874,-89.47553,52,3122,7C2A52,FFFFFF,1
4652,WHITNEY & MONTICELLO (SB),43.026238,-89.475336,52,3122,7C2A52,FFFFFF,2
4972,WILLIAMSBURG & WHITNEY (WB),43.024573,-89.475285,52,3122,7C2A52,FFFFFF,3
4258,KING JAMES & WILLIAMSBURG (SB),43.024043,-89.47938,52,3122,7C2A52,FFFFFF,4
4151,KING JAMES & K JAMES CT (EB),43.021028,-89.4775,52,3122,7C2A52,FFFFFF,5
4833,KING JAMES & ANTON (EB),43.019229,-89.473961,52,3122,7C2A52,FFFFFF,6
4988,KAPEC & KING JAMES (SB),43.016364,-89.475846,52,3122,7C2A52,FFFFFF,7
4510,FITCHRONA & MC KEE (SB),43.015395,-89.480755,52,3122,7C2A52,FFFFFF,8
4200,FITCHRONA & TARGET (SB),43.013551,-89.480753,52,3122,7C2A52,FFFFFF,9
6100,WEST TRANSFER POINT,43.053874,-89.47553,55,2045,D5BC5B,000000,1
4838,VERONA & HOMETOWN (WB),42.994048,-89.519372,55,2045,D5BC5B,000000,2
4556,VERONA & ENTERPRISE (WB),42.992915,-89.526556,55,2045,D5BC5B,000000,3
4732,VERONA & MAIN (WB),42.990477,-89.534049,55,2045,D5BC5B,000000,4
4310,VERONA & LEGION (WB),42.98918,-89.540719,55,2045,D5BC5B,000000,5
4918,VERONA & HALF MILE (WB),42.988468,-89.545943,55,2045,D5BC5B,000000,6
4557,NORTHERN LTS & BRECKENRIDGE (NB),42.990644,-89.560642,55,2045,D5BC5B,000000,7
4400,STAFF B & EPIC (SB),42.995467,-89.564477,55,2045,D5BC5B,000000,8
8845,WESTIN & MAPLE GR (EB),43.01255,-89.498608,56,1865,937A6C,000000,4
8137,MANCHESTER & WESTIN (NB),43.010989,-89.492174,56,1865,937A6C,000000,5
8747,MANCHESTER & THORNEBURY (NB),43.012946,-89.490766,56,1865,937A6C,000000,6
8163,MANCHESTER & MC KEE (NB),43.014884,-89.49071,56,1865,937A6C,000000,7
8864,MC KEE & MANCHESTER (WB),43.015866,-89.491196,56,1865,937A6C,000000,8
8371,MAPLE VLY & MC KEE (NB),43.016332,-89.49663,56,1865,937A6C,000000,9
8599,MAPLE VLY & PRAIRIE (NB),43.018307,-89.497442,56,1865,937A6C,000000,10
8359,MAPLE GR & STRATFORD (NB),43.021444,-89.498698,56,1865,937A6C,000000,11
8694,STRATFORD & SHEFFORD (WB),43.021566,-89.501478,56,1865,937A6C,000000,12
8855,MC KENNA & LANCASTER (NB),43.022422,-89.502568,56,1865,937A6C,000000,13
8441,MC KENNA & YORKTOWN (NB),43.024392,-89.49936,56,1865,937A6C,000000,14
8985,MC KENNA & PILGRIM (NB),43.026949,-89.496945,56,1865,937A6C,000000,15
8551,PILGRIM & PILGRIM (EB),43.026586,-89.494971,56,1865,937A6C,000000,16
8149,PILGRIM & SARA (EB),43.026127,-89.492118,56,1865,937A6C,000000,17
8829,PRAIRIE & PILGRIM (NB),43.026408,-89.488828,56,1865,937A6C,000000,18
8157,PRAIRIE & PIONEER (NB),43.029739,-89.488759,56,1865,937A6C,000000,19
8101,RAYMOND & PRAIRIE (EB),43.031702,-89.488529,56,1865,937A6C,000000,20
8401,RAYMOND & CAMERON (EB),43.031831,-89.483414,56,1865,937A6C,000000,21
8363,RAYMOND & LELAND (EB),43.031803,-89.479959,56,1865,937A6C,000000,22
