stop_id,stop_name,stop_lat,stop_lon,route_short_name,route_id,route_color,route_text_color,stop_sequence
BERY,Berryessa / North San Jose,37.368473,-121.874681,Green-S,5,339933,FFFFFF,0
MLPT,Milpitas,37.410277,-121.891081,Green-S,5,339933,FFFFFF,1
WARM,Warm Springs / South Fremont,37.502285,-121.939395,Green-S,5,339933,FFFFFF,2
FRMT,Fremont,37.557480,-121.976619,Green-S,5,339933,FFFFFF,3
UCTY,Union City,37.590735,-122.017248,Green-S,5,339933,FFFFFF,4
SHAY,South Hayward,37.634340,-122.057182,Green-S,5,339933,FFFFFF,6
HAYW,Hayward,37.669699,-122.086958,Green-S,5,339933,FFFFFF,7
BAYF,Bay Fair,37.696908,-122.126446,Green-S,5,339933,FFFFFF,8
SANL,San Leandro,37.721784,-122.160740,Green-S,5,339933,FFFFFF,9
COLS,Coliseum,37.753576,-122.196716,Green-S,5,339933,FFFFFF,10
FTVL,Fruitvale,37.774841,-122.224081,Green-S,5,339933,FFFFFF,11
LAKE,Lake Merritt,37.797322,-122.265247,Green-S,5,339933,FFFFFF,12
WOAK,West Oakland,37.804888,-122.295151,Green-S,5,339933,FFFFFF,13
EMBR,Embarcadero,37.792762,-122.397037,Green-S,5,339933,FFFFFF,14
MONT,Montgomery Street,37.789173,-122.401587,Green-S,5,339933,FFFFFF,15
POWL,Powell Street,37.784606,-122.407331,Green-S,5,339933,FFFFFF,16
CIVC,Civic Center / UN Plaza,37.779408,-122.413826,Green-S,5,339933,FFFFFF,17
16TH,16th Street / Mission,37.765173,-122.419704,Green-S,5,339933,FFFFFF,18
24TH,24th Street / Mission,37.752419,-122.418468,Green-S,5,339933,FFFFFF,19
GLEN,Glen Park,37.733235,-122.433515,Green-S,5,339933,FFFFFF,20
BALB,Balboa Park,37.721747,-122.447457,Green-S,5,339933,FFFFFF,21
DALY,Daly City,37.706259,-122.468908,Green-S,5,339933,FFFFFF,22
DALY,Daly City,37.706259,-122.468908,Green-N,6,339933,FFFFFF,0
BALB,Balboa Park,37.721747,-122.447457,Green-N,6,339933,FFFFFF,1
GLEN,Glen Park,37.733235,-122.433515,Green-N,6,339933,FFFFFF,2
24TH,24th Street / Mission,37.752419,-122.418468,Green-N,6,339933,FFFFFF,3
16TH,16th Street / Mission,37.765173,-122.419704,Green-N,6,339933,FFFFFF,4
CIVC,Civic Center / UN Plaza,37.779408,-122.413826,Green-N,6,339933,FFFFFF,5
POWL,Powell Street,37.784606,-122.407331,Green-N,6,339933,FFFFFF,6
MONT,Montgomery Street,37.789173,-122.401587,Green-N,6,339933,FFFFFF,7
EMBR,Embarcadero,37.792762,-122.397037,Green-N,6,339933,FFFFFF,8
WOAK,West Oakland,37.804888,-122.295151,Green-N,6,339933,FFFFFF,9
LAKE,Lake Merritt,37.797322,-122.265247,Green-N,6,339933,FFFFFF,10
FTVL,Fruitvale,37.774841,-122.224081,Green-N,6,339933,FFFFFF,11
COLS,Coliseum,37.753576,-122.196716,Green-N,6,339933,FFFFFF,12
SANL,San Leandro,37.721784,-122.160740,Green-N,6,339933,FFFFFF,13
BAYF,Bay Fair,37.696908,-122.126446,Green-N,6,339933,FFFFFF,14
HAYW,Hayward,37.669699,-122.086958,Green-N,6,339933,FFFFFF,15
SHAY,South Hayward,37.634340,-122.057182,Green-N,6,339933,FFFFFF,16
UCTY,Union City,37.590735,-122.017248,Green-N,6,339933,FFFFFF,18
FRMT,Fremont,37.557480,-121.976619,Green-N,6,339933,FFFFFF,19
WARM,Warm Springs / South Fremont,37.502285,-121.939395,Green-N,6,339933,FFFFFF,20
MLPT,Milpitas,37.410277,-121.891081,Green-N,6,339933,FFFFFF,21
BERY,Berryessa / North San Jose,37.368473,-121.874681,Green-N,6,339933,FFFFFF,22
BERY,Berryessa / North San Jose,37.368473,-121.874681,Orange-N,3,FF9933,000000,0
MLPT,Milpitas,37.410277,-121.891081,Orange-N,3,FF9933,000000,1
WARM,Warm Springs / South Fremont,37.502285,-121.939395,Orange-N,3,FF9933,000000,2
FRMT,Fremont,37.557480,-121.976619,Orange-N,3,FF9933,000000,3
UCTY,Union City,37.590735,-122.017248,Orange-N,3,FF9933,000000,4
SHAY,South Hayward,37.634340,-122.057182,Orange-N,3,FF9933,000000,6
HAYW,Hayward,37.669699,-122.086958,Orange-N,3,FF9933,000000,7
BAYF,Bay Fair,37.696908,-122.126446,Orange-N,3,FF9933,000000,8
SANL,San Leandro,37.721784,-122.160740,Orange-N,3,FF9933,000000,9
COLS,Coliseum,37.753576,-122.196716,Orange-N,3,FF9933,000000,10
FTVL,Fruitvale,37.774841,-122.224081,Orange-N,3,FF9933,000000,11
LAKE,Lake Merritt,37.797322,-122.265247,Orange-N,3,FF9933,000000,12
12TH,12th Street / Oakland City Center,37.803482,-122.271630,Orange-N,3,FF9933,000000,13
19TH,19th Street Oakland,37.808078,-122.268758,Orange-N,3,FF9933,000000,14
MCAR,MacArthur,37.828803,-122.267105,Orange-N,3,FF9933,000000,15
ASHB,Ashby,37.853072,-122.269771,Orange-N,3,FF9933,000000,16
DBRK,Downtown Berkeley,37.870110,-122.268109,Orange-N,3,FF9933,000000,17
NBRK,North Berkeley,37.874005,-122.283523,Orange-N,3,FF9933,000000,18
PLZA,El Cerrito Plaza,37.902610,-122.298920,Orange-N,3,FF9933,000000,19
DELN,El Cerrito Del Norte,37.925184,-122.316892,Orange-N,3,FF9933,000000,20
RICH,Richmond,37.936758,-122.353047,Orange-N,3,FF9933,000000,21
RICH,Richmond,37.936758,-122.353047,Orange-S,4,FF9933,000000,0
DELN,El Cerrito Del Norte,37.925184,-122.316892,Orange-S,4,FF9933,000000,1
PLZA,El Cerrito Plaza,37.902610,-122.298920,Orange-S,4,FF9933,000000,2
NBRK,North Berkeley,37.874005,-122.283523,Orange-S,4,FF9933,000000,3
DBRK,Downtown Berkeley,37.870110,-122.268109,Orange-S,4,FF9933,000000,4
ASHB,Ashby,37.853072,-122.269771,Orange-S,4,FF9933,000000,5
MCAR,MacArthur,37.828803,-122.267105,Orange-S,4,FF9933,000000,6
19TH,19th Street Oakland,37.808078,-122.268758,Orange-S,4,FF9933,000000,7
12TH,12th Street / Oakland City Center,37.803482,-122.271630,Orange-S,4,FF9933,000000,8
LAKE,Lake Merritt,37.797322,-122.265247,Orange-S,4,FF9933,000000,9
FTVL,Fruitvale,37.774841,-122.224081,Orange-S,4,FF9933,000000,10
COLS,Coliseum,37.753576,-122.196716,Orange-S,4,FF9933,000000,11
SANL,San Leandro,37.721784,-122.160740,Orange-S,4,FF9933,000000,12
BAYF,Bay Fair,37.696908,-122.126446,Orange-S,4,FF9933,000000,13
HAYW,Hayward,37.669699,-122.086958,Orange-S,4,FF9933,000000,14
SHAY,South Hayward,37.634340,-122.057182,Orange-S,4,FF9933,000000,15
UCTY,Union City,37.590735,-122.017248,Orange-S,4,FF9933,000000,17
FRMT,Fremont,37.557480,-121.976619,Orange-S,4,FF9933,000000,18
WARM,Warm Springs / South Fremont,37.502285,-121.939395,Orange-S,4,FF9933,000000,19
MLPT,Milpitas,37.410277,-121.891081,Orange-S,4,FF9933,000000,20
BERY,Berryessa / North San Jose,37.368473,-121.874681,Orange-S,4,FF9933,000000,21
ANTC,Antioch,37.995373,-121.780346,Yellow-S,1,FFFF33,000000,0
PCTR,Pittsburg Center,38.016847,-121.889062,Yellow-S,1,FFFF33,000000,1
PITT,Pittsburg / Bay Point,38.018910,-121.944236,Yellow-S,1,FFFF33,000000,2
NCON,North Concord / Martinez,38.003383,-122.024512,Yellow-S,1,FFFF33,000000,3
CONC,Concord,37.973757,-122.029072,Yellow-S,1,FFFF33,000000,4
PHIL,Pleasant Hill / Contra Costa Centre,37.928434,-122.055971,Yellow-S,1,FFFF33,000000,5
WCRK,Walnut Creek,37.905791,-122.067327,Yellow-S,1,FFFF33,000000,6
LAFY,Lafayette,37.893183,-122.124620,Yellow-S,1,FFFF33,000000,7
ORIN,Orinda,37.878481,-122.183667,Yellow-S,1,FFFF33,000000,8
ROCK,Rockridge,37.844755,-122.251235,Yellow-S,1,FFFF33,000000,9
MCAR,MacArthur,37.828803,-122.267105,Yellow-S,1,FFFF33,000000,10
19TH,19th Street Oakland,37.808078,-122.268758,Yellow-S,1,FFFF33,000000,11
12TH,12th Street / Oakland City Center,37.803482,-122.271630,Yellow-S,1,FFFF33,000000,12
WOAK,West Oakland,37.804888,-122.295151,Yellow-S,1,FFFF33,000000,13
EMBR,Embarcadero,37.792762,-122.397037,Yellow-S,1,FFFF33,000000,14
MONT,Montgomery Street,37.789173,-122.401587,Yellow-S,1,FFFF33,000000,15
POWL,Powell Street,37.784606,-122.407331,Yellow-S,1,FFFF33,000000,16
CIVC,Civic Center / UN Plaza,37.779408,-122.413826,Yellow-S,1,FFFF33,000000,17
16TH,16th Street / Mission,37.765173,-122.419704,Yellow-S,1,FFFF33,000000,18
24TH,24th Street / Mission,37.752419,-122.418468,Yellow-S,1,FFFF33,000000,19
GLEN,Glen Park,37.733235,-122.433515,Yellow-S,1,FFFF33,000000,20
BALB,Balboa Park,37.721747,-122.447457,Yellow-S,1,FFFF33,000000,21
DALY,Daly City,37.706259,-122.468908,Yellow-S,1,FFFF33,000000,22
COLM,Colma,37.684635,-122.466157,Yellow-S,1,FFFF33,000000,23
SSAN,South San Francisco,37.664462,-122.444211,Yellow-S,1,FFFF33,000000,24
SBRN,San Bruno,37.637730,-122.416326,Yellow-S,1,FFFF33,000000,25
SFIA,San Francisco International Airport,37.616091,-122.391954,Yellow-S,1,FFFF33,000000,26
MLBR,Millbrae (Caltrain Transfer Platform),37.600237,-122.386757,Yellow-N,2,FFFF33,000000,0
SFIA,San Francisco International Airport,37.616091,-122.391954,Yellow-N,2,FFFF33,000000,1
SBRN,San Bruno,37.637730,-122.416326,Yellow-N,2,FFFF33,000000,2
SSAN,South San Francisco,37.664462,-122.444211,Yellow-N,2,FFFF33,000000,3
COLM,Colma,37.684635,-122.466157,Yellow-N,2,FFFF33,000000,4
DALY,Daly City,37.706259,-122.468908,Yellow-N,2,FFFF33,000000,5
BALB,Balboa Park,37.721747,-122.447457,Yellow-N,2,FFFF33,000000,6
GLEN,Glen Park,37.733235,-122.433515,Yellow-N,2,FFFF33,000000,7
24TH,24th Street / Mission,37.752419,-122.418468,Yellow-N,2,FFFF33,000000,8
16TH,16th Street / Mission,37.765173,-122.419704,Yellow-N,2,FFFF33,000000,9
CIVC,Civic Center / UN Plaza,37.779408,-122.413826,Yellow-N,2,FFFF33,000000,10
POWL,Powell Street,37.784606,-122.407331,Yellow-N,2,FFFF33,000000,11
MONT,Montgomery Street,37.789173,-122.401587,Yellow-N,2,FFFF33,000000,12
EMBR,Embarcadero,37.792762,-122.397037,Yellow-N,2,FFFF33,000000,13
WOAK,West Oakland,37.804888,-122.295151,Yellow-N,2,FFFF33,000000,14
12TH,12th Street / Oakland City Center,37.803482,-122.271630,Yellow-N,2,FFFF33,000000,15
19TH,19th Street Oakland,37.808078,-122.268758,Yellow-N,2,FFFF33,000000,16
MCAR,MacArthur,37.828803,-122.267105,Yellow-N,2,FFFF33,000000,17
ROCK,Rockridge,37.844755,-122.251235,Yellow-N,2,FFFF33,000000,18
ORIN,Orinda,37.878481,-122.183667,Yellow-N,2,FFFF33,000000,19
LAFY,Lafayette,37.893183,-122.124620,Yellow-N,2,FFFF33,000000,20
WCRK,Walnut Creek,37.905791,-122.067327,Yellow-N,2,FFFF33,000000,21
PHIL,Pleasant Hill / Contra Costa Centre,37.928434,-122.055971,Yellow-N,2,FFFF33,000000,22
CONC,Concord,37.973757,-122.029072,Yellow-N,2,FFFF33,000000,24
NCON,North Concord / Martinez,38.003383,-122.024512,Yellow-N,2,FFFF33,000000,25
PITT,Pittsburg / Bay Point,38.018910,-121.944236,Yellow-N,2,FFFF33,000000,26
PCTR,Pittsburg Center,38.016847,-121.889062,Yellow-N,2,FFFF33,000000,27
ANTC,Antioch,37.995373,-121.780346,Yellow-N,2,FFFF33,000000,28
RICH,Richmond,37.936758,-122.353047,Red-S,7,FF0000,FFFFFF,0
DELN,El Cerrito Del Norte,37.925184,-122.316892,Red-S,7,FF0000,FFFFFF,1
PLZA,El Cerrito Plaza,37.902610,-122.298920,Red-S,7,FF0000,FFFFFF,2
NBRK,North Berkeley,37.874005,-122.283523,Red-S,7,FF0000,FFFFFF,3
DBRK,Downtown Berkeley,37.870110,-122.268109,Red-S,7,FF0000,FFFFFF,4
ASHB,Ashby,37.853072,-122.269771,Red-S,7,FF0000,FFFFFF,5
MCAR,MacArthur,37.828803,-122.267105,Red-S,7,FF0000,FFFFFF,6
19TH,19th Street Oakland,37.808078,-122.268758,Red-S,7,FF0000,FFFFFF,7
12TH,12th Street / Oakland City Center,37.803482,-122.271630,Red-S,7,FF0000,FFFFFF,8
WOAK,West Oakland,37.804888,-122.295151,Red-S,7,FF0000,FFFFFF,9
EMBR,Embarcadero,37.792762,-122.397037,Red-S,7,FF0000,FFFFFF,10
MONT,Montgomery Street,37.789173,-122.401587,Red-S,7,FF0000,FFFFFF,11
POWL,Powell Street,37.784606,-122.407331,Red-S,7,FF0000,FFFFFF,12
CIVC,Civic Center / UN Plaza,37.779408,-122.413826,Red-S,7,FF0000,FFFFFF,13
16TH,16th Street / Mission,37.765173,-122.419704,Red-S,7,FF0000,FFFFFF,14
24TH,24th Street / Mission,37.752419,-122.418468,Red-S,7,FF0000,FFFFFF,15
GLEN,Glen Park,37.733235,-122.433515,Red-S,7,FF0000,FFFFFF,16
BALB,Balboa Park,37.721747,-122.447457,Red-S,7,FF0000,FFFFFF,17
DALY,Daly City,37.706259,-122.468908,Red-S,7,FF0000,FFFFFF,18
COLM,Colma,37.684635,-122.466157,Red-S,7,FF0000,FFFFFF,19
SSAN,South San Francisco,37.664462,-122.444211,Red-S,7,FF0000,FFFFFF,20
SBRN,San Bruno,37.637730,-122.416326,Red-S,7,FF0000,FFFFFF,21
MLBR,Millbrae (Caltrain Transfer Platform),37.600237,-122.386757,Red-S,7,FF0000,FFFFFF,22
SFIA,San Francisco International Airport,37.616091,-122.391954,Red-N,8,FF0000,FFFFFF,0
MLBR,Millbrae (Caltrain Transfer Platform),37.600237,-122.386757,Red-N,8,FF0000,FFFFFF,1
DUBL,Dublin / Pleasanton,37.701646,-121.899229,Blue-S,11,0099CC,FFFFFF,0
WDUB,West Dublin / Pleasanton,37.699721,-121.928277,Blue-S,11,0099CC,FFFFFF,1
CAST,Castro Valley,37.690737,-122.075601,Blue-S,11,0099CC,FFFFFF,2
BAYF,Bay Fair,37.696908,-122.126446,Blue-S,11,0099CC,FFFFFF,3
BAYF,Bay Fair,37.696908,-122.126446,Blue-N,12,0099CC,FFFFFF,0
CAST,Castro Valley,37.690737,-122.075601,Blue-N,12,0099CC,FFFFFF,1
WDUB,West Dublin / Pleasanton,37.699721,-121.928277,Blue-N,12,0099CC,FFFFFF,2
DUBL,Dublin / Pleasanton,37.701646,-121.899229,Blue-N,12,0099CC,FFFFFF,3
OAKL,Oakland International Airport Station,37.713268,-122.212200,Beige-N,19,D5CFA3,000000,0
COLS,Coliseum,37.753576,-122.196716,Beige-N,19,D5CFA3,000000,2
COLS,Coliseum,37.753576,-122.196716,Beige-S,20,D5CFA3,000000,0
OAKL,Oakland International Airport Station,37.713268,-122.212200,Beige-S,20,D5CFA3,000000,2
