stop_lat,route_color,stop_lon,route_text_color,route_id,fips,stop_sequence,stop_id,route_short_name,stop_name,B19013_001E
32.222356,FFD457,-110.968029,000000,10794,040190001001001,1,16137,1,Downtown Ronstadt Center,23125
32.221165,FFD457,-110.965693,000000,10794,040190001001010,2,10861,1,Broadway/4th Av,23125
32.221759,FFD457,-110.959343,000000,10794,040190008002023,3,13604,1,Euclid/Broadway,34698
32.224077,FFD457,-110.959362,000000,10794,040190005007013,4,13079,1,Euclid/9th St,
32.228305,FFD457,-110.959311,000000,10794,040190005007001,5,60,1,Euclid/6th St,
32.23195,FFD457,-110.959389,000000,10794,040190005006030,6,13080,1,Euclid/University,
32.234487,FFD457,-110.959325,000000,10794,040190005006012,7,13081,1,Euclid/1st St,
32.236753,FFD457,-110.956685,000000,10794,040190005006006,8,3,1,Park/Speedway,
32.239801,FFD457,-110.956756,000000,10794,040190015001022,9,11263,1,Park/Drachman,12857
32.242663,FFD457,-110.956776,000000,10794,040190015001016,10,11264,1,Park/Elm,12857
32.24599,FFD457,-110.956747,000000,10794,040190015003040,11,11265,1,Park/Waverly,12857
32.250103,FFD457,-110.956828,000000,10794,040190015003011,12,11266,1,Park/Grant,12857
32.254179,FFD457,-110.956744,000000,10794,040190015002021,13,11267,1,Park/Copper,12857
32.257371,FFD457,-110.956711,000000,10794,040190015002004,14,11268,1,Park/Glenn,12857
32.257473,FFD457,-110.952688,000000,10794,040190015002003,15,11269,1,Glenn/Mountain,12857
32.257476,FFD457,-110.952048,000000,10794,040190015002002,16,16169,1,Glenn/Mountain,12857
32.257464,FFD457,-110.948399,000000,10794,040190015002002,17,15296,1,Glenn/Cherry,12857
32.257523,FFD457,-110.947933,000000,10794,040190015002001,18,11270,1,Glenn/Cherry,12857
32.257543,FFD457,-110.943543,000000,10794,040190016005002,19,4,1,Glenn/Campbell,40900
32.257558,FFD457,-110.939325,000000,10794,040190016005001,20,11272,1,Glenn/Plumer,40900
32.257579,FFD457,-110.934995,000000,10794,040190017003007,21,11273,1,Glenn/Tucson,51389
32.257629,FFD457,-110.930781,000000,10794,040190028031003,22,11274,1,Glenn/Treat,28452
32.25766,FFD457,-110.926535,000000,10794,040190028031002,23,11275,1,Glenn/Country Club,28452
32.257685,FFD457,-110.922778,000000,10794,040190028031002,24,11276,1,Glenn/Edith,28452
32.257748,FFD457,-110.917959,000000,10794,040190028032005,25,11277,1,Glenn/Palo Verde,28452
32.25778,FFD457,-110.913862,000000,10794,040190028032003,26,11278,1,Glenn/Dodge,28452
32.257785,FFD457,-110.909233,000000,10794,040190029015006,27,5,1,Glenn/Alvernon,29872
32.257799,FFD457,-110.905648,000000,10794,040190029015003,28,14963,1,Glenn/C de Romy,29872
32.257764,FFD457,-110.900688,000000,10794,040190029011003,29,12805,1,Glenn/Columbus,29872
32.257836,FFD457,-110.895586,000000,10794,040190029011000,30,12806,1,Glenn/Desert Av,29872
32.257417,FFD457,-110.892703,000000,10794,040190029011000,31,11518,1,Swan/Glenn,29872
32.25363,FFD457,-110.892722,000000,10794,040190029011004,32,12757,1,Swan/San Carlos,29872
32.250312,FFD457,-110.892823,000000,10794,040190029011021,33,248,1,Swan/Grant,29872
32.246749,FFD457,-110.892809,000000,10794,040190029012000,34,12758,1,Swan/Seneca,29872
32.24308,FFD457,-110.892796,000000,10794,040190031011000,35,12760,1,Swan/Pima,27070
32.240038,FFD457,-110.892739,000000,10794,040190031011006,36,15011,1,Swan/Fairmount,27070
32.237749,FFD457,-110.892768,000000,10794,040190031011011,37,12762,1,Swan/Bellevue,27070
32.235812,FFD457,-110.892769,000000,10794,040190031014000,38,249,1,Swan/Speedway,27070
32.232214,FFD457,-110.892694,000000,10794,040190032002004,39,12763,1,Swan/3rd St,38661
32.228587,FFD457,-110.892498,000000,10794,040190032002009,40,12765,1,Swan/5th St,38661
32.224634,FFD457,-110.892518,000000,10794,040190032002013,41,12766,1,Swan/Burns,38661
32.221027,FFD457,-110.892504,000000,10794,040190034005019,42,12767,1,Swan/Broadway,66413
32.217347,FFD457,-110.892481,000000,10794,040190034003012,43,12768,1,Swan/14th St,66413
32.213351,FFD457,-110.892393,000000,10794,040190034002005,44,15000,1,Swan/17th St,66413
32.21013,FFD457,-110.892416,000000,10794,040190035011006,45,15001,1,Swan/19th St,16458
32.205761,FFD457,-110.892452,000000,10794,040190035016000,46,252,1,Swan/22nd St,16458
32.201854,FFD457,-110.892521,000000,10794,040190035016007,47,12773,1,Swan/27th St,16458
32.199817,FFD457,-110.892759,000000,10794,040190035016011,48,11827,1,29th St/Swan,16458
32.199852,FFD457,-110.896555,000000,10794,040190035016011,49,11828,1,29th St/Belvedere,16458
32.199844,FFD457,-110.900721,000000,10794,040190035016010,50,11829,1,29th St/Columbus,16458
32.199861,FFD457,-110.905239,000000,10794,040190035012014,51,140,1,29th St/Irving,16458
32.198203,FFD457,-110.910646,000000,10794,040190020002007,52,11019,1,Winstel/March Pl,32431
32.196088,FFD457,-110.910625,000000,10794,040190020002012,53,11020,1,34th St/33rd St,32431
32.19418,FFD457,-110.913413,000000,10794,040190020002012,54,11022,1,34th St/34th Pl,32431
32.194182,FFD457,-110.918488,000000,10794,040190020002014,55,11024,1,34th St/Layton,32431
32.199908,FFD457,-110.92661,000000,10794,040190020005009,56,11250,1,Country Club/Silverlake,32431
32.203006,FFD457,-110.926589,000000,10794,040190020004005,57,11251,1,Country Club/27th St,32431
32.205914,FFD457,-110.926675,000000,10794,040190020007003,58,11252,1,Country Club/23rd St,32431
32.207905,FFD457,-110.92652,000000,10794,040190019002045,59,143,1,Country Club/22nd St,40919
32.222581,00703C,-110.968193,FFFFFF,10795,040190001001001,1,14205,10,Downtown Ronstadt Center,23125
32.225663,00703C,-110.970401,FFFFFF,10795,040190004003046,2,14761,10,Toole/7th Av,31328
32.231838,00703C,-110.9717,FFFFFF,10795,040190004003003,3,12140,10,Stone/University,31328
32.236076,00703C,-110.972246,FFFFFF,10795,040190004002008,4,12570,10,Speedway/Stone,31328
32.236041,00703C,-110.975083,FFFFFF,10795,040190003001000,5,12571,10,Speedway/10th Av,16111
32.236311,00703C,-110.9778,FFFFFF,10795,040190003001004,6,11407,10,Main/Speedway,16111
32.238645,00703C,-110.977895,FFFFFF,10795,040190013022036,7,11408,10,Main/Mabel,12216
32.241337,00703C,-110.977852,FFFFFF,10795,040190013022031,8,11409,10,Oracle/Lee,12216
32.244723,00703C,-110.977818,FFFFFF,10795,040190013022022,9,14843,10,Oracle/Plata,12216
32.248348,00703C,-110.977862,FFFFFF,10795,040190013021012,10,16156,10,Oracle/Rillito,12216
32.25147,00703C,-110.977858,FFFFFF,10795,040190013044008,11,157,10,Oracle/Grant,28452
32.254188,00703C,-110.977948,FFFFFF,10795,040190013044002,12,11413,10,Oracle/Jacinto,28452
32.257916,00703C,-110.977924,FFFFFF,10795,040190013041003,13,11414,10,Oracle/Glenn,28452
32.261103,00703C,-110.980108,FFFFFF,10795,040190026042002,14,11415,10,Miracle Mile/Cemetery,22018
32.261096,00703C,-110.983847,FFFFFF,10795,040190026042002,15,14899,10,Miracle Mile/800 Block,22018
32.261126,00703C,-110.987144,FFFFFF,10795,040190045053026,16,11417,10,Miracle Mile/Fairview,33438
32.261235,00703C,-110.991207,FFFFFF,10795,040190045053026,17,11418,10,Miracle Mile/El Burrito,33438
32.261347,00703C,-110.994559,FFFFFF,10795,040190045053026,18,11419,10,Miracle Mile/Flowing Wells,33438
32.264068,00703C,-110.994859,FFFFFF,10795,040190045053026,19,14560,10,Flowing Wells/Delano,33438
32.267908,00703C,-110.994869,FFFFFF,10795,040190045053021,20,16146,10,Flowing Wells/Mohave,33438
32.272344,00703C,-110.994957,FFFFFF,10795,040190045051016,21,11375,10,Flowing Wells/Prince,33438
32.275946,00703C,-110.994857,FFFFFF,10795,040190045052003,22,11427,10,Flowing Wells/Pastime,33438
32.279126,00703C,-110.994881,FFFFFF,10795,040190045052000,23,14563,10,Flowing Wells/Roger,33438
32.28415,00703C,-110.994933,FFFFFF,10795,040190045083005,24,14565,10,Flowing Wells/Talisman,31107
32.287394,00703C,-110.995006,FFFFFF,10795,040190045082004,25,14874,10,Flowing Wells/Schafer,31107
32.291019,00703C,-110.994941,FFFFFF,10795,040190045082006,26,14567,10,Flowing Wells/Wabash,31107
32.295739,00703C,-110.995064,FFFFFF,10795,040190046181008,27,14568,10,La Canada/Edgewater,76250
32.297305,00703C,-110.9947,FFFFFF,10795,040190046181007,28,14483,10,River/La Canada,76250
32.297464,00703C,-110.990449,FFFFFF,10795,040190046181007,29,14569,10,River/Hansen,76250
32.297453,00703C,-110.982326,FFFFFF,10795,040190046181005,30,14817,10,River/15th Av,76250
32.29715,00703C,-110.977357,FFFFFF,10795,040190047102019,31,12236,10,River/Oracle,25000
32.295683,00703C,-110.971248,FFFFFF,10795,040190047102010,32,12902,10,Stone/River,25000
32.288709,00703C,-110.968756,FFFFFF,10795,040190045101007,33,14237,10,Tohono Transit Center,10829
32.192908,003B7B,-110.789843,FFFFFF,10796,040190040224012,1,51,101X,Harrison/Golf Links,67841
32.191892,003B7B,-110.790207,FFFFFF,10796,040190040224012,2,14523,101X,Golf Links/Harrison,67841
32.191925,003B7B,-110.79915,FFFFFF,10796,040190040222017,3,11803,101X,Golf Links/Palm Springs,67841
32.191899,003B7B,-110.804085,FFFFFF,10796,040190040223025,4,11804,101X,Golf Links/Cmo Seco,67841
32.191988,003B7B,-110.809424,FFFFFF,10796,040190040223007,5,11805,101X,Golf Links/Pantano Pkwy,67841
32.192082,003B7B,-110.813955,FFFFFF,10796,040190040111000,6,14606,101X,Golf Links/Jaguar,54375
32.191968,003B7B,-110.814787,FFFFFF,10796,040190040111000,7,11807,101X,Golf Links/Sarnoff,54375
32.192001,003B7B,-110.817636,FFFFFF,10796,040190040111000,8,11808,101X,Golf Links/Saddleback,54375
32.192059,003B7B,-110.820053,FFFFFF,10796,040190040111004,9,11809,101X,Golf Links/Lakeside Pkwy,54375
32.192004,003B7B,-110.824273,FFFFFF,10796,040190040115018,10,11810,101X,Golf Links/Pantano Rd,54375
32.192032,003B7B,-110.829122,FFFFFF,10796,040190040115017,11,11811,101X,Golf Links/Marc Dr,54375
32.192036,003B7B,-110.832653,FFFFFF,10796,040190040114018,12,11812,101X,Golf Links/Prudence,54375
32.1921,003B7B,-110.836455,FFFFFF,10796,040190040114012,13,11813,101X,Golf Links/Cordova,54375
32.192065,003B7B,-110.841498,FFFFFF,10796,040190040081007,14,11814,101X,Golf Links/Kolb,43125
32.192384,003B7B,-110.858698,FFFFFF,10796,040190035043007,15,14284,101X,Golf Links/Wilmot,46250
32.224426,003B7B,-110.970948,FFFFFF,10796,040190001002000,16,10858,101X,Alameda/Stone,23125
32.222785,003B7B,-110.972711,FFFFFF,10796,040190001002010,17,10859,101X,Church/Pennington,23125
32.221724,003B7B,-110.972994,FFFFFF,10796,040190001002009,18,11526,101X,Congress/Church,23125
32.22144,003B7B,-110.97673,FFFFFF,10796,040190002001022,19,11464,101X,Congress/Granada,34006
32.351864,C5913A,-110.975279,FFFFFF,10797,040190046222012,1,14757,102X,Magee/Oracle,95577
32.351887,C5913A,-110.979198,FFFFFF,10797,040190046222010,2,14700,102X,Magee/Northern,95577
32.351875,C5913A,-110.987368,FFFFFF,10797,040190046222009,3,14702,102X,Magee/La Oesta Av,95577
32.351888,C5913A,-110.996234,FFFFFF,10797,040190046211020,4,14704,102X,Magee/La Canada,54423
32.343308,C5913A,-111.012926,FFFFFF,10797,040190046262000,5,14631,102X,La Cholla/Foothills Mall Dr,48831
32.337373,C5913A,-111.01313,FFFFFF,10797,040190046262000,6,271,102X,Ina/La Cholla,48831
32.33741,C5913A,-111.018246,FFFFFF,10797,040190046262000,7,11359,102X,Ina/2300 W Ina Road WB,48831
32.337424,C5913A,-111.022462,FFFFFF,10797,040190046261003,8,12183,102X,Ina/Crystal Cave,48831
32.337429,C5913A,-111.024995,FFFFFF,10797,040190046261003,9,11951,102X,Ina/Shama Wing,48831
32.337535,C5913A,-111.030203,FFFFFF,10797,040190046252006,10,11362,102X,Ina/Shannon,43936
32.337523,C5913A,-111.034777,FFFFFF,10797,040190046252006,11,14365,102X,Ina/3220 W Ina Road WB,43936
32.337551,C5913A,-111.038393,FFFFFF,10797,040190046252001,12,11364,102X,Ina/Cmo De La Tierra,43936
32.337666,C5913A,-111.044009,FFFFFF,10797,040190046243028,13,11365,102X,Ina/Meredith,57372
32.337672,C5913A,-111.055179,FFFFFF,10797,040190046472012,14,281,102X,Ina/Oldfather,65481
32.337687,C5913A,-111.06041,FFFFFF,10797,040190046472015,15,273,102X,Ina/Cmo De La Cruz,65481
32.23521,C5913A,-110.971944,FFFFFF,10797,040190004002030,16,11167,102X,Stone/Speedway,31328
32.225841,C5913A,-110.971806,FFFFFF,10797,040190001002001,17,11170,102X,Stone/Franklin,23125
32.2246,C5913A,-110.971759,FFFFFF,10797,040190001002002,18,11171,102X,Stone/Alameda,23125
32.222785,C5913A,-110.972711,FFFFFF,10797,040190001002010,19,10859,102X,Church/Pennington,23125
32.223679,C5913A,-110.968525,FFFFFF,10797,040190001001000,20,15933,102X,6th Av/Pennington,23125
32.22734,C5913A,-110.968558,FFFFFF,10797,040190004003025,21,11175,102X,6th Av/6th St,31328
32.235831,C5913A,-110.968544,FFFFFF,10797,040190004002026,22,11177,102X,Speedway/6th Av,31328
32.235878,C5913A,-110.955184,FFFFFF,10797,040190005006014,23,11181,102X,Speedway/Olive Underpass,
32.235885,C5913A,-110.951063,FFFFFF,10797,040190005006017,24,11182,102X,Speedway/Highland Underpass,
32.231702,C5913A,-110.946885,FFFFFF,10797,040190005004010,25,100,102X,UA Mall,
32.236753,C5913A,-110.943748,FFFFFF,10797,040190006001022,26,11881,102X,Campbell Av/Speedway,39000
32.240929,C5913A,-110.943772,FFFFFF,10797,040190016002021,27,11882,102X,Campbell Av/Adams,40900
32.337525,957CA0,-111.060326,FFFFFF,10798,040190046132001,1,280,103X,Ina/Cmo De La Cruz,70099
32.33742,957CA0,-111.055138,FFFFFF,10798,040190046132001,2,272,103X,Ina/Oldfather,70099
32.337366,957CA0,-111.044855,FFFFFF,10798,040190046131004,3,11466,103X,Ina/Thornydale,70099
32.33733,957CA0,-111.037616,FFFFFF,10798,040190046272000,4,11467,103X,Ina/Cmo De La Tierra,59079
32.337307,957CA0,-111.034679,FFFFFF,10798,040190046272000,5,11486,103X,Ina/3201 W Ina Road EB,59079
32.337263,957CA0,-111.028902,FFFFFF,10798,040190046282000,6,11469,103X,Ina/Shannon,59408
32.337235,957CA0,-111.025405,FFFFFF,10798,040190046282000,7,11959,103X,Ina/Shama Wing,59408
32.337205,957CA0,-111.021342,FFFFFF,10798,040190046281002,8,11471,103X,Ina/Mona Lisa,59408
32.337145,957CA0,-111.01814,FFFFFF,10798,040190046281001,9,11472,103X,Ina/Omar,59408
32.337141,957CA0,-111.0161,FFFFFF,10798,040190046281000,10,283,103X,Ina/La Cholla,59408
32.337171,957CA0,-111.012261,FFFFFF,10798,040190046151006,11,12209,103X,Ina/La Cholla,96985
32.33711,957CA0,-111.008508,FFFFFF,10798,040190046151006,12,12210,103X,Ina/Casablanca,96985
32.337168,957CA0,-111.005015,FFFFFF,10798,040190046151003,13,12211,103X,Ina/Magic Ln,96985
32.337107,957CA0,-110.999869,FFFFFF,10798,040190046151002,14,12212,103X,Ina/Express Care,96985
32.337029,957CA0,-110.994628,FFFFFF,10798,040190046152009,15,11494,103X,Ina/La Canada,96985
32.337054,957CA0,-110.987696,FFFFFF,10798,040190046152006,16,12214,103X,Ina/Pampa Pl,96985
32.337126,957CA0,-110.979762,FFFFFF,10798,040190046152001,17,11497,103X,Ina/Via Ponte,96985
32.336696,957CA0,-110.977684,FFFFFF,10798,040190046152000,18,165,103X,Oracle/Ina,96985
32.322249,957CA0,-110.974914,FFFFFF,10798,040190046171000,19,287,103X,Oracle/Orange Grove,46042
32.296099,957CA0,-110.970667,FFFFFF,10798,040190047102004,20,11329,103X,River/Stone,25000
32.296063,957CA0,-110.96599,FFFFFF,10798,040190047102001,21,14869,103X,River/Hillcrest Dr.,25000
32.293807,957CA0,-110.95907,FFFFFF,10798,040190047101000,22,11330,103X,River/Campana Dr,25000
32.290859,957CA0,-110.949157,FFFFFF,10798,040190047101000,23,11331,103X,River/Via Entrada,25000
32.285978,957CA0,-110.943934,FFFFFF,10798,040190047101000,24,11332,103X,Campbell Av/River,25000
32.275661,957CA0,-110.943951,FFFFFF,10798,040190027012000,25,11333,103X,Campbell Av/Allen,33734
32.264705,957CA0,-110.943853,FFFFFF,10798,040190027032000,26,11915,103X,Campbell Av/Ft Lowell,33125
32.253868,957CA0,-110.944022,FFFFFF,10798,040190016005014,27,11919,103X,Campbell Av/Copper,40900
32.240839,957CA0,-110.94418,FFFFFF,10798,040190015001013,28,220,103X,Campbell Av/Adams,12857
32.235706,957CA0,-110.944114,FFFFFF,10798,040190006001024,29,11924,103X,Campbell Av/Speedway,39000
32.231702,957CA0,-110.946885,FFFFFF,10798,040190005004010,30,100,103X,UA Mall,
32.236178,957CA0,-110.944438,FFFFFF,10798,040190006001023,31,41,103X,Speedway/Campbell,39000
32.236135,957CA0,-110.947087,FFFFFF,10798,040190005006000,32,11157,103X,Speedway/Warren Underpass,
32.236092,957CA0,-110.951134,FFFFFF,10798,040190005006003,33,11344,103X,Speedway/Highland Underpass,
32.236157,957CA0,-110.95533,FFFFFF,10798,040190005006006,34,11161,103X,Speedway/Olive Underpass,
32.23521,957CA0,-110.971944,FFFFFF,10798,040190004002030,35,11167,103X,Stone/Speedway,31328
32.225841,957CA0,-110.971806,FFFFFF,10798,040190001002001,36,11170,103X,Stone/Franklin,23125
32.2246,957CA0,-110.971759,FFFFFF,10798,040190001002002,37,11171,103X,Stone/Alameda,23125
32.222785,957CA0,-110.972711,FFFFFF,10798,040190001002010,38,10859,103X,Church/Pennington,23125
32.223679,957CA0,-110.968525,FFFFFF,10798,040190001001000,39,15933,103X,6th Av/Pennington,23125
32.353352,451F03,-111.092355,FFFFFF,10799,040190044261006,1,14917,104X,Arizona Pavilions/Cortaro Road,72876
32.23521,451F03,-110.971944,FFFFFF,10799,040190004002030,2,11167,104X,Stone/Speedway,31328
32.225841,451F03,-110.971806,FFFFFF,10799,040190001002001,3,11170,104X,Stone/Franklin,23125
32.2246,451F03,-110.971759,FFFFFF,10799,040190001002002,4,11171,104X,Stone/Alameda,23125
32.222785,451F03,-110.972711,FFFFFF,10799,040190001002010,5,10859,104X,Church/Pennington,23125
32.221724,451F03,-110.972994,FFFFFF,10799,040190001002009,6,11526,104X,Congress/Church,23125
32.22144,451F03,-110.97673,FFFFFF,10799,040190002001022,7,11464,104X,Congress/Granada,34006
32.288888,E00085,-110.968647,FFFFFF,10800,040190045101007,1,14233,105X,Tohono Transit Center,10829
32.296099,E00085,-110.970667,FFFFFF,10800,040190047102004,2,11329,105X,River/Stone,25000
32.296063,E00085,-110.96599,FFFFFF,10800,040190047102001,3,14869,105X,River/Hillcrest Dr.,25000
32.295642,E00085,-110.960967,FFFFFF,10800,040190047262031,4,11502,105X,1st Av/River,74306
32.299507,E00085,-110.960827,FFFFFF,10800,040190047262020,5,11503,105X,1st Av/Foothills Dr,74306
32.301653,E00085,-110.961005,FFFFFF,10800,040190047262020,6,11504,105X,1st Av/Mescal Pl,74306
32.307002,E00085,-110.960932,FFFFFF,10800,040190047263021,7,11505,105X,1st Av/Via Entrada,74306
32.315993,E00085,-110.960956,FFFFFF,10800,040190047263007,8,11506,105X,1st Av/Rudasill,74306
32.322676,E00085,-110.9609,FFFFFF,10800,040190047263006,9,11507,105X,Orange Grove/1st Av,74306
32.322655,E00085,-110.956127,FFFFFF,10800,040190047263006,10,11508,105X,Orange Grove/Pla De Eduardo,74306
32.32264,E00085,-110.948963,FFFFFF,10800,040190047143022,11,11509,105X,Orange Grove/Cmo Arturo,73661
32.323486,E00085,-110.941725,FFFFFF,10800,040190047263001,12,11510,105X,Orange Grove/Cmo La Zorrela,74306
32.322574,E00085,-110.927948,FFFFFF,10800,040190047112008,13,15008,105X,Skyline/Campbell,88487
32.320256,E00085,-110.918833,FFFFFF,10800,040190047112008,14,14186,105X,Sunrise Dr/Campo Abierto,88487
32.317561,E00085,-110.914569,FFFFFF,10800,040190047112008,15,11537,105X,Sunrise Dr/La Paloma Club House,88487
32.312419,E00085,-110.912007,FFFFFF,10800,040190047112015,16,11514,105X,Sunrise Dr/Via Palomita,88487
32.308728,E00085,-110.907818,FFFFFF,10800,040190047122003,17,14491,105X,Sunrise Dr/Hacienda Del Sol,30403
32.308228,E00085,-110.901995,FFFFFF,10800,040190047121002,18,11516,105X,Sunrise Dr/Pontatoc Road,30403
32.308292,E00085,-110.891458,FFFFFF,10800,040190047241005,19,290,105X,Sunrise Dr/Swan,143929
32.305835,E00085,-110.844969,FFFFFF,10800,040190047222008,20,15007,105X,Territory Dr/Kolb,102574
32.308931,E00085,-110.845131,FFFFFF,10800,040190047193004,21,16040,105X,Sunrise Dr/Kolb,102455
32.307774,E00085,-110.892702,FFFFFF,10800,040190047121000,22,15013,105X,Swan/Sunrise Dr,30403
32.279065,E00085,-110.89273,FFFFFF,10800,040190047103000,23,14825,105X,Swan/River Road,25000
32.264982,E00085,-110.892504,FFFFFF,10800,040190029031028,24,14501,105X,Swan/Camp Lowell,49393
32.250312,E00085,-110.892823,FFFFFF,10800,040190029011021,25,248,105X,Swan/Grant,29872
32.236309,E00085,-110.893205,FFFFFF,10800,040190031011011,26,11146,105X,Speedway/Swan,27070
32.236315,E00085,-110.910143,FFFFFF,10800,040190031013006,27,40,105X,Speedway/Alvernon,27070
32.236178,E00085,-110.944438,FFFFFF,10800,040190006001023,28,41,105X,Speedway/Campbell,39000
32.236135,E00085,-110.947087,FFFFFF,10800,040190005006000,29,11157,105X,Speedway/Warren Underpass,
32.236092,E00085,-110.951134,FFFFFF,10800,040190005006003,30,11344,105X,Speedway/Highland Underpass,
32.236157,E00085,-110.95533,FFFFFF,10800,040190005006006,31,11161,105X,Speedway/Olive Underpass,
32.23521,E00085,-110.971944,FFFFFF,10800,040190004002030,32,11167,105X,Stone/Speedway,31328
32.225778,E00085,-110.970687,FFFFFF,10800,040190001002000,33,11525,105X,Toole/7th Av,23125
32.222081,E00085,-110.968373,FFFFFF,10800,040190001001001,34,14516,105X,Congress/6th Av,23125
32.221724,E00085,-110.972994,FFFFFF,10800,040190001002009,35,11526,105X,Congress/Church,23125
32.22144,E00085,-110.97673,FFFFFF,10800,040190002001022,36,11464,105X,Congress/Granada,34006
32.225841,5B57A6,-110.971806,FFFFFF,10801,040190001002001,1,11170,107X,Stone/Franklin,23125
32.223932,5B57A6,-110.971606,FFFFFF,10801,040190001002003,2,14945,107X,Stone/Alameda,23125
32.223679,5B57A6,-110.968525,FFFFFF,10801,040190001001000,3,15933,107X,6th Av/Pennington,23125
32.225663,5B57A6,-110.970401,FFFFFF,10801,040190004003046,4,14761,107X,Toole/7th Av,31328
32.236188,5B57A6,-110.971696,FFFFFF,10801,040190004002009,5,11368,107X,Stone/Speedway,31328
32.323261,5B57A6,-110.974774,FFFFFF,10801,040190047145007,6,284,107X,Oracle/Orange Grove,73661
32.351864,5B57A6,-110.975279,FFFFFF,10801,040190046222012,7,14757,107X,Magee/Oracle,95577
32.351887,5B57A6,-110.979198,FFFFFF,10801,040190046222010,8,14700,107X,Magee/Northern,95577
32.351875,5B57A6,-110.987368,FFFFFF,10801,040190046222009,9,14702,107X,Magee/La Oesta Av,95577
32.352251,5B57A6,-110.995567,FFFFFF,10801,040190046222008,10,14988,107X,La Canada/Magee,95577
32.366774,5B57A6,-110.99564,FFFFFF,10801,040190046202014,11,16123,107X,La Canada/Hardy Rd,33750
32.39523,5B57A6,-110.994861,FFFFFF,10801,040190046331016,12,15016,107X,Lambert/LaCanada,79266
32.398083,5B57A6,-110.977876,FFFFFF,10801,040190046331004,13,15939,107X,Lambert/Riverfront Park,79266
32.441468,5B57A6,-110.938846,FFFFFF,10801,040190046432045,14,15925,107X,Rancho Vistoso/Pusch Mountain View,48059
32.23501,DA9B3C,-110.790247,FFFFFF,10802,040190040481000,1,36,108X,Speedway/Harrison Park N Ride,65238
32.231555,DA9B3C,-110.789777,FFFFFF,10802,040190040481004,2,14553,108X,Harrison/Rosewood,65238
32.227652,DA9B3C,-110.789802,FFFFFF,10802,040190040481012,3,12332,108X,Harrison/5th St,65238
32.224942,DA9B3C,-110.789792,FFFFFF,10802,040190040481012,4,14554,108X,Harrison/Harrison Park Apts,65238
32.220975,DA9B3C,-110.790725,FFFFFF,10802,040190040481012,5,14555,108X,Broadway/Harrison,65238
32.220907,DA9B3C,-110.79434,FFFFFF,10802,040190040481015,6,14939,108X,Broadway/Dixie,65238
32.220975,DA9B3C,-110.798168,FFFFFF,10802,040190040481022,7,14935,108X,Broadway/Gollob,65238
32.220934,DA9B3C,-110.802934,FFFFFF,10802,040190040483012,8,14936,108X,Broadway/Rayburn,65238
32.22102,DA9B3C,-110.807134,FFFFFF,10802,040190040721024,9,14558,108X,Broadway/Cmo Seco,42006
32.221103,DA9B3C,-110.811421,FFFFFF,10802,040190040721024,10,14559,108X,Broadway/Old Spanish Trail,42006
32.221113,DA9B3C,-110.815909,FFFFFF,10802,040190040711002,11,12343,108X,Broadway/Sarnoff,25265
32.221122,DA9B3C,-110.818095,FFFFFF,10802,040190040711002,12,13384,108X,Broadway/Fellowship Square,25265
32.221116,DA9B3C,-110.822915,FFFFFF,10802,040190040711000,13,13385,108X,Broadway/Pantano,25265
32.221121,DA9B3C,-110.82461,FFFFFF,10802,040190040392030,14,13386,108X,Broadway/Pantano,28618
32.221066,DA9B3C,-110.84147,FFFFFF,10802,040190040681015,15,13390,108X,Broadway/Kolb,38417
32.221399,DA9B3C,-110.858377,FFFFFF,10802,040190033032000,16,86,108X,Broadway/Wilmot,25875
32.221743,DA9B3C,-110.910219,FFFFFF,10802,040190019002009,17,14336,108X,Broadway/Alvernon,40919
32.221509,DA9B3C,-110.944332,FFFFFF,10802,040190007003001,18,13425,108X,Broadway/Campbell,45238
32.22152,DA9B3C,-110.959897,FFFFFF,10802,040190008002022,19,10925,108X,Broadway/Euclid,34698
32.224426,DA9B3C,-110.970948,FFFFFF,10802,040190001002000,20,10858,108X,Alameda/Stone,23125
32.222785,DA9B3C,-110.972711,FFFFFF,10802,040190001002010,21,10859,108X,Church/Pennington,23125
32.221724,DA9B3C,-110.972994,FFFFFF,10802,040190001002009,22,11526,108X,Congress/Church,23125
32.22144,DA9B3C,-110.97673,FFFFFF,10802,040190002001022,23,11464,108X,Congress/Granada,34006
32.259294,4D4A8D,-110.798893,FFFFFF,10803,040190040531015,1,92,109X,Catalina Hy/Tanque Verde,65000
32.258221,4D4A8D,-110.807137,FFFFFF,10803,040190040531016,2,13555,109X,Tanque Verde/Lutheran Church,65000
32.258267,4D4A8D,-110.815857,FFFFFF,10803,040190040531018,3,13556,109X,Tanque Verde/Woodland,65000
32.250942,4D4A8D,-110.830623,FFFFFF,10803,040190040312000,4,13557,109X,Tanque Verde/Dos Hombres,42589
32.25095,4D4A8D,-110.835338,FFFFFF,10803,040190040312022,5,14786,109X,Tanque Verde/Pso Rancho Esperanza,42589
32.250925,4D4A8D,-110.841251,FFFFFF,10803,040190040301020,6,82,109X,Tanque Verde/Sabino Canyon,82337
32.25072,4D4A8D,-110.845711,FFFFFF,10803,040190040301025,7,13395,109X,Tanque Verde/Indian Ruins,82337
32.248726,4D4A8D,-110.850243,FFFFFF,10803,040190030041014,8,13559,109X,Grant/Tanque Verde,28800
32.250769,4D4A8D,-110.855272,FFFFFF,10803,040190030041001,9,13560,109X,Grant/6400 E Grant,28800
32.250738,4D4A8D,-110.858405,FFFFFF,10803,040190030041002,10,13561,109X,Grant/Wilmot,28800
32.250744,4D4A8D,-110.862619,FFFFFF,10803,040190030041012,11,15958,109X,Grant/Sunny Dr,28800
32.25077,4D4A8D,-110.866842,FFFFFF,10803,040190030042024,12,13564,109X,Grant/Sahuara,28800
32.250855,4D4A8D,-110.870936,FFFFFF,10803,040190030042003,13,13565,109X,Grant/Rainbow Vista,28800
32.250872,4D4A8D,-110.875747,FFFFFF,10803,040190029042017,14,96,109X,Grant/Craycroft,59816
32.250312,4D4A8D,-110.892823,FFFFFF,10803,040190029011021,15,248,109X,Swan/Grant,29872
32.236309,4D4A8D,-110.893205,FFFFFF,10803,040190031011011,16,11146,109X,Speedway/Swan,27070
32.236315,4D4A8D,-110.910143,FFFFFF,10803,040190031013006,17,40,109X,Speedway/Alvernon,27070
32.236178,4D4A8D,-110.944438,FFFFFF,10803,040190006001023,18,41,109X,Speedway/Campbell,39000
32.236135,4D4A8D,-110.947087,FFFFFF,10803,040190005006000,19,11157,109X,Speedway/Warren Underpass,
32.236092,4D4A8D,-110.951134,FFFFFF,10803,040190005006003,20,11344,109X,Speedway/Highland Underpass,
32.236157,4D4A8D,-110.95533,FFFFFF,10803,040190005006006,21,11161,109X,Speedway/Olive Underpass,
32.23521,4D4A8D,-110.971944,FFFFFF,10803,040190004002030,22,11167,109X,Stone/Speedway,31328
32.2246,4D4A8D,-110.971759,FFFFFF,10803,040190001002002,23,11171,109X,Stone/Alameda,23125
32.222785,4D4A8D,-110.972711,FFFFFF,10803,040190001002010,24,10859,109X,Church/Pennington,23125
32.223679,4D4A8D,-110.968525,FFFFFF,10803,040190001001000,25,15933,109X,6th Av/Pennington,23125
32.162542,7C5C36,-110.971222,FFFFFF,10804,040190038024000,1,14224,11,Laos Transit Center,22560
32.163709,7C5C36,-110.968052,FFFFFF,10804,040190024003009,2,10926,11,6th Av/Irvington,27852
32.165405,7C5C36,-110.968078,FFFFFF,10804,040190024003009,3,10927,11,6th Av/Oklahoma,27852
32.168589,7C5C36,-110.968109,FFFFFF,10804,040190024003013,4,10928,11,6th Av/Illinois,27852
32.170158,7C5C36,-110.968115,FFFFFF,10804,040190024003013,5,10929,11,6th Av/Michigan,27852
32.173801,7C5C36,-110.968131,FFFFFF,10804,040190024005015,6,10930,11,6th Av/District,27852
32.176551,7C5C36,-110.968097,FFFFFF,10804,040190024005002,7,10931,11,6th Av/President,27852
32.177697,7C5C36,-110.967809,FFFFFF,10804,040190024002013,8,10932,11,Ajo/6th Av,27852
32.177785,7C5C36,-110.962789,FFFFFF,10804,040190024004034,9,10933,11,Ajo/2rd Av,27852
32.17782,7C5C36,-110.959004,FFFFFF,10804,040190022011020,10,10934,11,Ajo/Thomas O Price Center,24870
32.177774,7C5C36,-110.95603,FFFFFF,10804,040190022011016,11,128,11,Ajo/Park Av,24870
32.177841,7C5C36,-110.951994,FFFFFF,10804,040190022011015,12,10935,11,Ajo/Benson Hwy,24870
32.177833,7C5C36,-110.949736,FFFFFF,10804,040190022011013,13,10936,11,Ajo/Bernard,24870
32.177784,7C5C36,-110.939097,FFFFFF,10804,040194105011013,14,10937,11,Ajo/Juvenile Center,57390
32.177801,7C5C36,-110.936458,FFFFFF,10804,040194105011013,15,10938,11,Ajo/P.C. Sheriffs Dept.,57390
32.177853,7C5C36,-110.931857,FFFFFF,10804,040194105011012,16,10939,11,Ajo/Forgeus,57390
32.177531,7C5C36,-110.926545,FFFFFF,10804,040194105011012,17,10893,11,Country Club/Ajo,57390
32.17689,7C5C36,-110.930741,FFFFFF,10804,040194105011012,18,18,11,UAMC/Kino Campus,57390
32.177853,7C5C36,-110.931857,FFFFFF,10804,040194105011012,19,10939,11,Ajo/Forgeus,57390
32.177877,7C5C36,-110.925807,FFFFFF,10804,040194105011011,20,10942,11,Ajo/Country Club,57390
32.177877,7C5C36,-110.922066,FFFFFF,10804,040194105011008,21,10943,11,Ajo/Randolph Av.,57390
32.178594,7C5C36,-110.917558,FFFFFF,10804,040190021001041,22,10960,11,Palo Verde/Ajo,34453
32.181892,7C5C36,-110.917677,FFFFFF,10804,040190021001040,23,10961,11,Palo Verde/Veterans,34453
32.185952,7C5C36,-110.917554,FFFFFF,10804,040190021001008,24,10962,11,Palo Verde/44th St,34453
32.200443,7C5C36,-110.909348,FFFFFF,10804,040190035012014,25,10969,11,Alvernon/29th St,16458
32.202915,7C5C36,-110.909425,FFFFFF,10804,040190035012010,26,292,11,Alvernon/27th St,16458
32.207339,7C5C36,-110.909478,FFFFFF,10804,040190035012003,27,139,11,Alvernon/22nd St,16458
32.211818,7C5C36,-110.909447,FFFFFF,10804,040190034004020,28,10972,11,Alvernon/Sta Barbara,66413
32.214604,7C5C36,-110.909475,FFFFFF,10804,040190034005043,29,10973,11,Alvernon/Hayne,66413
32.21818,7C5C36,-110.909445,FFFFFF,10804,040190034005036,30,10974,11,Alvernon/Whittier,66413
32.221808,7C5C36,-110.90947,FFFFFF,10804,040190034005006,31,120,11,Alvernon/Broadway,66413
32.226804,7C5C36,-110.909427,FFFFFF,10804,040190032006009,32,10977,11,Alvernon/Holmes,38661
32.229333,7C5C36,-110.909499,FFFFFF,10804,040190032004012,33,10978,11,Alvernon/5th St,38661
32.231549,7C5C36,-110.909519,FFFFFF,10804,040190032004012,34,10979,11,Alvernon/3rd St,38661
32.234588,7C5C36,-110.909535,FFFFFF,10804,040190032004004,35,10980,11,Alvernon/2nd St,38661
32.236463,7C5C36,-110.909537,FFFFFF,10804,040190031012016,36,10981,11,Alvernon/Speedway,27070
32.2401,7C5C36,-110.909579,FFFFFF,10804,040190031012004,37,10982,11,Alvernon/Fairmount,27070
32.243786,7C5C36,-110.909575,FFFFFF,10804,040190029013017,38,10983,11,Alvernon/Pima,29872
32.247259,7C5C36,-110.909634,FFFFFF,10804,040190029013002,39,10984,11,Alvernon/Seneca,29872
32.251315,7C5C36,-110.909612,FFFFFF,10804,040190029014004,40,121,11,Alvernon/Grant,29872
32.25451,7C5C36,-110.909662,FFFFFF,10804,040190029015005,41,10985,11,Alvernon/Flower,29872
32.258246,7C5C36,-110.909633,FFFFFF,10804,040190029053009,42,10986,11,Alvernon/Glenn,36324
32.261777,7C5C36,-110.909705,FFFFFF,10804,040190029054003,43,10987,11,Alvernon/Blacklidge,36324
32.265339,7C5C36,-110.909754,FFFFFF,10804,040190029051014,44,14926,11,Alvernon/Fort Lowell,36324
32.269081,7C5C36,-110.9098,FFFFFF,10804,040190028012000,45,14927,11,Alvernon/Kleindale,25128
32.273786,7C5C36,-110.913777,FFFFFF,10804,040190047103002,46,122,11,Dodge/River,25000
32.091881,00B1EB,-110.782619,FFFFFF,10805,040190040741018,1,15026,110X,Old Vail Rd Park & Ride,67452
32.100648,00B1EB,-110.800032,FFFFFF,10805,040190040741008,2,15944,110X,Old Vail Rd/Rita Rd,67452
32.221161,00B1EB,-110.976615,FFFFFF,10805,040190010001000,3,11455,110X,Congress/Granada,43542
32.223679,00B1EB,-110.968525,FFFFFF,10805,040190001001000,4,15933,110X,6th Av/Pennington,23125
32.207905,00569C,-110.92652,FFFFFF,10806,040190019002045,1,143,15,Country Club/22nd St,40919
32.211572,00569C,-110.927329,FFFFFF,10806,040190007001017,2,11859,15,Eastland/Country Club,45238
32.211555,00569C,-110.931168,FFFFFF,10806,040190007001016,3,11860,15,Eastland/Treat,45238
32.211532,00569C,-110.935496,FFFFFF,10806,040190007002013,4,11861,15,Eastland/Tucson,45238
32.211536,00569C,-110.939836,FFFFFF,10806,040190007002004,5,11862,15,Eastland/Plumer,45238
32.211518,00569C,-110.943632,FFFFFF,10806,040190007002004,6,11863,15,Campbell Av/Eastland,45238
32.214226,00569C,-110.944218,FFFFFF,10806,040190007002007,7,11864,15,Winsett/Campbell,45238
32.217828,00569C,-110.944038,FFFFFF,10806,040190007004022,8,11865,15,Kino Pw/14th St,45238
32.221593,00569C,-110.94367,FFFFFF,10806,040190007004004,9,144,15,Campbell Av/Broadway,45238
32.225442,00569C,-110.9437,FFFFFF,10806,040190006003017,10,11879,15,Campbell Av/8th St,39000
32.228179,00569C,-110.94371,FFFFFF,10806,040190006003005,11,11880,15,Campbell Av/6th St,39000
32.231702,00569C,-110.946885,FFFFFF,10806,040190005004010,12,100,15,UA Mall,
32.236753,00569C,-110.943748,FFFFFF,10806,040190006001022,13,11881,15,Campbell Av/Speedway,39000
32.240929,00569C,-110.943772,FFFFFF,10806,040190016002021,14,11882,15,Campbell Av/Adams,40900
32.243962,00569C,-110.943821,FFFFFF,10806,040190016002010,15,11883,15,Campbell Av/Lester,40900
32.246906,00569C,-110.943945,FFFFFF,10806,040190016003009,16,11884,15,Campbell Av/Seneca,40900
32.25164,00569C,-110.943865,FFFFFF,10806,040190016004011,17,14031,15,Campbell Av/Grant@Water,40900
32.254255,00569C,-110.943838,FFFFFF,10806,040190016005005,18,11886,15,Campbell Av/Copper,40900
32.258567,00569C,-110.943702,FFFFFF,10806,040190027022021,19,11887,15,Campbell Av/Glenn,40945
32.261483,00569C,-110.943688,FFFFFF,10806,040190027022012,20,11888,15,Campbell Av/Blacklidge,40945
32.264652,00569C,-110.943699,FFFFFF,10806,040190027022011,21,11889,15,Campbell Av/Ft Lowell,40945
32.268921,00569C,-110.943624,FFFFFF,10806,040190027023012,22,11890,15,Campbell Av/Kleindale,40945
32.270908,00569C,-110.943631,FFFFFF,10806,040190027023011,23,14496,15,Campbell Av/Greenlee Rd,40945
32.272572,00569C,-110.943717,FFFFFF,10806,040190027023001,24,148,15,Campbell Av/Prince,40945
32.276224,00569C,-110.9437,FFFFFF,10806,040190027023004,25,11891,15,Campbell Av/Allen,40945
32.279575,00569C,-110.944371,FFFFFF,10806,040190027011004,26,11892,15,Roger/Campbell,33734
32.279519,00569C,-110.947662,FFFFFF,10806,040190027011004,27,11893,15,Roger/Foothills MHP,33734
32.2795,00569C,-110.952941,FFFFFF,10806,040190045111000,28,11894,15,Roger/Mountain,21974
32.279456,00569C,-110.956974,FFFFFF,10806,040190045111004,29,14129,15,Roger/Park,21974
32.279426,00569C,-110.960869,FFFFFF,10806,040190045111004,30,11895,15,Roger/1st Av,21974
32.279421,00569C,-110.961328,FFFFFF,10806,040190045113008,31,14130,15,Roger/1st Av,21974
32.279268,00569C,-110.965544,FFFFFF,10806,040190045113007,32,11898,15,Roger/4th Av,21974
32.279203,00569C,-110.971532,FFFFFF,10806,040190045113006,33,11905,15,Roger/Stone,21974
32.281492,00569C,-110.969969,FFFFFF,10806,040190045113006,34,13741,15,Stone/C Arizona,21974
32.283138,00569C,-110.969464,FFFFFF,10806,040190045102002,35,11902,15,Stone/Limberlost,10829
32.288893,00569C,-110.968167,FFFFFF,10806,040190045101007,36,14235,15,Tohono Transit Center,10829
32.162093,00A3B4,-110.971217,FFFFFF,10807,040190038024000,1,14225,16,Laos Transit Center,22560
32.157678,00A3B4,-110.973286,FFFFFF,10807,040190038024003,2,12111,16,Liberty/Utah,22560
32.156172,00A3B4,-110.97328,FFFFFF,10807,040190038024003,3,14819,16,Liberty/Nebraska,22560
32.15622,00A3B4,-110.977435,FFFFFF,10807,040190038024003,4,12114,16,12th Av/Nebraska,22560
32.159331,00A3B4,-110.977426,FFFFFF,10807,040190038023012,5,12115,16,12th Av/Wyoming,22560
32.163596,00A3B4,-110.977352,FFFFFF,10807,040190038011016,6,12116,16,12th Av/Irvington,17059
32.167411,00A3B4,-110.977367,FFFFFF,10807,040190038011003,7,12117,16,12th Av/Ohio,17059
32.171686,00A3B4,-110.977409,FFFFFF,10807,040190038013011,8,12118,16,12th Av/Pennsylvania,17059
32.175293,00A3B4,-110.977426,FFFFFF,10807,040190038014005,9,12120,16,12th Av/Palmdale,17059
32.178039,00A3B4,-110.977427,FFFFFF,10807,040190024002006,10,331,16,12th Av/Ajo,27852
32.181637,00A3B4,-110.977439,FFFFFF,10807,040190024001011,11,12123,16,12th Av/Veterans,27852
32.185534,00A3B4,-110.975572,FFFFFF,10807,040190024004023,12,12124,16,10th Av/44th St,27852
32.187965,00A3B4,-110.974382,FFFFFF,10807,040190024004006,13,12125,16,10th Av/41st St,27852
32.192803,00A3B4,-110.974474,FFFFFF,10807,040190023005014,14,12127,16,10th Av/36th St,30208
32.196346,00A3B4,-110.974425,FFFFFF,10807,040190023005006,15,12128,16,10th Av/32nd St,30208
32.199811,00A3B4,-110.974531,FFFFFF,10807,040190023007010,16,156,16,10th Av/29th St,30208
32.20276,00A3B4,-110.97456,FFFFFF,10807,040190023007000,17,12129,16,10th Av/26th St,30208
32.205784,00A3B4,-110.974584,FFFFFF,10807,040190010002017,18,12130,16,10th Av/23rd St,43542
32.209145,00A3B4,-110.974576,FFFFFF,10807,040190009002016,19,14876,16,10th Av/20th St,27616
32.211012,00A3B4,-110.974632,FFFFFF,10807,040190009001046,20,12132,16,10th Av/19th St,27616
32.213282,00A3B4,-110.974248,FFFFFF,10807,040190010001026,21,12133,16,Main/17th St,43542
32.216808,00A3B4,-110.97415,FFFFFF,10807,040190010001022,22,13434,16,Cushing/Main,43542
32.219744,00A3B4,-110.972391,FFFFFF,10807,040190001002023,23,14797,16,Church/Ochoa,23125
32.222797,00A3B4,-110.968117,FFFFFF,10807,040190001001001,24,14200,16,Downtown Ronstadt Center,23125
32.225663,00A3B4,-110.970401,FFFFFF,10807,040190004003046,25,14761,16,Toole/7th Av,31328
32.231838,00A3B4,-110.9717,FFFFFF,10807,040190004003003,26,12140,16,Stone/University,31328
32.236188,00A3B4,-110.971696,FFFFFF,10807,040190004002009,27,11368,16,Stone/Speedway,31328
32.239528,00A3B4,-110.972204,FFFFFF,10807,040190013022052,28,12142,16,Drachman/Stone,12216
32.239513,00A3B4,-110.976268,FFFFFF,10807,040190013022038,29,12143,16,Drachman/11th Av,12216
32.241337,00A3B4,-110.977852,FFFFFF,10807,040190013022031,30,11409,16,Oracle/Lee,12216
32.244723,00A3B4,-110.977818,FFFFFF,10807,040190013022022,31,14843,16,Oracle/Plata,12216
32.248348,00A3B4,-110.977862,FFFFFF,10807,040190013021012,32,16156,16,Oracle/Rillito,12216
32.25147,00A3B4,-110.977858,FFFFFF,10807,040190013044008,33,157,16,Oracle/Grant,28452
32.254188,00A3B4,-110.977948,FFFFFF,10807,040190013044002,34,11413,16,Oracle/Jacinto,28452
32.257916,00A3B4,-110.977924,FFFFFF,10807,040190013041003,35,11414,16,Oracle/Glenn,28452
32.261514,00A3B4,-110.977954,FFFFFF,10807,040190026031007,36,12150,16,Oracle/Blacklidge,19979
32.265255,00A3B4,-110.977908,FFFFFF,10807,040190026042005,37,12151,16,Oracle/Ft Lowell,22018
32.270091,00A3B4,-110.977979,FFFFFF,10807,040190026042001,38,12152,16,Oracle/Yavapai,22018
32.272734,00A3B4,-110.977978,FFFFFF,10807,040190026041004,39,12153,16,Oracle/Prince,22018
32.275688,00A3B4,-110.978042,FFFFFF,10807,040190045112004,40,12154,16,Oracle/Pastime,21974
32.279394,00A3B4,-110.978026,FFFFFF,10807,040190045113004,41,12155,16,Oracle/Roger,21974
32.283155,00A3B4,-110.978053,FFFFFF,10807,040190045102008,42,12156,16,Oracle/Limberlost,10829
32.286382,00A3B4,-110.977745,FFFFFF,10807,040190045102008,43,12157,16,Wetmore/Oracle,10829
32.288536,00A3B4,-110.968438,FFFFFF,10807,040190045101007,44,14241,16,Tohono Transit Center,10829
32.29272,00A3B4,-110.970462,FFFFFF,10807,040190047102004,45,14494,16,Stone/River,25000
32.296431,00A3B4,-110.971752,FFFFFF,10807,040190047252018,46,11350,16,River/Stone,29921
32.297703,00A3B4,-110.978141,FFFFFF,10807,040190047252012,47,12159,16,Oracle/River,29921
32.304675,00A3B4,-110.978317,FFFFFF,10807,040190047251009,48,12162,16,Oracle/Cresta Loma,29921
32.313161,00A3B4,-110.977738,FFFFFF,10807,040190047251009,49,12164,16,Oracle/Las Lomitas,29921
32.316043,00A3B4,-110.976234,FFFFFF,10807,040190047251003,50,14366,16,Oracle/Rudasill,29921
32.323261,00A3B4,-110.974774,FFFFFF,10807,040190047145007,51,284,16,Oracle/Orange Grove,73661
32.330569,00A3B4,-110.976527,FFFFFF,10807,040190047145003,52,12169,16,Oracle/Casas Adobes Rd,73661
32.336828,00A3B4,-110.979391,FFFFFF,10807,040190046152000,53,14901,16,Via Ponte/Ina,96985
32.336696,00A3B4,-110.977684,FFFFFF,10807,040190046152000,54,165,16,Oracle/Ina,96985
32.205892,52BCC6,-110.789867,FFFFFF,10808,040190040221000,1,14540,17,Harrison/22nd St,67841
32.203496,52BCC6,-110.789786,FFFFFF,10808,040190040221002,2,14541,17,Harrison/Pikes Peak,67841
32.201147,52BCC6,-110.789787,FFFFFF,10808,040190040221010,3,14542,17,Harrison/Palm Tree,67841
32.198779,52BCC6,-110.78979,FFFFFF,10808,040190040224000,4,14145,17,Harrison/29th St,67841
32.195501,52BCC6,-110.78985,FFFFFF,10808,040190040224009,5,14137,17,Harrison/Thomas,67841
32.192908,52BCC6,-110.789843,FFFFFF,10808,040190040224012,6,51,17,Harrison/Golf Links,67841
32.191892,52BCC6,-110.790207,FFFFFF,10808,040190040224012,7,14523,17,Golf Links/Harrison,67841
32.191901,52BCC6,-110.793906,FFFFFF,10808,040190040224002,8,14621,17,Golf Links/Cathy,67841
32.191925,52BCC6,-110.79915,FFFFFF,10808,040190040222017,9,11803,17,Golf Links/Palm Springs,67841
32.191899,52BCC6,-110.804085,FFFFFF,10808,040190040223025,10,11804,17,Golf Links/Cmo Seco,67841
32.191988,52BCC6,-110.809424,FFFFFF,10808,040190040223007,11,11805,17,Golf Links/Pantano Pkwy,67841
32.192082,52BCC6,-110.813955,FFFFFF,10808,040190040111000,12,14606,17,Golf Links/Jaguar,54375
32.192001,52BCC6,-110.817636,FFFFFF,10808,040190040111000,13,11808,17,Golf Links/Saddleback,54375
32.192059,52BCC6,-110.820053,FFFFFF,10808,040190040111004,14,11809,17,Golf Links/Lakeside Pkwy,54375
32.192004,52BCC6,-110.824273,FFFFFF,10808,040190040115018,15,11810,17,Golf Links/Pantano Rd,54375
32.192032,52BCC6,-110.829122,FFFFFF,10808,040190040115017,16,11811,17,Golf Links/Marc Dr,54375
32.192036,52BCC6,-110.832653,FFFFFF,10808,040190040114018,17,11812,17,Golf Links/Prudence,54375
32.1921,52BCC6,-110.836455,FFFFFF,10808,040190040114012,18,11813,17,Golf Links/Cordova,54375
32.192065,52BCC6,-110.841498,FFFFFF,10808,040190040081007,19,11814,17,Golf Links/Kolb,43125
32.192097,52BCC6,-110.844738,FFFFFF,10808,040190040081008,20,11815,17,Golf Links/Golf Links Cir,43125
32.192067,52BCC6,-110.849463,FFFFFF,10808,040190040082016,21,11816,17,Golf Links/Av Regulo,43125
32.192072,52BCC6,-110.853398,FFFFFF,10808,040190040082008,22,11817,17,Golf Links/C Polar,43125
32.192685,52BCC6,-110.85775,FFFFFF,10808,040190040082008,23,14115,17,Wilmot/Golf Links,43125
32.196184,52BCC6,-110.857795,FFFFFF,10808,040190040083009,24,14116,17,Wilmot/C Marte,43125
32.19974,52BCC6,-110.858562,FFFFFF,10808,040190035041006,25,11820,17,29th St/Wilmot,46250
32.199746,52BCC6,-110.862167,FFFFFF,10808,040190035042013,26,11821,17,29th St/Alamo,46250
32.199732,52BCC6,-110.866028,FFFFFF,10808,040190035042011,27,11822,17,29th St/Sahuara,46250
32.199723,52BCC6,-110.871366,FFFFFF,10808,040190035031013,28,11823,17,29th St/Van Buren,25887
32.199744,52BCC6,-110.875426,FFFFFF,10808,040190035021009,29,14344,17,29th St/Craycroft,22500
32.199788,52BCC6,-110.879745,FFFFFF,10808,040190035015018,30,11824,17,29th St/Beverly,16458
32.199804,52BCC6,-110.884232,FFFFFF,10808,040190035015013,31,11825,17,29th St/Rosemont,16458
32.199808,52BCC6,-110.887874,FFFFFF,10808,040190035015013,32,11826,17,29th St/4929 E 29th St,16458
32.199817,52BCC6,-110.892759,FFFFFF,10808,040190035016011,33,11827,17,29th St/Swan,16458
32.199852,52BCC6,-110.896555,FFFFFF,10808,040190035016011,34,11828,17,29th St/Belvedere,16458
32.199844,52BCC6,-110.900721,FFFFFF,10808,040190035016010,35,11829,17,29th St/Columbus,16458
32.199861,52BCC6,-110.905239,FFFFFF,10808,040190035012014,36,140,17,29th St/Irving,16458
32.19941,52BCC6,-110.910801,FFFFFF,10808,040190020002000,37,14739,17,32nd St/Winstel,32431
32.199391,52BCC6,-110.914192,FFFFFF,10808,040190020002002,38,11246,17,32nd St/Chrysler,32431
32.199759,52BCC6,-110.918377,FFFFFF,10808,040190020005000,39,11247,17,Silverlake/Palo Verde,32431
32.199682,52BCC6,-110.922556,FFFFFF,10808,040190020005008,40,11249,17,Silverlake/Randolph Way,32431
32.199908,52BCC6,-110.92661,FFFFFF,10808,040190020005009,41,11250,17,Country Club/Silverlake,32431
32.203006,52BCC6,-110.926589,FFFFFF,10808,040190020004005,42,11251,17,Country Club/27th St,32431
32.205914,52BCC6,-110.926675,FFFFFF,10808,040190020007003,43,11252,17,Country Club/23rd St,32431
32.207905,52BCC6,-110.92652,FFFFFF,10808,040190019002045,44,143,17,Country Club/22nd St,40919
32.211694,52BCC6,-110.926508,FFFFFF,10808,040190019002035,45,11255,17,Country Club/Eastland,40919
32.21366,52BCC6,-110.926541,FFFFFF,10808,040190019002035,46,11256,17,Country Club/17th St,40919
32.216833,52BCC6,-110.926497,FFFFFF,10808,040190019002021,47,11257,17,Country Club/Arroyo Chico,40919
32.221776,52BCC6,-110.926487,FFFFFF,10808,040190019003013,48,170,17,Country Club/Broadway,40919
32.225393,52BCC6,-110.926538,FFFFFF,10808,040190019004016,49,11843,17,Country Club/8th St,40919
32.228829,52BCC6,-110.926604,FFFFFF,10808,040190019001016,50,13868,17,Country Club/5th St,40919
32.232203,52BCC6,-110.926575,FFFFFF,10808,040190019001003,51,13869,17,Country Club/3rd St,40919
32.236343,52BCC6,-110.926677,FFFFFF,10808,040190018021004,52,13870,17,Country Club/Speedway,31223
32.240516,52BCC6,-110.926712,FFFFFF,10808,040190018023011,53,13871,17,Country Club/Adams,31223
32.243499,52BCC6,-110.926652,FFFFFF,10808,040190018012015,54,13872,17,Country Club/Pima,34865
32.247331,52BCC6,-110.926677,FFFFFF,10808,040190018015001,55,13873,17,Country Club/Seneca,34865
32.250691,52BCC6,-110.926768,FFFFFF,10808,040190018013002,56,171,17,Country Club/Grant,34865
32.253747,52BCC6,-110.926725,FFFFFF,10808,040190018013002,57,13874,17,Country Club/Flower,34865
32.258222,52BCC6,-110.926659,FFFFFF,10808,040190028021012,58,13875,17,Country Club/Glenn,33994
32.261542,52BCC6,-110.926692,FFFFFF,10808,040190028021004,59,13876,17,Country Club/Blacklidge,33994
32.265337,52BCC6,-110.926696,FFFFFF,10808,040190028011004,60,13877,17,Country Club/Ft Lowell,25128
32.268989,52BCC6,-110.926712,FFFFFF,10808,040190028011003,61,13878,17,Country Club/Kleindale,25128
32.272283,52BCC6,-110.927157,FFFFFF,10808,040190027021011,62,13879,17,Prince/Country Club,40945
32.272275,52BCC6,-110.930765,FFFFFF,10808,040190027021025,63,13880,17,Prince/Cactus,40945
32.272302,52BCC6,-110.935595,FFFFFF,10808,040190027023000,64,13881,17,Prince/Tucson,40945
32.27228,52BCC6,-110.939884,FFFFFF,10808,040190027023001,65,13882,17,Prince/Wilson,40945
32.272271,52BCC6,-110.944199,FFFFFF,10808,040190027012000,66,13883,17,Prince/Campbell,33734
32.272254,52BCC6,-110.948609,FFFFFF,10808,040190027012004,67,13884,17,Prince/Cherry,33734
32.272212,52BCC6,-110.953653,FFFFFF,10808,040190026021014,68,14993,17,Prince/Santa Rita,37031
32.272172,52BCC6,-110.957081,FFFFFF,10808,040190026021018,69,13886,17,Prince/Park,37031
32.272165,52BCC6,-110.961605,FFFFFF,10808,040190026022001,70,177,17,Prince/1st Av,37031
32.272163,52BCC6,-110.966216,FFFFFF,10808,040190026041000,71,14444,17,Prince/Geronimo,22018
32.272107,52BCC6,-110.972576,FFFFFF,10808,040190026041004,72,12086,17,Prince/Stone,22018
32.272013,52BCC6,-110.975602,FFFFFF,10808,040190026041004,73,13890,17,Prince/226 W Prince,22018
32.272096,52BCC6,-110.978453,FFFFFF,10808,040190026041005,74,334,17,Prince/Oracle,22018
32.272075,52BCC6,-110.983497,FFFFFF,10808,040190026041005,75,14999,17,Prince/680 W Prince,22018
32.272128,52BCC6,-110.987121,FFFFFF,10808,040190045051019,76,13894,17,Prince/Fairview,33438
32.272164,52BCC6,-110.991382,FFFFFF,10808,040190045051016,77,13895,17,Prince/1120 W Prince,33438
32.272184,52BCC6,-110.993025,FFFFFF,10808,040190045051016,78,13896,17,Prince/Flowing Wells,33438
32.272264,52BCC6,-110.995691,FFFFFF,10808,040190045052001,79,12087,17,Prince/Flowing Wells,33438
32.272284,52BCC6,-110.99912,FFFFFF,10808,040190045052001,80,14880,17,Prince/Pomona,33438
32.273221,52BCC6,-111.003397,FFFFFF,10808,040190045041030,81,13900,17,Romero/Prince,17103
32.27648,52BCC6,-111.003342,FFFFFF,10808,040190045041012,82,15949,17,Romero/Smoot,17103
32.279893,52BCC6,-111.003335,FFFFFF,10808,040190045132013,83,11430,17,Romero/Roger,22466
32.283131,52BCC6,-111.00335,FFFFFF,10808,040190045132019,84,11431,17,Romero/Carefree Village,22466
32.286945,52BCC6,-111.003877,FFFFFF,10808,040190045123006,85,14486,17,Wetmore/Romero,37407
32.286925,52BCC6,-111.006138,FFFFFF,10808,040190045123006,86,14751,17,Wetmore/Record Pl,37407
32.287442,52BCC6,-111.011898,FFFFFF,10808,040190045123011,87,14620,17,La Cholla/Wetmore,37407
32.291852,52BCC6,-111.011922,FFFFFF,10808,040190045121005,88,14820,17,La Cholla/Brittain,37407
32.294484,52BCC6,-111.012363,FFFFFF,10808,040190045063010,89,11964,17,Ruthrauff/La Cholla,30882
32.294412,52BCC6,-111.016072,FFFFFF,10808,040190045063011,90,13909,17,Ruthrauff/Sullinger,30882
32.294373,52BCC6,-111.019669,FFFFFF,10808,040190045063013,91,13910,17,Ruthrauff/Kain,30882
32.296684,52BCC6,-111.020524,FFFFFF,10808,040190045063014,92,13911,17,Kain/C Comodo,30882
32.299473,52BCC6,-111.020466,FFFFFF,10808,040190045063005,93,13912,17,Kain/Kimberly Pl,30882
32.301499,52BCC6,-111.02302,FFFFFF,10808,040190045061000,94,13913,17,Curtis/Plane,30882
32.300806,52BCC6,-111.026923,FFFFFF,10808,040190045061020,95,174,17,Davis/Fire Station,30882
32.298091,52BCC6,-111.026998,FFFFFF,10808,040190045061020,96,13915,17,Davis/Diamond,30882
32.294822,52BCC6,-111.027099,FFFFFF,10808,040190045061029,97,15952,17,Davis/Ruthrauff,30882
32.222409,00C200,-110.9681,FFFFFF,10809,040190001001001,1,14206,19,Downtown Ronstadt Center,23125
32.225663,00C200,-110.970401,FFFFFF,10809,040190004003046,2,14761,19,Toole/7th Av,31328
32.231838,00C200,-110.9717,FFFFFF,10809,040190004003003,3,12140,19,Stone/University,31328
32.236188,00C200,-110.971696,FFFFFF,10809,040190004002009,4,11368,19,Stone/Speedway,31328
32.239777,00C200,-110.971671,FFFFFF,10809,040190013022047,5,13730,19,Stone/Drachman,12216
32.244237,00C200,-110.971773,FFFFFF,10809,040190013022014,6,14962,19,Stone/Lester,12216
32.247796,00C200,-110.971745,FFFFFF,10809,040190013022003,7,13732,19,Stone/Flores,12216
32.250716,00C200,-110.97186,FFFFFF,10809,040190013043005,8,14179,19,Stone/Grant,28452
32.253879,00C200,-110.971793,FFFFFF,10809,040190013043003,9,13733,19,Stone/Jacinto,28452
32.257935,00C200,-110.971832,FFFFFF,10809,040190013042004,10,11499,19,Stone/Glenn,28452
32.261766,00C200,-110.971862,FFFFFF,10809,040190026031011,11,13735,19,Stone/Blacklidge,19979
32.266067,00C200,-110.971896,FFFFFF,10809,040190026042006,12,13736,19,Stone/Navajo,22018
32.269295,00C200,-110.971917,FFFFFF,10809,040190026042004,13,13737,19,Stone/Yavapai,22018
32.272488,00C200,-110.971952,FFFFFF,10809,040190026041000,14,12095,19,Stone/Prince,22018
32.27605,00C200,-110.971988,FFFFFF,10809,040190045112007,15,13739,19,Stone/Pastime,21974
32.278846,00C200,-110.972023,FFFFFF,10809,040190045112002,16,11500,19,Stone/Roger,21974
32.281492,00C200,-110.969969,FFFFFF,10809,040190045113006,17,13741,19,Stone/C Arizona,21974
32.284801,00C200,-110.969504,FFFFFF,10809,040190045102002,18,14925,19,Stone/Dorothy,10829
32.288566,00C200,-110.968051,FFFFFF,10809,040190045101007,19,14240,19,Tohono Transit Center,10829
32.162436,C4A4A5,-110.971383,FFFFFF,10810,040190038024000,1,14228,2,Laos Transit Center,22560
32.163151,C4A4A5,-110.967651,FFFFFF,10810,040190038021002,2,12633,2,Irvington/6th Av,22560
32.163163,C4A4A5,-110.964437,FFFFFF,10810,040190038021002,3,12634,2,Irvington/3rd Av,22560
32.163247,C4A4A5,-110.960682,FFFFFF,10810,040190037061001,4,12635,2,Irvington/1st Av,17656
32.163181,C4A4A5,-110.955774,FFFFFF,10810,040190037063002,5,12637,2,Irvington/Park Av,17656
32.163173,C4A4A5,-110.952577,FFFFFF,10810,040190037063000,6,12638,2,Irvington/Mountain,17656
32.163169,C4A4A5,-110.949967,FFFFFF,10810,040190037064006,7,12639,2,Irvington/Highland,17656
32.163153,C4A4A5,-110.947278,FFFFFF,10810,040190037064000,8,12640,2,Irvington/Cherry,17656
32.163211,C4A4A5,-110.942739,FFFFFF,10810,040190041101003,9,14435,2,Irvington/Campbell,60859
32.163179,C4A4A5,-110.9395,FFFFFF,10810,040190041101002,10,15929,2,Irvington/Greenway,60859
32.163152,C4A4A5,-110.935135,FFFFFF,10810,040190041101000,11,14694,2,Irvington/Benson Hwy,60859
32.163103,C4A4A5,-110.930156,FFFFFF,10810,040190041172021,12,14529,2,Irvington/Treat,37404
32.163787,C4A4A5,-110.926204,FFFFFF,10810,040190041171009,13,14530,2,Country Club/Irvington,37404
32.16644,C4A4A5,-110.926286,FFFFFF,10810,040190041171001,14,12689,2,Country Club/Missouri,37404
32.170092,C4A4A5,-110.926323,FFFFFF,10810,040194105011045,15,15009,2,Country Club/Michigan,57390
32.172766,C4A4A5,-110.928199,FFFFFF,10810,040194105011015,16,10941,2,Milber St/La Colina Health Care,57390
32.17689,C4A4A5,-110.930741,FFFFFF,10810,040194105011012,17,18,2,UAMC/Kino Campus,57390
32.178338,C4A4A5,-110.926271,FFFFFF,10810,040190021001031,18,10895,2,Country Club/Ajo,34453
32.181551,C4A4A5,-110.926388,FFFFFF,10810,040190021001028,19,14953,2,Country Club/46th St,34453
32.184504,C4A4A5,-110.926422,FFFFFF,10810,040190021001014,20,14954,2,Country Club/44th St,34453
32.187169,C4A4A5,-110.926437,FFFFFF,10810,040190021001014,21,14955,2,Country Club/Kaibab Vista,34453
32.189232,C4A4A5,-110.926416,FFFFFF,10810,040190021001014,22,10899,2,Country Club/Food Bank,34453
32.189563,C4A4A5,-110.929534,FFFFFF,10810,040190021001018,23,10901,2,Pinal Vista/Rickey Vista,34453
32.18808,C4A4A5,-110.930361,FFFFFF,10810,040190021001022,24,10902,2,Pinal Vista/Coconino Vista,34453
32.18786,C4A4A5,-110.932729,FFFFFF,10810,040190021004015,25,10903,2,Pinal Vista/Forgeus,34453
32.187323,C4A4A5,-110.934452,FFFFFF,10810,040190021004012,26,10904,2,Pinal Vista/Sunland Vista,34453
32.186496,C4A4A5,-110.936721,FFFFFF,10810,040190021005006,27,10905,2,Hidalgo Vista/Pinal Vista,34453
32.184914,C4A4A5,-110.937807,FFFFFF,10810,040190021005016,28,10906,2,Hidalgo Vista/Lloyd Vista,34453
32.183614,C4A4A5,-110.939686,FFFFFF,10810,040190021005014,29,10907,2,Hidalgo Vista/Naco Vista,34453
32.182128,C4A4A5,-110.94304,FFFFFF,10810,040190021005014,30,10908,2,Hidalgo Vista/Campbell,34453
32.183828,C4A4A5,-110.943439,FFFFFF,10810,040190021005013,31,10909,2,Campbell Av/Fayette Vista,34453
32.18538,C4A4A5,-110.943444,FFFFFF,10810,040190021005010,32,10910,2,Campbell Av/Duvall Vista,34453
32.187787,C4A4A5,-110.94344,FFFFFF,10810,040190021005004,33,10911,2,Campbell Av/Cochise Vista,34453
32.192469,C4A4A5,-110.943704,FFFFFF,10810,040190022021056,34,14053,2,36th St/Campbell,26099
32.193483,C4A4A5,-110.948757,FFFFFF,10810,040190022021032,35,14014,2,Quincie Douglas Center,26099
32.192285,C4A4A5,-110.942981,FFFFFF,10810,040190021005000,36,10912,2,36th St/Campbell,34453
32.192355,C4A4A5,-110.938962,FFFFFF,10810,040190021004005,37,10913,2,36th St/Plumer,34453
32.192682,C4A4A5,-110.935772,FFFFFF,10810,040190021004003,38,14,2,Forgeus/36th St,34453
32.195689,C4A4A5,-110.935547,FFFFFF,10810,040190021003002,39,16159,2,Menor Stv/Tucson Av,34453
32.196281,C4A4A5,-110.938802,FFFFFF,10810,040190021002004,40,14379,2,33rd St/Plumer,34453
32.197421,C4A4A5,-110.940471,FFFFFF,10810,040190021002002,41,10870,2,31st St/Amalia,34453
32.19757,C4A4A5,-110.943106,FFFFFF,10810,040190021002007,42,10918,2,31st St/Campbell,34453
32.199743,C4A4A5,-110.943545,FFFFFF,10810,040190022021045,43,10919,2,Campbell Av/Barleycorn,26099
32.201056,C4A4A5,-110.944224,FFFFFF,10810,040190022021038,44,16117,2,Silverlake/Cherrybell,26099
32.200165,C4A4A5,-110.949352,FFFFFF,10810,040190022021003,45,14913,2,Kino Pw/Silverlake,26099
32.206979,C4A4A5,-110.953389,FFFFFF,10810,040190008001063,46,10922,2,22nd St/Santa Rita,34698
32.207152,C4A4A5,-110.956123,FFFFFF,10810,040190008001062,47,14864,2,Park/22nd St,34698
32.211181,C4A4A5,-110.956162,FFFFFF,10810,040190008001019,48,14370,2,Park/19th St,34698
32.219387,C4A4A5,-110.959293,FFFFFF,10810,040190008002031,49,14726,2,Euclid/12th St,34698
32.22152,C4A4A5,-110.959897,FFFFFF,10810,040190008002022,50,10925,2,Broadway/Euclid,34698
32.22301,C4A4A5,-110.967904,FFFFFF,10810,040190001001001,51,14210,2,Downtown Ronstadt Center,23125
32.231702,994F99,-110.946885,FFFFFF,10811,040190005004010,1,100,20,UA Mall,
32.236753,994F99,-110.943748,FFFFFF,10811,040190006001022,2,11881,20,Campbell Av/Speedway,39000
32.240929,994F99,-110.943772,FFFFFF,10811,040190016002021,3,11882,20,Campbell Av/Adams,40900
32.243962,994F99,-110.943821,FFFFFF,10811,040190016002010,4,11883,20,Campbell Av/Lester,40900
32.250062,994F99,-110.945208,FFFFFF,10811,040190016004017,5,14320,20,Grant/Campbell@Martin,40900
32.249986,994F99,-110.948518,FFFFFF,10811,040190015003005,6,11970,20,Grant/Cherry,12857
32.25003,994F99,-110.952816,FFFFFF,10811,040190015003013,7,11971,20,Grant/Mountain,12857
32.249934,994F99,-110.957137,FFFFFF,10811,040190014001009,8,11972,20,Grant/Park,37188
32.25047,994F99,-110.96144,FFFFFF,10811,040190014005004,9,11973,20,Grant/1st Av,37188
32.250525,994F99,-110.963776,FFFFFF,10811,040190014005005,10,11974,20,Grant/Los Altos,37188
32.25042,994F99,-110.968105,FFFFFF,10811,040190013043006,11,11975,20,Grant/Fontana,28452
32.250405,994F99,-110.972353,FFFFFF,10811,040190013044006,12,12391,20,Grant/Stone,28452
32.250427,994F99,-110.974861,FFFFFF,10811,040190013044007,13,12392,20,Grant/10th Av,28452
32.250401,994F99,-110.978766,FFFFFF,10811,040190013033008,14,184,20,Grant/Oracle,28942
32.25041,994F99,-110.982861,FFFFFF,10811,040190013033010,15,12393,20,Grant/15th Av,28942
32.250407,994F99,-110.986829,FFFFFF,10811,040190045044008,16,12394,20,Grant/Fairview,17103
32.250483,994F99,-110.995287,FFFFFF,10811,040190045044012,17,12395,20,Grant/Forbes,17103
32.25057,994F99,-110.998776,FFFFFF,10811,040190045044032,18,14794,20,Grant/IHOP (1500 W Grant),17103
32.25063,994F99,-111.001952,FFFFFF,10811,040190045044027,19,12397,20,Grant/Huachuca,17103
32.250661,994F99,-111.005333,FFFFFF,10811,040190045044028,20,12398,20,Grant/Coyote Dr,17103
32.250726,994F99,-111.008407,FFFFFF,10811,040190045044020,21,12399,20,Grant/Jordan,17103
32.250814,994F99,-111.012287,FFFFFF,10811,040190045044019,22,14588,20,Grant/Silverbell,17103
32.250789,994F99,-111.0184,FFFFFF,10811,040190044122017,23,14590,20,Ironwood Hill Dr/Palo Santo,63167
32.251137,994F99,-111.022109,FFFFFF,10811,040190044122000,24,14505,20,Ironwood Hill Dr/Sterling Villa,63167
32.192619,BE5F5C,-110.789644,FFFFFF,10812,040190040262020,1,35,201X,Harrison/Golf Links,68324
32.196804,BE5F5C,-110.789739,FFFFFF,10812,040190040224009,2,14698,201X,Harrison/Harrison Circle,67841
32.198841,BE5F5C,-110.789704,FFFFFF,10812,040190040262005,3,12294,201X,Harrison/29th St,68324
32.201682,BE5F5C,-110.789712,FFFFFF,10812,040190040261005,4,14531,201X,Harrison/Palm Tree,68324
32.204888,BE5F5C,-110.7897,FFFFFF,10812,040190040261004,5,14839,201X,Harrison/Topout Peak,68324
32.206557,BE5F5C,-110.789654,FFFFFF,10812,040190040431019,6,14136,201X,Harrison/22nd St,75347
32.221156,BE5F5C,-110.789623,FFFFFF,10812,040190040422008,7,14550,201X,Harrison/Broadway,58825
32.225211,BE5F5C,-110.789704,FFFFFF,10812,040190040422007,8,14551,201X,Harrison/Harrison Park Apts,58825
32.228449,BE5F5C,-110.789686,FFFFFF,10812,040190040421021,9,14552,201X,Harrison/5th St,58825
32.232146,BE5F5C,-110.789696,FFFFFF,10812,040190040421013,10,14138,201X,Harrison/Rosewood,58825
32.235513,BE5F5C,-110.790077,FFFFFF,10812,040190040473000,11,16128,201X,Speedway/Harrison,94091
32.235551,BE5F5C,-110.79863,FFFFFF,10812,040190040472013,12,11067,201X,Speedway/Palms Park Dr.,94091
32.235635,BE5F5C,-110.807838,FFFFFF,10812,040190040462011,13,11070,201X,Speedway/Cam Seco,38698
32.235641,BE5F5C,-110.815599,FFFFFF,10812,040190040462009,14,11073,201X,Speedway/Woodridge Apts,38698
32.235646,BE5F5C,-110.820039,FFFFFF,10812,040190040322001,15,11075,201X,Speedway/Maguire,49125
32.235669,BE5F5C,-110.824278,FFFFFF,10812,040190040322020,16,11076,201X,Speedway/Pantano,49125
32.23568,BE5F5C,-110.827695,FFFFFF,10812,040190040322020,17,11077,201X,Speedway/Grady,49125
32.235729,BE5F5C,-110.83146,FFFFFF,10812,040190040322011,18,14386,201X,Speedway/Prudence,49125
32.235735,BE5F5C,-110.841758,FFFFFF,10812,040190040671001,19,11133,201X,Speedway/Kolb,33155
32.235736,BE5F5C,-110.855937,FFFFFF,10812,040190040671009,20,14760,201X,Speedway/El Dorado,33155
32.236087,BE5F5C,-110.858525,FFFFFF,10812,040190030023000,21,11138,201X,Speedway/Wilmot,40982
32.236321,BE5F5C,-110.871267,FFFFFF,10812,040190030022001,22,11141,201X,Speedway/Van Buren,40982
32.236285,BE5F5C,-110.875949,FFFFFF,10812,040190031024000,23,11142,201X,Speedway/Craycroft,31250
32.236309,BE5F5C,-110.893205,FFFFFF,10812,040190031011011,24,11146,201X,Speedway/Swan,27070
32.235714,BE5F5C,-110.909823,FFFFFF,10812,040190031013009,25,11610,201X,Alvernon/Speedway,27070
32.221323,BE5F5C,-110.90973,FFFFFF,10812,040190019002010,26,125,201X,Alvernon/Broadway,40919
32.206401,BE5F5C,-110.909716,FFFFFF,10812,040190020001000,27,136,201X,Alvernon/22nd St,32431
32.199651,BE5F5C,-110.909561,FFFFFF,10812,040190020002000,28,11018,201X,Alvernon/32nd St,32431
32.177547,BE5F5C,-110.917891,FFFFFF,10812,040194105011008,29,11030,201X,Palo Verde/Ajo,57390
32.138877,BE5F5C,-110.917816,FFFFFF,10812,040190041153017,30,14313,201X,Palo Verde/Hemisphere,44183
32.134276,BE5F5C,-110.927061,FFFFFF,10812,040190041221026,31,11043,201X,Valencia/Country Club,34886
32.114012,BE5F5C,-110.953484,FFFFFF,10812,040194105021047,32,14419,201X,Bombardier/Aeropark Blvd,63167
32.110931,BE5F5C,-110.956954,FFFFFF,10812,040194105021047,33,14903,201X,Aero Park Bl/Flight Safety,63167
32.101154,BE5F5C,-110.938407,FFFFFF,10812,040194105021047,34,321,201X,Raytheon/C Gate,63167
32.104331,BE5F5C,-110.938545,FFFFFF,10812,040194105021050,35,322,201X,Raytheon/Building 830,63167
32.105239,BE5F5C,-110.941273,FFFFFF,10812,040194105021047,36,295,201X,Raytheon/Center,63167
32.105267,BE5F5C,-110.945805,FFFFFF,10812,040194105021047,37,324,201X,Raytheon/Building 840,63167
32.105249,BE5F5C,-110.953831,FFFFFF,10812,040194105021047,38,325,201X,Raytheon/Building 847,63167
32.29467,00AB67,-111.011977,FFFFFF,10813,040190045122005,1,11946,202X,La Cholla/Ruthrauff,37407
32.308938,00AB67,-111.012055,FFFFFF,10813,040190046161004,2,11947,202X,La Cholla/Sunset,50294
32.316004,00AB67,-111.012113,FFFFFF,10813,040190046161009,3,14799,202X,La Cholla/Rudasill,50294
32.323706,00AB67,-111.012209,FFFFFF,10813,040190046281008,4,11948,202X,La Cholla/Orange Grove,59408
32.337373,00AB67,-111.01313,FFFFFF,10813,040190046262000,5,271,202X,Ina/La Cholla,48831
32.33741,00AB67,-111.018246,FFFFFF,10813,040190046262000,6,11359,202X,Ina/2300 W Ina Road WB,48831
32.337424,00AB67,-111.022462,FFFFFF,10813,040190046261003,7,12183,202X,Ina/Crystal Cave,48831
32.337429,00AB67,-111.024995,FFFFFF,10813,040190046261003,8,11951,202X,Ina/Shama Wing,48831
32.337535,00AB67,-111.030203,FFFFFF,10813,040190046252006,9,11362,202X,Ina/Shannon,43936
32.337523,00AB67,-111.034777,FFFFFF,10813,040190046252006,10,14365,202X,Ina/3220 W Ina Road WB,43936
32.337551,00AB67,-111.038393,FFFFFF,10813,040190046252001,11,11364,202X,Ina/Cmo De La Tierra,43936
32.337666,00AB67,-111.044009,FFFFFF,10813,040190046243028,12,11365,202X,Ina/Meredith,57372
32.337672,00AB67,-111.055179,FFFFFF,10813,040190046472012,13,281,202X,Ina/Oldfather,65481
32.337687,00AB67,-111.06041,FFFFFF,10813,040190046472015,14,273,202X,Ina/Cmo De La Cruz,65481
32.163157,00AB67,-110.9712,FFFFFF,10813,040190038024000,15,14294,202X,Irvington/Laos Transit Center,22560
32.114012,00AB67,-110.953484,FFFFFF,10813,040194105021047,16,14419,202X,Bombardier/Aeropark Blvd,63167
32.110931,00AB67,-110.956954,FFFFFF,10813,040194105021047,17,14903,202X,Aero Park Bl/Flight Safety,63167
32.101154,00AB67,-110.938407,FFFFFF,10813,040194105021047,18,321,202X,Raytheon/C Gate,63167
32.104331,00AB67,-110.938545,FFFFFF,10813,040194105021050,19,322,202X,Raytheon/Building 830,63167
32.105239,00AB67,-110.941273,FFFFFF,10813,040194105021047,20,295,202X,Raytheon/Center,63167
32.105267,00AB67,-110.945805,FFFFFF,10813,040194105021047,21,324,202X,Raytheon/Building 840,63167
32.105249,00AB67,-110.953831,FFFFFF,10813,040194105021047,22,325,202X,Raytheon/Building 847,63167
32.101154,92278F,-110.938407,FFFFFF,10814,040194105021047,1,321,203X,Raytheon/C Gate,63167
32.104331,92278F,-110.938545,FFFFFF,10814,040194105021050,2,322,203X,Raytheon/Building 830,63167
32.105239,92278F,-110.941273,FFFFFF,10814,040194105021047,3,295,203X,Raytheon/Center,63167
32.105267,92278F,-110.945805,FFFFFF,10814,040194105021047,4,324,203X,Raytheon/Building 840,63167
32.105249,92278F,-110.953831,FFFFFF,10814,040194105021047,5,325,203X,Raytheon/Building 847,63167
32.114012,92278F,-110.953484,FFFFFF,10814,040194105021047,6,14419,203X,Bombardier/Aeropark Blvd,63167
32.110931,92278F,-110.956954,FFFFFF,10814,040194105021047,7,14903,203X,Aero Park Bl/Flight Safety,63167
32.163297,92278F,-110.972043,FFFFFF,10814,040190038011014,8,14293,203X,Irvington/9th Av,17059
32.352251,92278F,-110.995567,FFFFFF,10814,040190046222008,9,14988,203X,La Canada/Magee,95577
32.366774,92278F,-110.99564,FFFFFF,10814,040190046202014,10,16123,203X,La Canada/Hardy Rd,33750
32.39523,92278F,-110.994861,FFFFFF,10814,040190046331016,11,15016,203X,Lambert/LaCanada,79266
32.398083,92278F,-110.977876,FFFFFF,10814,040190046331004,12,15939,203X,Lambert/Riverfront Park,79266
32.441468,92278F,-110.938846,FFFFFF,10814,040190046432045,13,15925,203X,Rancho Vistoso/Pusch Mountain View,48059
32.223312,CE1957,-110.968239,FFFFFF,10815,040190001001001,1,129,21,Downtown Ronstadt Center,23125
32.224426,CE1957,-110.970948,FFFFFF,10815,040190001002000,2,10858,21,Alameda/Stone,23125
32.223427,CE1957,-110.97419,FFFFFF,10815,040190003002053,3,11172,21,Alameda/Court Av,16111
32.22144,CE1957,-110.97673,FFFFFF,10815,040190002001022,4,11464,21,Congress/Granada,34006
32.220875,CE1957,-110.981172,FFFFFF,10815,040190002001005,5,12473,21,Congress/I-10,34006
32.220623,CE1957,-110.983097,FFFFFF,10815,040190002001013,6,12467,21,Congress/Bonita,34006
32.220423,CE1957,-110.985327,FFFFFF,10815,040190002001014,7,12466,21,Congress/Av del Convento,34006
32.220083,CE1957,-110.988842,FFFFFF,10815,040190002003009,8,132,21,Congress/Grande,34006
32.220156,CE1957,-110.992247,FFFFFF,10815,040190002003007,9,12429,21,Westmoreland/Congress,34006
32.222205,CE1957,-110.992481,FFFFFF,10815,040190002003002,10,12430,21,Westmoreland/Alameda,34006
32.224173,CE1957,-110.992717,FFFFFF,10815,040190002002005,11,12431,21,Westmoreland/Fresno,34006
32.224367,CE1957,-110.994396,FFFFFF,10815,040190002002011,12,14198,21,Fresno/Cuesta,34006
32.22498,CE1957,-110.996687,FFFFFF,10815,040190002002010,13,12433,21,Silverbell/Sonoran Palms Apts,34006
32.228205,CE1957,-110.99863,FFFFFF,10815,040190002002007,14,12434,21,Silverbell/St Mary's,34006
32.229492,CE1957,-110.999226,FFFFFF,10815,040190011002009,15,12586,21,Silverbell/St Mary's,27250
32.230903,CE1957,-111.000983,FFFFFF,10815,040190011002009,16,11718,21,Silverbell/San Jose,27250
32.233828,CE1957,-111.002886,FFFFFF,10815,040190011002009,17,12588,21,Silverbell/Riley Circle,27250
32.236012,CE1957,-111.004274,FFFFFF,10815,040190012002014,18,14506,21,Silverbell/Speedway,28450
32.238692,CE1957,-111.005573,FFFFFF,10815,040190012002014,19,14507,21,Silverbell/Albertson,28450
32.241074,CE1957,-111.007099,FFFFFF,10815,040190012002006,20,14508,21,Silverbell/C Campana de Plata,28450
32.244054,CE1957,-111.008935,FFFFFF,10815,040190012002000,21,12489,21,Silverbell/Lester,28450
32.245831,CE1957,-111.010093,FFFFFF,10815,040190012002000,22,12490,21,Silverbell/Riverview,28450
32.248065,CE1957,-111.01181,FFFFFF,10815,040190012002000,23,12491,21,Silverbell/Tanglewood,28450
32.251144,CE1957,-111.01364,FFFFFF,10815,040190045044019,24,14808,21,Silverbell/Grant,17103
32.255478,CE1957,-111.016362,FFFFFF,10815,040190045044019,25,14810,21,Silverbell/Frostwood Pl,17103
32.2599,CE1957,-111.018914,FFFFFF,10815,040190044122000,26,14811,21,Silverbell/Silver Arrow Dr,63167
32.263556,CE1957,-111.018848,FFFFFF,10815,040190045044019,27,15003,21,Goret/Dales Crossing,17103
32.223354,59A36C,-110.968252,FFFFFF,10816,040190001001001,1,14216,22,Downtown Ronstadt Center,23125
32.224426,59A36C,-110.970948,FFFFFF,10816,040190001002000,2,10858,22,Alameda/Stone,23125
32.223427,59A36C,-110.97419,FFFFFF,10816,040190003002053,3,11172,22,Alameda/Court Av,16111
32.22144,59A36C,-110.97673,FFFFFF,10816,040190002001022,4,11464,22,Congress/Granada,34006
32.220875,59A36C,-110.981172,FFFFFF,10816,040190002001005,5,12473,22,Congress/I-10,34006
32.220623,59A36C,-110.983097,FFFFFF,10816,040190002001013,6,12467,22,Congress/Bonita,34006
32.220423,59A36C,-110.985327,FFFFFF,10816,040190002001014,7,12466,22,Congress/Av del Convento,34006
32.222419,59A36C,-110.988703,FFFFFF,10816,040190002001016,8,12477,22,Grande/Alameda,34006
32.226654,59A36C,-110.989138,FFFFFF,10816,040190002001008,9,12478,22,Grande/Emery,34006
32.230013,59A36C,-110.989525,FFFFFF,10816,040190011001024,10,12437,22,Grande/St Mary's,27250
32.233173,59A36C,-110.98983,FFFFFF,10816,040190011001008,11,12438,22,Grande/Huron St,27250
32.235709,59A36C,-110.990545,FFFFFF,10816,040190012001010,12,226,22,Speedway/Grande,28450
32.236142,59A36C,-110.994066,FFFFFF,10816,040190012001014,13,189,22,Riverview/Speedway,28450
32.238807,59A36C,-110.993148,FFFFFF,10816,040190012001014,14,12482,22,Riverview/Hualpai Rd.,28450
32.239962,59A36C,-110.992398,FFFFFF,10816,040190012002016,15,12483,22,El Rio Dr/Riverview,28450
32.242914,59A36C,-110.994263,FFFFFF,10816,040190012002015,16,12458,22,El Rio Dr/Navajo,28450
32.243931,59A36C,-110.997054,FFFFFF,10816,040190012002013,17,12485,22,El Rio Dr/Mohave,28450
32.243471,59A36C,-110.999362,FFFFFF,10816,040190012002011,18,12486,22,El Rio Dr/Aztec,28450
32.243828,59A36C,-111.002446,FFFFFF,10816,040190012002008,19,12487,22,Lester/Huachuca,28450
32.244156,59A36C,-111.003878,FFFFFF,10816,040190012002000,20,12488,22,Lester/Chiricahua,28450
32.244054,59A36C,-111.008935,FFFFFF,10816,040190012002000,21,12489,22,Silverbell/Lester,28450
32.245831,59A36C,-111.010093,FFFFFF,10816,040190012002000,22,12490,22,Silverbell/Riverview,28450
32.248065,59A36C,-111.01181,FFFFFF,10816,040190012002000,23,12491,22,Silverbell/Tanglewood,28450
32.250537,59A36C,-111.01291,FFFFFF,10816,040190012002000,24,186,22,Grant/Silverbell,28450
32.16291,00569C,-110.971239,FFFFFF,10817,040190038024000,1,14218,23,Laos Transit Center,22560
32.157678,00569C,-110.973286,FFFFFF,10817,040190038024003,2,12111,23,Liberty/Utah,22560
32.156172,00569C,-110.97328,FFFFFF,10817,040190038024003,3,14819,23,Liberty/Nebraska,22560
32.15622,00569C,-110.977435,FFFFFF,10817,040190038024003,4,12114,23,12th Av/Nebraska,22560
32.163352,00569C,-110.97929,FFFFFF,10817,040190025012016,5,11976,23,Irvington/13th Av,20234
32.163288,00569C,-110.980864,FFFFFF,10817,040190025012011,6,11977,23,Irvington/15th Av,20234
32.163283,00569C,-110.9903,FFFFFF,10817,040190025013009,7,14737,23,Irvington/C Santa Cruz,20234
32.163223,00569C,-110.995642,FFFFFF,10817,040190025052001,8,12715,23,Irvington/Rio Seco Apts,63259
32.160279,00569C,-111.001811,FFFFFF,10817,040190025052001,9,14718,23,Irvington/Midvale Park,63259
32.163545,00569C,-111.006412,FFFFFF,10817,040190025043042,10,11994,23,Mission/Irvington Pl,20043
32.166773,00569C,-111.006062,FFFFFF,10817,040190025043042,11,15935,23,Mission/Mission Pl,20043
32.169769,00569C,-111.004709,FFFFFF,10817,040190025042005,12,11995,23,Mission/Via Ingresso,20043
32.178262,00569C,-111.003154,FFFFFF,10817,040190025031000,13,195,23,Mission/Ajo,37404
32.181698,00569C,-111.00311,FFFFFF,10817,040190025031000,14,11996,23,Mission/Veterans,37404
32.184393,00569C,-111.002895,FFFFFF,10817,040190025031000,15,11997,23,Mission/C La Paz,37404
32.189005,00569C,-110.999646,FFFFFF,10817,040190025031000,16,11999,23,Mission/2800 Block,37404
32.192368,00569C,-110.999847,FFFFFF,10817,040190044071033,17,12000,23,36th St/Mission,43465
32.192376,00569C,-111.003834,FFFFFF,10817,040190044071032,18,12001,23,36th St/Lands End,43465
32.192379,00569C,-111.007117,FFFFFF,10817,040190044071031,19,12002,23,36th St/Enchanted Hills,43465
32.19231,00569C,-111.011183,FFFFFF,10817,040190044071025,20,16045,23,36th St/La Cholla,43465
32.199129,00569C,-111.011607,FFFFFF,10817,040190044071025,21,12004,23,La Cholla/San Juan,43465
32.201507,00569C,-111.011702,FFFFFF,10817,040190044071009,22,12005,23,La Cholla/A Mountain Ctr,43465
32.203073,00569C,-111.011308,FFFFFF,10817,040190044071009,23,196,23,San Marcos/La Cholla,43465
32.203057,00569C,-111.007344,FFFFFF,10817,040190044071009,24,12006,23,San Marcos/Cmo Santiago,43465
32.203043,00569C,-111.005015,FFFFFF,10817,040190044071011,25,12007,23,San Marcos/Cmo del Sierra,43465
32.203075,00569C,-111.002989,FFFFFF,10817,040190044071013,26,12008,23,San Marcos/San Jacinto,43465
32.202913,00569C,-110.995979,FFFFFF,10817,040190044071017,27,12010,23,San Marcos/Mission,43465
32.199313,00569C,-110.99567,FFFFFF,10817,040190025031000,28,14633,23,Silverlake/Mission,37404
32.199405,00569C,-110.993436,FFFFFF,10817,040190025032002,29,12011,23,Silverlake/Silverlake Estates,37404
32.199427,00569C,-110.99007,FFFFFF,10817,040190025032001,30,12012,23,Silverlake/Cottonwood,37404
32.199455,00569C,-110.986051,FFFFFF,10817,040190025011014,31,12013,23,Silverlake/Santa Cruz,20234
32.199368,00569C,-110.980127,FFFFFF,10817,040190025011014,32,12014,23,Silverlake/I-10 Interstate,20234
32.199445,00569C,-110.976253,FFFFFF,10817,040190023005000,33,12015,23,29th St/11th Av,30208
32.199485,00569C,-110.97428,FFFFFF,10817,040190023007011,34,12016,23,29th St/10th Av,30208
32.199516,00569C,-110.971244,FFFFFF,10817,040190023001012,35,12017,23,29th St/8th Av,30208
32.199513,00569C,-110.968255,FFFFFF,10817,040190023003009,36,197,23,29th St/6th Av,30208
32.200256,00569C,-110.965372,FFFFFF,10817,040190023006009,37,12018,23,4th Av/28th St,30208
32.202973,00569C,-110.965367,FFFFFF,10817,040190023006002,38,12019,23,4th Av/26th St,30208
32.205376,00569C,-110.965335,FFFFFF,10817,040190008001078,39,12020,23,4th Av/24th St,34698
32.207278,00569C,-110.965335,FFFFFF,10817,040190008001069,40,12021,23,4th Av/22nd St,34698
32.209701,00569C,-110.965427,FFFFFF,10817,040190008001054,41,12022,23,4th Av/20th St,34698
32.21357,00569C,-110.965452,FFFFFF,10817,040190008002062,42,12023,23,4th Av/17th St,34698
32.21651,00569C,-110.965475,FFFFFF,10817,040190009001012,43,12024,23,4th Av/15th St,27616
32.21997,00569C,-110.965838,FFFFFF,10817,040190001001010,44,12025,23,12th St/4th Av,23125
32.2226,00569C,-110.968239,FFFFFF,10817,040190001001001,45,14217,23,Downtown Ronstadt Center,23125
32.118396,DB6D1D,-110.962965,FFFFFF,10818,040199409001044,1,15006,24,Komelic/Pantak,27121
32.119529,DB6D1D,-110.96929,FFFFFF,10818,040190037052014,2,12043,24,Los Reales/Missiondale,38631
32.119556,DB6D1D,-110.973132,FFFFFF,10818,040190037052014,3,12045,24,Los Reales/San Fernando,38631
32.119932,DB6D1D,-110.977463,FFFFFF,10818,040190037052011,4,12046,24,12th Av/Los Reales,38631
32.122544,DB6D1D,-110.977486,FFFFFF,10818,040190037052007,5,14832,24,12th Av/Marcus,38631
32.126088,DB6D1D,-110.977509,FFFFFF,10818,040190037052005,6,14862,24,12th Av/Leary Dr,38631
32.130665,DB6D1D,-110.977542,FFFFFF,10818,040190037053003,7,12050,24,12th Av/Medina,38631
32.135143,DB6D1D,-110.977545,FFFFFF,10818,040190037042017,8,12102,24,12th Av/Valencia,38525
32.137913,DB6D1D,-110.977532,FFFFFF,10818,040190037042007,9,12104,24,12th Av/Santa Maria,38525
32.141601,DB6D1D,-110.977485,FFFFFF,10818,040190037041022,10,12106,24,12th Av/Bilby,38525
32.14529,DB6D1D,-110.97747,FFFFFF,10818,040190037041010,11,12107,24,12th Av/C Alvord,38525
32.14896,DB6D1D,-110.977476,FFFFFF,10818,040190038022011,12,12108,24,12th Av/Drexel,22560
32.151436,DB6D1D,-110.97747,FFFFFF,10818,040190038022009,13,12109,24,12th Av/Canada St,22560
32.15622,DB6D1D,-110.977435,FFFFFF,10818,040190038024003,14,12114,24,12th Av/Nebraska,22560
32.159331,DB6D1D,-110.977426,FFFFFF,10818,040190038023012,15,12115,24,12th Av/Wyoming,22560
32.163145,DB6D1D,-110.976052,FFFFFF,10818,040190038023001,16,12542,24,Irvington/11th Av,22560
32.162731,DB6D1D,-110.9712,FFFFFF,10818,040190038024000,17,14229,24,Laos Transit Center,22560
32.126891,F0AF13,-110.875147,000000,10819,040194105011099,1,209,26,Craycroft/I-10 TTT,57390
32.134526,F0AF13,-110.893063,000000,10819,040190041161019,2,14443,26,Valencia/Benson Hwy,32941
32.134449,F0AF13,-110.901424,000000,10819,040190041161009,3,14865,26,Valencia/Columbus,32941
32.134415,F0AF13,-110.906901,000000,10819,040190041161009,4,14388,26,Valencia/Alvernon,32941
32.134965,F0AF13,-110.909312,000000,10819,040190041161009,5,16134,26,Alvernon/Valencia,32941
32.138204,F0AF13,-110.90924,000000,10819,040190041161008,6,14423,26,Alvernon/Antrim Loop,32941
32.142855,F0AF13,-110.909182,000000,10819,040190041161000,7,14424,26,Alvernon/White River,32941
32.147067,F0AF13,-110.909514,000000,10819,040190041171039,8,12681,26,Benson Hy/Alvernon,37404
32.149159,F0AF13,-110.912695,000000,10819,040190041171040,9,12682,26,Benson Hy/Drexel,37404
32.15069,F0AF13,-110.915317,000000,10819,040190041171040,10,12660,26,Benson Hy/3562 E Benson,37404
32.152681,F0AF13,-110.918404,000000,10819,040190041171034,11,12684,26,Benson Hy/Palo Verde,37404
32.154131,F0AF13,-110.921713,000000,10819,040190041152005,12,12685,26,Masterson/Benson Hwy,44183
32.152157,F0AF13,-110.922172,000000,10819,040190041152013,13,12686,26,Masterson/Behan,44183
32.149172,F0AF13,-110.922115,000000,10819,040190041152012,14,12687,26,Masterson/Drexel,44183
32.148883,F0AF13,-110.92592,000000,10819,040190041152017,15,212,26,Drexel/Country Club,44183
32.148838,F0AF13,-110.929032,000000,10819,040190041172027,16,14378,26,Drexel/Country Club MHP,37404
32.148799,F0AF13,-110.9357,000000,10819,040190041102000,17,14381,26,Drexel/Tucson,60859
32.148731,F0AF13,-110.938142,000000,10819,040190041102005,18,12697,26,Drexel/Wilson,60859
32.148762,F0AF13,-110.940846,000000,10819,040190041102016,19,12698,26,Drexel/Jasmine,60859
32.149026,F0AF13,-110.943373,000000,10819,040190041102016,20,12699,26,Campbell Av/Drexel,60859
32.151488,F0AF13,-110.943348,000000,10819,040190041102007,21,12644,26,Campbell Av/Holladay,60859
32.153553,F0AF13,-110.943337,000000,10819,040190041102002,22,12701,26,Campbell Av/Oregon,60859
32.156051,F0AF13,-110.943338,000000,10819,040190041101013,23,12702,26,Campbell Av/Bantam,60859
32.160953,F0AF13,-110.94323,000000,10819,040190041101003,24,12704,26,Campbell Av/Irvington,60859
32.163372,F0AF13,-110.943984,000000,10819,040190022013000,25,213,26,Irvington/Campbell,24870
32.163369,F0AF13,-110.948664,000000,10819,040190022013002,26,14890,26,Irvington/C Ole,24870
32.163406,F0AF13,-110.952668,000000,10819,040190022011039,27,12706,26,Irvington/Mountain,24870
32.163426,F0AF13,-110.956802,000000,10819,040190022011033,28,12707,26,Irvington/Park Av,24870
32.163435,F0AF13,-110.960125,000000,10819,040190022011033,29,12708,26,Irvington/1st Av,24870
32.163383,F0AF13,-110.964889,000000,10819,040190024003009,30,12709,26,Irvington/3rd Av,27852
32.161933,F0AF13,-110.971378,000000,10819,040190038024000,31,14219,26,Laos Transit Center,22560
32.13118,E6C75A,-111.082599,000000,10820,040199410002000,1,15951,27,Casino del Sol Park & Ride,30000
32.133357,E6C75A,-111.070893,000000,10820,040190043202000,2,15959,27,Valencia/Mark,27847
32.133366,E6C75A,-111.062318,000000,10820,040190043201006,3,15960,27,Valencia/Cmo de Oeste,27847
32.132721,E6C75A,-111.053953,000000,10820,040190043201009,4,16053,27,Valencia/Settler Av,27847
32.133597,E6C75A,-111.036784,000000,10820,040190043211000,5,15962,27,Valencia/Cmo de la Tierra,45597
32.134819,E6C75A,-111.028729,000000,10820,040190043122025,6,16047,27,Cardinal/Valencia,26186
32.137869,E6C75A,-111.028611,000000,10820,040190043121001,7,16048,27,Cardinal/San Paulus,26186
32.14145,E6C75A,-111.028637,000000,10820,040190043122010,8,16049,27,Cardinal/Bilby,26186
32.145058,E6C75A,-111.028651,000000,10820,040190043123027,9,16051,27,Cardinal/Alvaro,26186
32.14826,E6C75A,-111.028354,000000,10820,040190043123025,10,12557,27,Drexel/Cardinal,26186
32.14826,E6C75A,-111.023855,000000,10820,040190043123018,11,12558,27,Drexel/Hildreth,26186
32.148283,E6C75A,-111.019774,000000,10820,040190043123020,12,12559,27,Drexel/Westover,26186
32.14833,E6C75A,-111.012549,000000,10820,040199409001000,13,222,27,Drexel/Mission,27121
32.148344,E6C75A,-111.006336,000000,10820,040190025063006,14,14436,27,Drexel/Oak Tree,45793
32.148288,E6C75A,-111.000501,000000,10820,040190025064003,15,14437,27,Drexel/Wood Crest Dr,45793
32.14803,E6C75A,-110.998919,000000,10820,040190025064003,16,12527,27,Midvale Park/Drexel,45793
32.143604,E6C75A,-110.999089,000000,10820,040190025064006,17,12529,27,Midvale Park/Houchin,45793
32.139529,E6C75A,-110.99908,000000,10820,040190025062002,18,12530,27,Midvale Park/Headley,45793
32.136873,E6C75A,-110.999073,000000,10820,040190025062004,19,12531,27,Midvale Park/Walmart,45793
32.13368,E6C75A,-110.997962,000000,10820,040190025062032,20,230,27,Valencia/Midvale Park Rd,45793
32.145884,E6C75A,-110.988565,000000,10820,040190039021010,21,193,27,Pima College Desert Vista Campus,30455
32.135122,E6C75A,-110.981948,000000,10820,040190039021008,22,12533,27,Santa Clara/Santa Louisa,30455
32.1379,E6C75A,-110.981899,000000,10820,040190039021014,23,12534,27,Santa Clara/Santa Maria,30455
32.139818,E6C75A,-110.981842,000000,10820,040190039021016,24,12535,27,Santa Clara/C Garcia,30455
32.143139,E6C75A,-110.981858,000000,10820,040190039022008,25,12536,27,Santa Clara/Mossman,30455
32.145677,E6C75A,-110.981818,000000,10820,040190039022008,26,12537,27,Santa Clara/C Ramona,30455
32.148441,E6C75A,-110.98176,000000,10820,040190039022001,27,14498,27,Santa Clara/Drexel,30455
32.14896,E6C75A,-110.977476,000000,10820,040190038022011,28,12108,27,12th Av/Drexel,22560
32.151436,E6C75A,-110.97747,000000,10820,040190038022009,29,12109,27,12th Av/Canada St,22560
32.15622,E6C75A,-110.977435,000000,10820,040190038024003,30,12114,27,12th Av/Nebraska,22560
32.159331,E6C75A,-110.977426,000000,10820,040190038023012,31,12115,27,12th Av/Wyoming,22560
32.163145,E6C75A,-110.976052,000000,10820,040190038023001,32,12542,27,Irvington/11th Av,22560
32.162379,E6C75A,-110.971537,000000,10820,040190038024000,33,14221,27,Laos Transit Center,22560
32.162427,896EFF,-110.971405,FFFFFF,10821,040190038024000,1,14230,29,Laos Transit Center,22560
32.160603,896EFF,-110.967553,FFFFFF,10821,040190038021003,2,13974,29,Nogales Hy/Irvington,22560
32.159318,896EFF,-110.968243,FFFFFF,10821,040190038021010,3,12061,29,6th Av/Thoroughbred,22560
32.155599,896EFF,-110.96814,FFFFFF,10821,040190038022000,4,12062,29,6th Av/Nebraska,22560
32.154175,896EFF,-110.968174,FFFFFF,10821,040190038022000,5,12063,29,6th Av/Alaska,22560
32.148324,896EFF,-110.968079,FFFFFF,10821,040190037041000,6,208,29,6th Av/Drexel,38525
32.144681,896EFF,-110.968052,FFFFFF,10821,040190037041000,7,13979,29,6th Av/Delta,38525
32.140962,896EFF,-110.968083,FFFFFF,10821,040190037042000,8,13980,29,6th Av/Bilby,38525
32.137438,896EFF,-110.967962,FFFFFF,10821,040190037042013,9,13981,29,6th Av/Valeska,38525
32.13419,896EFF,-110.968889,FFFFFF,10821,040190037042014,10,229,29,Valencia/Missiondale,38525
32.134188,896EFF,-110.972656,FFFFFF,10821,040190037042017,11,13982,29,Valencia/Fiesta,38525
32.134156,896EFF,-110.978664,FFFFFF,10821,040190039021006,12,13983,29,Valencia/12th Av,30455
32.133924,896EFF,-110.994784,FFFFFF,10821,040190025062000,13,13984,29,Valencia/Midvale Medical Ctr,45793
32.133888,896EFF,-110.999654,FFFFFF,10821,040190025062004,14,201,29,Valencia/Midvale Park Rd,45793
32.133906,896EFF,-111.003755,FFFFFF,10821,040190025062007,15,14949,29,Valencia/Oak Tree,45793
32.133944,896EFF,-111.008121,FFFFFF,10821,040190025062026,16,14906,29,Valencia/Headley,45793
32.133945,896EFF,-111.016674,FFFFFF,10821,040199409001002,17,13987,29,Valencia/Mission,27121
32.133979,896EFF,-111.02091,FFFFFF,10821,040190043122017,18,13988,29,Valencia/Westover (old Cir. K),26186
32.133958,896EFF,-111.024503,FFFFFF,10821,040190043122025,19,13989,29,Valencia/Hildreth,26186
32.132344,896EFF,-111.028916,FFFFFF,10821,040190043211000,20,231,29,Cardinal/Valencia,45597
32.127696,896EFF,-111.02903,FFFFFF,10821,040190043211010,21,15005,29,Cardinal/Pajarito,45597
32.124141,896EFF,-111.029046,FFFFFF,10821,040190043211008,22,13996,29,Cardinal/Christopher Dr,45597
32.119255,896EFF,-111.029395,FFFFFF,10821,040190043211017,23,15931,29,Los Reales/Cardinal,45597
32.119235,896EFF,-111.033849,FFFFFF,10821,040190043211023,24,15928,29,Los Reales/Cmo Alegre,45597
32.119179,896EFF,-111.037994,FFFFFF,10821,040190043212012,25,14000,29,Los Reales/Cmo de la Tierra,45597
32.119136,896EFF,-111.043738,FFFFFF,10821,040190043212012,26,14001,29,Los Reales/Bolingbroke,45597
32.115655,896EFF,-111.047808,FFFFFF,10821,040190043201016,27,14002,29,Tetakusim Rd/Beehive Av,27847
32.115627,896EFF,-111.051693,FFFFFF,10821,040190043201016,28,16201,29,Tetakusim Rd/Caballo Rd,27847
32.115586,896EFF,-111.05512,FFFFFF,10821,040190043201016,29,11085,29,Tetakusim Rd/Settler Av,27847
32.114866,896EFF,-111.063646,FFFFFF,10821,040199410001000,30,234,29,C Tetakusim/Cmo de Oeste,30000
32.114318,896EFF,-111.066724,FFFFFF,10821,040199410001009,31,11086,29,Cmo Potam /C Tetakusim,30000
32.113091,896EFF,-111.066735,FFFFFF,10821,040199410001009,32,11087,29,Cmo Potam /Ball Field,30000
32.111715,896EFF,-111.06843,FFFFFF,10821,040199410001009,33,14595,29,C Torim/Cmo Tetaviecti,30000
32.113442,896EFF,-111.068891,FFFFFF,10821,040199410001009,34,14699,29,Cmo Benem/Liogue Senior Center,30000
32.115254,896EFF,-111.068872,FFFFFF,10821,040199410001009,35,14597,29,Cmo Benem/C Tetakusim,30000
32.11652,896EFF,-111.06887,FFFFFF,10821,040199410001003,36,14598,29,Cmo Benem/C Vicam,30000
32.118852,896EFF,-111.067568,FFFFFF,10821,040199410001002,37,14599,29,Los Reales/Cmo Tetaviecti,30000
32.118863,896EFF,-111.065278,FFFFFF,10821,040199410001000,38,14600,29,Los Reales/Cmo Rahum,30000
32.118297,896EFF,-111.06323,FFFFFF,10821,040199410001000,39,14518,29,Cmo de Oeste/Los Reales,30000
32.166109,F0AF13,-110.815521,FFFFFF,10822,040190040583001,1,34,3,Pima College East Campus,75476
32.164878,F0AF13,-110.823762,FFFFFF,10822,040190040583004,2,14898,3,Pantano/Constant,75476
32.168596,F0AF13,-110.823763,FFFFFF,10822,040190040583001,3,12613,3,Pantano/Poinciana,75476
32.172455,F0AF13,-110.82376,FFFFFF,10822,040190040583001,4,12614,3,Pantano/Dogwood,75476
32.17723,F0AF13,-110.823121,FFFFFF,10822,040190040583001,5,20,3,Escalante/Pantano,75476
32.177204,F0AF13,-110.818965,FFFFFF,10822,040190040583001,6,14096,3,Escalante/Manitoba,75476
32.177166,F0AF13,-110.816565,FFFFFF,10822,040190040583001,7,14097,3,Escalante/Le Breque,75476
32.177174,F0AF13,-110.810588,FFFFFF,10822,040190040583001,8,14924,3,Escalante/Av de las Palmas,75476
32.177634,F0AF13,-110.806882,FFFFFF,10822,040190040351000,9,13188,3,Cmo Seco/Escalante,31938
32.182287,F0AF13,-110.806869,FFFFFF,10822,040190040351000,10,13189,3,Cmo Seco/Magda,31938
32.184483,F0AF13,-110.807437,FFFFFF,10822,040190040352010,11,14101,3,Stella/Cmo Seco,31938
32.184527,F0AF13,-110.811035,FFFFFF,10822,040190040352011,12,13191,3,Stella/Morman Dr,31938
32.184551,F0AF13,-110.815138,FFFFFF,10822,040190040353000,13,13192,3,Stella/Sarnoff,31938
32.184547,F0AF13,-110.818564,FFFFFF,10822,040190040353000,14,14367,3,Stella/Manitoba,31938
32.184576,F0AF13,-110.822535,FFFFFF,10822,040190040353000,15,13193,3,Stella/Lakeside,31938
32.184699,F0AF13,-110.824463,FFFFFF,10822,040190040371012,16,13194,3,Stella/Pantano,63083
32.184755,F0AF13,-110.829098,FFFFFF,10822,040190040371015,17,13196,3,Stella/Marc,63083
32.184732,F0AF13,-110.832759,FFFFFF,10822,040190040372012,18,11872,3,Stella/Prudence,63083
32.184743,F0AF13,-110.83748,FFFFFF,10822,040190040372008,19,312,3,Stella/Charlotte,63083
32.184746,F0AF13,-110.841452,FFFFFF,10822,040190040331004,20,21,3,Stella/Kolb,35167
32.184711,F0AF13,-110.845992,FFFFFF,10822,040190040331005,21,13199,3,Stella/Langley,35167
32.18472,F0AF13,-110.849843,FFFFFF,10822,040190040332011,22,14822,3,Stella/Mann,35167
32.184753,F0AF13,-110.853512,FFFFFF,10822,040190040332011,23,14112,3,Stella/C Polar,35167
32.184756,F0AF13,-110.857616,FFFFFF,10822,040190040332009,24,13201,3,Stella/Wilmot,35167
32.187184,F0AF13,-110.857822,FFFFFF,10822,040190036004000,25,14493,3,Wilmot/David Dr,30231
32.192685,F0AF13,-110.85775,FFFFFF,10822,040190040082008,26,14115,3,Wilmot/Golf Links,43125
32.196184,F0AF13,-110.857795,FFFFFF,10822,040190040083009,27,14116,3,Wilmot/C Marte,43125
32.200044,F0AF13,-110.857762,FFFFFF,10822,040190040083006,28,14117,3,Wilmot/C Herculo,43125
32.203588,F0AF13,-110.857765,FFFFFF,10822,040190040084006,29,14118,3,Wilmot/Bellatrix,43125
32.207114,F0AF13,-110.857789,FFFFFF,10822,040190033023014,30,13206,3,Wilmot/22nd St,47778
32.210979,F0AF13,-110.857819,FFFFFF,10822,040190033023007,31,14120,3,Wilmot/Colgate,47778
32.214712,F0AF13,-110.857802,FFFFFF,10822,040190033023003,32,13209,3,Wilmot/Malvern,47778
32.217575,F0AF13,-110.857778,FFFFFF,10822,040190033024001,33,14124,3,Wilmot/Scarlett,47778
32.221957,F0AF13,-110.857742,FFFFFF,10822,040190040682003,34,81,3,Wilmot/Broadway,38417
32.225963,F0AF13,-110.8578,FFFFFF,10822,040190040681017,35,13508,3,Wilmot/Carondelet,38417
32.228967,F0AF13,-110.858557,FFFFFF,10822,040190030023029,36,13823,3,5th St/Wilmot,40982
32.22896,F0AF13,-110.863839,FFFFFF,10822,040190030023023,37,13825,3,5th St/Indian House,40982
32.229016,F0AF13,-110.868669,FFFFFF,10822,040190030023025,38,13826,3,5th St/McKinley,40982
32.228976,F0AF13,-110.871336,FFFFFF,10822,040190030022026,39,13827,3,5th St/Van Buren,40982
32.229003,F0AF13,-110.875888,FFFFFF,10822,040190031022016,40,13828,3,5th St/Craycroft,31250
32.228991,F0AF13,-110.880068,FFFFFF,10822,040190031022019,41,13830,3,5th St/Beverly,31250
32.229002,F0AF13,-110.883654,FFFFFF,10822,040190031022011,42,13831,3,5th St/Rosemont,31250
32.228981,F0AF13,-110.888718,FFFFFF,10822,040190032001019,43,13832,3,5th St/Arcadia,38661
32.228902,F0AF13,-110.892822,FFFFFF,10822,040190032002005,44,13833,3,5th St/Swan,38661
32.228909,F0AF13,-110.897176,FFFFFF,10822,040190032004021,45,13834,3,5th St/Belvedere,38661
32.228972,F0AF13,-110.898581,FFFFFF,10822,040190032004022,46,13835,3,5th St/Catalina,38661
32.228925,F0AF13,-110.901479,FFFFFF,10822,040190032006002,47,13836,3,5th St/Columbus,38661
32.228939,F0AF13,-110.905619,FFFFFF,10822,040190032006003,48,13837,3,5th St/Irving,38661
32.228973,F0AF13,-110.91003,FFFFFF,10822,040190032005007,49,23,3,5th St/Alvernon,38661
32.228923,F0AF13,-110.913556,FFFFFF,10822,040190032005008,50,13838,3,5th St/Dodge,38661
32.228896,F0AF13,-110.918472,FFFFFF,10822,040190019001015,51,13839,3,5th St/Palo Verde,40919
32.228935,F0AF13,-110.920135,FFFFFF,10822,040190019001011,52,13840,3,5th St/Jones,40919
32.228474,F0AF13,-110.927018,FFFFFF,10822,040190019004003,53,11844,3,6th St/Country Club,40919
32.22802,F0AF13,-110.931331,FFFFFF,10822,040190019004005,54,11845,3,6th St/Treat,40919
32.227951,F0AF13,-110.935727,FFFFFF,10822,040190006003000,55,11846,3,6th St/Tucson,39000
32.227936,F0AF13,-110.939791,FFFFFF,10822,040190006003003,56,11847,3,6th St/Plumer,39000
32.227934,F0AF13,-110.94447,FFFFFF,10822,040190005004017,57,16055,3,6th St/Campbell,
32.227922,F0AF13,-110.947819,FFFFFF,10822,040190005004013,58,11848,3,6th St/Cherry,
32.227844,F0AF13,-110.95134,FFFFFF,10822,040190005004018,59,15942,3,6th St/Highland,
32.227838,F0AF13,-110.956628,FFFFFF,10822,040190005007000,60,11736,3,6th St/Park Av,
32.22788,F0AF13,-110.959924,FFFFFF,10822,040190005007002,61,16111,3,6th St/Euclid,
32.227816,F0AF13,-110.963823,FFFFFF,10822,040190004003032,62,11852,3,6th St/3rd Av,31328
32.227844,F0AF13,-110.966515,FFFFFF,10822,040190004001033,63,16102,3,6th St/Herbert Av,31328
32.223113,F0AF13,-110.968178,FFFFFF,10822,040190001001001,64,14211,3,Downtown Ronstadt Center,23125
32.224426,F0AF13,-110.970948,FFFFFF,10822,040190001002000,65,10858,3,Alameda/Stone,23125
32.223427,F0AF13,-110.97419,FFFFFF,10822,040190003002053,66,11172,3,Alameda/Court Av,16111
32.223298,F0AF13,-110.976772,FFFFFF,10822,040190002001018,67,13856,3,Granada/Pso Redondo,34006
32.226583,F0AF13,-110.97784,FFFFFF,10822,040190002001000,68,13857,3,Granada/405 Granada,34006
32.227713,F0AF13,-110.978264,FFFFFF,10822,040190003002037,69,13670,3,St Mary's/Granada,16111
32.229538,F0AF13,-110.983773,FFFFFF,10822,040190011001002,70,13671,3,St Mary's/I-10 Interstate,27250
32.229838,F0AF13,-110.987844,FFFFFF,10822,040190011001024,71,13672,3,St Mary's/Columbia,27250
32.229673,F0AF13,-110.990063,FFFFFF,10822,040190011001026,72,130,3,St Mary's/Grande,27250
32.229446,F0AF13,-110.9924,FFFFFF,10822,040190011001022,73,14457,3,St Mary's/Melrose Av,27250
32.229186,F0AF13,-110.995129,FFFFFF,10822,040190011002017,74,13674,3,St Mary's/Cuesta,27250
32.229018,F0AF13,-110.99763,FFFFFF,10822,040190011002012,75,13675,3,St Mary's/Cherokee,27250
32.228918,F0AF13,-110.999376,FFFFFF,10822,040190044152013,76,13676,3,St Mary's/Silverbell,28264
32.228483,F0AF13,-111.002743,FFFFFF,10822,040190044152008,77,13677,3,St Mary's/San Rafael,28264
32.226662,F0AF13,-111.005479,FFFFFF,10822,040190044152008,78,13678,3,St Mary's/Anklam,28264
32.225068,F0AF13,-111.009895,FFFFFF,10822,040190044152015,79,16113,3,Anklam/2002 W Anklam,28264
32.226583,F0AF13,-111.016596,FFFFFF,10822,040190044152002,80,16152,3,Pima College West Campus,28264
32.288792,F26D74,-110.968915,FFFFFF,10823,040190045101007,1,14754,312X,Tohono Transit Center,10829
32.296431,F26D74,-110.971752,FFFFFF,10823,040190047252018,2,11350,312X,River/Stone,29921
32.323261,F26D74,-110.974774,FFFFFF,10823,040190047145007,3,284,312X,Oracle/Orange Grove,73661
32.330569,F26D74,-110.976527,FFFFFF,10823,040190047145003,4,12169,312X,Oracle/Casas Adobes Rd,73661
32.345573,F26D74,-110.976024,FFFFFF,10823,040190047132016,5,12191,312X,Oracle/Suffolk Dr,62159
32.350899,F26D74,-110.974952,FFFFFF,10823,040190047132016,6,14312,312X,Oracle/Magee,62159
32.355825,F26D74,-110.973695,FFFFFF,10823,040190047131014,7,12193,312X,Oracle/Mountain Vista,62159
32.366577,F26D74,-110.969375,FFFFFF,10823,040190047131001,8,12194,312X,Oracle/Hardy Rd,62159
32.373946,F26D74,-110.966158,FFFFFF,10823,040190047131000,9,12195,312X,Oracle/C Concordia,62159
32.381291,F26D74,-110.963797,FFFFFF,10823,040190047162017,10,12196,312X,Oracle/Linda Vista,49107
32.388554,F26D74,-110.964225,FFFFFF,10823,040190047162026,11,12197,312X,Oracle/El Conquistador Wy,49107
32.400294,F26D74,-110.95491,FFFFFF,10823,040190047162039,12,12198,312X,Oracle/1st Av (OroValley),49107
32.403111,F26D74,-110.951349,FFFFFF,10823,040190047162030,13,16121,312X,Oracle/La Reserve,49107
32.407655,F26D74,-110.943027,FFFFFF,10823,040190047162032,14,161,312X,Oracle/Honeywell,49107
32.40678,F26D74,-110.944957,FFFFFF,10823,040190047162032,15,14841,312X,Oracle/Honeywell,49107
32.441468,F26D74,-110.938846,FFFFFF,10823,040190046432045,16,15925,312X,Rancho Vistoso/Pusch Mountain View,48059
32.198717,F7941E,-110.874661,FFFFFF,10824,040190035032003,1,14842,34,30th St/Craycroft,25887
32.199957,F7941E,-110.87502,FFFFFF,10824,040190035031009,2,134,34,Craycroft/29th St,25887
32.203871,F7941E,-110.874998,FFFFFF,10824,040190035031005,3,12849,34,Craycroft/25th St,25887
32.205664,F7941E,-110.874894,FFFFFF,10824,040190035031002,4,12850,34,Craycroft/Juarez,25887
32.207261,F7941E,-110.874961,FFFFFF,10824,040190035024013,5,12851,34,Craycroft/22nd St,22500
32.21003,F7941E,-110.874994,FFFFFF,10824,040190035024003,6,12852,34,Craycroft/20th St,22500
32.214783,F7941E,-110.875026,FFFFFF,10824,040190033033019,7,12853,34,Craycroft/Wilshire,25875
32.218704,F7941E,-110.874994,FFFFFF,10824,040190033031017,8,12854,34,Craycroft/St Joseph Church,25875
32.221908,F7941E,-110.875032,FFFFFF,10824,040190033031013,9,14307,34,Craycroft/Broadway,25875
32.225,F7941E,-110.875211,FFFFFF,10824,040190033031014,10,14310,34,Craycroft/Burns,25875
32.227523,F7941E,-110.875287,FFFFFF,10824,040190033031003,11,12860,34,Craycroft/Holmes,25875
32.229218,F7941E,-110.87535,FFFFFF,10824,040190030022027,12,12861,34,Craycroft/5th St,40982
32.232925,F7941E,-110.875313,FFFFFF,10824,040190030022015,13,12862,34,Craycroft/Rosewood,40982
32.236832,F7941E,-110.87535,FFFFFF,10824,040190030022002,14,12864,34,Craycroft/Speedway,40982
32.240022,F7941E,-110.875375,FFFFFF,10824,040190030021013,15,12866,34,Craycroft/Fairmount,40982
32.241862,F7941E,-110.875387,FFFFFF,10824,040190030021003,16,12867,34,Craycroft/Lee,40982
32.243836,F7941E,-110.875441,FFFFFF,10824,040190030031013,17,12868,34,Craycroft/Pima,30227
32.246885,F7941E,-110.875301,FFFFFF,10824,040190030031000,18,12869,34,Craycroft/Waverly,30227
32.251155,F7941E,-110.87518,FFFFFF,10824,040190030042023,19,257,34,Craycroft/Grant,28800
32.254667,F7941E,-110.875156,FFFFFF,10824,040190030042014,20,14311,34,Craycroft/Copper,28800
32.258001,F7941E,-110.876439,FFFFFF,10824,040190029041016,21,12871,34,Glenn/Sidney,59816
32.257992,F7941E,-110.879896,FFFFFF,10824,040190029041013,22,12872,34,Glenn/Beverly,59816
32.257938,F7941E,-110.883353,FFFFFF,10824,040190029041005,23,12873,34,Glenn/Rosemont,59816
32.257954,F7941E,-110.88862,FFFFFF,10824,040190029041010,24,16124,34,Glenn/Orlando,59816
32.258257,F7941E,-110.892428,FFFFFF,10824,040190029041009,25,15002,34,Swan/Glenn,59816
32.261752,F7941E,-110.892348,FFFFFF,10824,040190029031013,26,14603,34,Swan/Ft. Lowell,49393
32.265384,F7941E,-110.893776,FFFFFF,10824,040190029031001,27,14605,34,Camp Lowell/Swan,49393
32.265135,F7941E,-110.897035,FFFFFF,10824,040190029031001,28,14607,34,Camp Lowell/Laurel,49393
32.265186,F7941E,-110.902383,FFFFFF,10824,040190029051003,29,12880,34,Fort Lowell/Riverhaven,36324
32.265182,F7941E,-110.906576,FFFFFF,10824,040190029051003,30,12881,34,Fort Lowell/Sycamore,36324
32.265267,F7941E,-110.910229,FFFFFF,10824,040190028012015,31,258,34,Fort Lowell/Alvernon,25128
32.265243,F7941E,-110.914689,FFFFFF,10824,040190028012023,32,12882,34,Fort Lowell/Dodge,25128
32.265128,F7941E,-110.918867,FFFFFF,10824,040190028012022,33,12883,34,Fort Lowell/Palo Verde,25128
32.265102,F7941E,-110.922042,FFFFFF,10824,040190028011010,34,12884,34,Fort Lowell/Edith,25128
32.265033,F7941E,-110.927275,FFFFFF,10824,040190017001010,35,12885,34,Fort Lowell/Country Club,51389
32.265003,F7941E,-110.930438,FFFFFF,10824,040190017001013,36,12886,34,Fort Lowell/Christmas,51389
32.264972,F7941E,-110.935958,FFFFFF,10824,040190027022007,37,12887,34,Fort Lowell/Tucson,40945
32.264921,F7941E,-110.939865,FFFFFF,10824,040190027022005,38,12888,34,Fort Lowell/Wilson,40945
32.264908,F7941E,-110.944174,FFFFFF,10824,040190027033013,39,12794,34,Fort Lowell/Campbell,33125
32.264869,F7941E,-110.949874,FFFFFF,10824,040190027033011,40,14892,34,Fort Lowell/Vine,33125
32.264919,F7941E,-110.952728,FFFFFF,10824,040190026023000,41,12891,34,Fort Lowell/Mountain,37031
32.26487,F7941E,-110.954525,FFFFFF,10824,040190026023003,42,14909,34,Fort Lowell/Navajo,37031
32.265489,F7941E,-110.960899,FFFFFF,10824,040190026023003,43,343,34,1st Av/Ft Lowell,37031
32.267673,F7941E,-110.960916,FFFFFF,10824,040190026023001,44,13090,34,1st Av/Halcyon,37031
32.270045,F7941E,-110.960924,FFFFFF,10824,040190026024003,45,13091,34,1st Av/Graybill,37031
32.271674,F7941E,-110.960896,FFFFFF,10824,040190026024003,46,12895,34,1st Av/Prince,37031
32.274851,F7941E,-110.960933,FFFFFF,10824,040190026022000,47,12896,34,1st Av/Rillito Apts,37031
32.27962,F7941E,-110.960974,FFFFFF,10824,040190045111004,48,12897,34,1st Av/Roger,21974
32.283275,F7941E,-110.960992,FFFFFF,10824,040190045101000,49,13095,34,1st Av/Limberlost,10829
32.286998,F7941E,-110.960931,FFFFFF,10824,040190045101000,50,12899,34,1st Av/Wetmore,10829
32.291282,F7941E,-110.960978,FFFFFF,10824,040190047101000,51,12900,34,1st Av/Rillito Park,25000
32.29564,F7941E,-110.961685,FFFFFF,10824,040190047252014,52,11349,34,River/1st Av,29921
32.29631,F7941E,-110.966466,FFFFFF,10824,040190047252005,53,14868,34,River/Hillcrest Dr.,29921
32.295683,F7941E,-110.971248,FFFFFF,10824,040190047102010,54,12902,34,Stone/River,25000
32.288619,F7941E,-110.968608,FFFFFF,10824,040190045101007,55,14234,34,Tohono Transit Center,10829
32.25236,994708,-110.840697,FFFFFF,10825,040190040312018,1,109,37,Sabino Canyon/Tanque Verde,42589
32.25473,994708,-110.840805,FFFFFF,10825,040190040312019,2,13642,37,Sabino Canyon/Acoma,42589
32.259026,994708,-110.841031,FFFFFF,10825,040190040312016,3,14891,37,Sabino Canyon/Vactor Ranch,42589
32.263547,994708,-110.840916,FFFFFF,10825,040190040311003,4,13646,37,Sabino Canyon/Shoreline,42589
32.267431,994708,-110.840862,FFFFFF,10825,040190040253013,5,13647,37,Sabino Canyon/Sabino Vista Cir,69022
32.268989,994708,-110.840191,FFFFFF,10825,040190040253013,6,13648,37,Cloud Rd/Sabino Canyon,69022
32.2689,994708,-110.836097,FFFFFF,10825,040190040253012,7,13114,37,Cloud Rd/C Poco,69022
32.268983,994708,-110.831494,FFFFFF,10825,040190040253008,8,13115,37,Cloud Rd/Cmo Suerte,69022
32.268943,994708,-110.827098,FFFFFF,10825,040190040253006,9,13116,37,Cloud Rd/Manor Dr,69022
32.268882,994708,-110.823921,FFFFFF,10825,040190040253015,10,95,37,Cloud Rd/Pantano,69022
32.23501,0096D1,-110.790247,FFFFFF,10826,040190040481000,1,36,4,Speedway/Harrison Park N Ride,65238
32.235532,0096D1,-110.79447,FFFFFF,10826,040190040473007,2,11066,4,Speedway/Cummings,94091
32.235551,0096D1,-110.79863,FFFFFF,10826,040190040472013,3,11067,4,Speedway/Palms Park Dr.,94091
32.235526,0096D1,-110.801649,FFFFFF,10826,040190040472011,4,11068,4,Speedway/Av Ricardo Small,94091
32.235635,0096D1,-110.807838,FFFFFF,10826,040190040462011,5,11070,4,Speedway/Cam Seco,38698
32.235607,0096D1,-110.812073,FFFFFF,10826,040190040462002,6,14997,4,Speedway/Electra,38698
32.235625,0096D1,-110.816424,FFFFFF,10826,040190040462009,7,11074,4,Speedway/Sarnoff,38698
32.235646,0096D1,-110.820039,FFFFFF,10826,040190040322001,8,11075,4,Speedway/Maguire,49125
32.235669,0096D1,-110.824278,FFFFFF,10826,040190040322020,9,11076,4,Speedway/Pantano,49125
32.23568,0096D1,-110.827695,FFFFFF,10826,040190040322020,10,11077,4,Speedway/Grady,49125
32.235729,0096D1,-110.83146,FFFFFF,10826,040190040322011,11,14386,4,Speedway/Prudence,49125
32.23572,0096D1,-110.835254,FFFFFF,10826,040190040322017,12,11078,4,Speedway/7351 E Speedway,49125
32.235735,0096D1,-110.841758,FFFFFF,10826,040190040671001,13,11133,4,Speedway/Kolb,33155
32.235681,0096D1,-110.845308,FFFFFF,10826,040190040672004,14,11134,4,Speedway/Dorado,33155
32.235694,0096D1,-110.846847,FFFFFF,10826,040190040672004,15,11135,4,Speedway/Caribe,33155
32.235688,0096D1,-110.850571,FFFFFF,10826,040190040671008,16,11136,4,Speedway/Natachee,33155
32.235723,0096D1,-110.853737,FFFFFF,10826,040190040671008,17,11137,4,Speedway/Radisson Hotel,33155
32.235736,0096D1,-110.855937,FFFFFF,10826,040190040671009,18,14760,4,Speedway/El Dorado,33155
32.236087,0096D1,-110.858525,FFFFFF,10826,040190030023000,19,11138,4,Speedway/Wilmot,40982
32.236225,0096D1,-110.862256,FFFFFF,10826,040190030023001,20,11139,4,Speedway/Alamo,40982
32.236326,0096D1,-110.866985,FFFFFF,10826,040190030023003,21,11140,4,Speedway/Sahuara,40982
32.236321,0096D1,-110.871267,FFFFFF,10826,040190030022001,22,11141,4,Speedway/Van Buren,40982
32.236285,0096D1,-110.875949,FFFFFF,10826,040190031024000,23,11142,4,Speedway/Craycroft,31250
32.236272,0096D1,-110.880034,FFFFFF,10826,040190031024002,24,11143,4,Speedway/Beverly,31250
32.236314,0096D1,-110.884438,FFFFFF,10826,040190031023019,25,11144,4,Speedway/Rosemont,31250
32.236346,0096D1,-110.888597,FFFFFF,10826,040190031023017,26,11145,4,Speedway/Arcadia,31250
32.236309,0096D1,-110.893205,FFFFFF,10826,040190031011011,27,11146,4,Speedway/Swan,27070
32.236314,0096D1,-110.898821,FFFFFF,10826,040190031011013,28,11147,4,Speedway/Catalina,27070
32.236279,0096D1,-110.902074,FFFFFF,10826,040190031016007,29,11148,4,Speedway/Columbus,27070
32.236323,0096D1,-110.905982,FFFFFF,10826,040190031012012,30,11149,4,Speedway/Arlington,27070
32.236315,0096D1,-110.910143,FFFFFF,10826,040190031013006,31,40,4,Speedway/Alvernon,27070
32.236352,0096D1,-110.913607,FFFFFF,10826,040190031013005,32,11150,4,Speedway/Dodge,27070
32.236276,0096D1,-110.917831,FFFFFF,10826,040190018022007,33,14482,4,Speedway/Palo Verde,31223
32.236244,0096D1,-110.922183,FFFFFF,10826,040190018021009,34,11152,4,Speedway/Howard,31223
32.236182,0096D1,-110.927238,FFFFFF,10826,040190006005031,35,11153,4,Speedway/Country Club,39000
32.236188,0096D1,-110.930502,FFFFFF,10826,040190006005029,36,11154,4,Speedway/Treat,39000
32.236191,0096D1,-110.93592,FFFFFF,10826,040190006001017,37,11155,4,Speedway/Tucson,39000
32.23622,0096D1,-110.940015,FFFFFF,10826,040190006001020,38,11156,4,Speedway/Plumer,39000
32.236178,0096D1,-110.944438,FFFFFF,10826,040190006001023,39,41,4,Speedway/Campbell,39000
32.236135,0096D1,-110.947087,FFFFFF,10826,040190005006000,40,11157,4,Speedway/Warren Underpass,
32.236092,0096D1,-110.951134,FFFFFF,10826,040190005006003,41,11344,4,Speedway/Highland Underpass,
32.236157,0096D1,-110.95533,FFFFFF,10826,040190005006006,42,11161,4,Speedway/Olive Underpass,
32.236136,0096D1,-110.960148,FFFFFF,10826,040190005006010,43,11163,4,Speedway/Euclid,
32.236001,0096D1,-110.962964,FFFFFF,10826,040190004002015,44,11164,4,Speedway/2nd Av,31328
32.236042,0096D1,-110.965911,FFFFFF,10826,040190004002013,45,11165,4,Speedway/4th Av,31328
32.23521,0096D1,-110.971944,FFFFFF,10826,040190004002030,46,11167,4,Stone/Speedway,31328
32.231337,0096D1,-110.971872,FFFFFF,10826,040190004003005,47,11168,4,Stone/University,31328
32.225778,0096D1,-110.970687,FFFFFF,10826,040190001002000,48,11525,4,Toole/7th Av,23125
32.222626,0096D1,-110.968119,FFFFFF,10826,040190001001001,49,25,4,Downtown Ronstadt Center,23125
32.336696,28903B,-110.977684,FFFFFF,10827,040190046152000,1,165,401,Oracle/Ina,96985
32.351864,28903B,-110.975279,FFFFFF,10827,040190046222012,2,14757,401,Magee/Oracle,95577
32.373521,28903B,-110.970105,FFFFFF,10827,040190046202004,3,14918,401,C Concordia/Shadow Mountain Dr,33750
32.387933,28903B,-110.966498,FFFFFF,10827,040190046191029,4,14989,401,Valle del Oro Rd/El Conquistador,68738
32.400294,28903B,-110.95491,FFFFFF,10827,040190047162039,5,12198,401,Oracle/1st Av (OroValley),49107
32.407204,28903B,-110.947367,FFFFFF,10827,040190046421031,6,15937,401,Oracle/11085(SteamPump),64667
32.422988,28903B,-110.940692,FFFFFF,10827,040190046421011,7,14991,401,Innovation Mrkt Dr/Tangerine Rd,64667
32.428356,28903B,-110.949715,FFFFFF,10827,040190046421000,8,16194,401,Tangarine/Innovation Park Dr,64667
32.438971,28903B,-110.943784,FFFFFF,10827,040190046421009,9,16195,401,Innovation Pk Dr/Vistoso Commerce Pl,64667
32.441468,28903B,-110.938846,FFFFFF,10827,040190046432045,10,15925,401,Rancho Vistoso/Pusch Mountain View,48059
32.48258,28903B,-110.921869,FFFFFF,10827,040190047152010,11,15964,401,Oracle/Golder Ranch Dr,42614
32.453419,6A2D3B,-111.191834,FFFFFF,10828,040190046381016,1,16075,410,Grier Rd/Coach Spring Dr,80274
32.45879,6A2D3B,-111.209337,FFFFFF,10828,040190046381040,2,16076,410,Adonis Rd/Amole Ci,80274
32.460011,6A2D3B,-111.217059,FFFFFF,10828,040190044302044,3,16192,410,Sandario Rd/Trico Marana Rd,55926
32.449121,6A2D3B,-111.212168,FFFFFF,10828,040190044302046,4,16077,410,Marana Main/Civic Center,55926
32.437212,6A2D3B,-111.233685,FFFFFF,10828,040190044312047,5,16073,410,Swanson St/Sanders Rd,38527
32.460562,6A2D3B,-111.234465,FFFFFF,10828,040190044302005,6,16191,410,Trico-Marana Rd/Sanders Rd,55926
32.43142,6A2D3B,-111.304325,FFFFFF,10828,040190044192039,7,16190,410,Trico Rd/El Tiro Rd,54915
32.462026,6A2D3B,-111.344816,FFFFFF,10828,040190044193041,8,16070,410,Cocio Rd/El Cerrito Ln,54915
32.378981,6A2D3B,-111.321185,FFFFFF,10828,040190044191048,9,16069,410,Anway Rd/Avra Valley Rd,54915
32.353352,D26EA8,-111.092355,FFFFFF,10829,040190044261006,1,14917,411,Arizona Pavilions/Cortaro Road,72876
32.355611,D26EA8,-111.089694,FFFFFF,10829,040190044261004,2,15014,411,Cortaro Rd/Arizona Pavilions Dr,72876
32.350322,D26EA8,-111.100385,FFFFFF,10829,040190044261010,3,16023,411,Silverbell/Cortaro Rd,72876
32.354622,D26EA8,-111.11005,FFFFFF,10829,040190044261010,4,16024,411,Silverbell/Nueva Vista,72876
32.359565,D26EA8,-111.114945,FFFFFF,10829,040190044261017,5,16026,411,Silverbell/Somerton Dr,72876
32.372593,D26EA8,-111.136818,FFFFFF,10829,040190044271059,6,16028,411,Silverbell/Twin Peaks,68651
32.377224,D26EA8,-111.131828,FFFFFF,10829,040190044271018,7,16042,411,Sunflower Park/Sunflower Ridge,68651
32.374791,D26EA8,-111.127588,FFFFFF,10829,040190044271059,8,16193,411,Coachline/Twin Peaks,68651
32.367874,D26EA8,-111.121984,FFFFFF,10829,040190044272018,9,15970,411,Coachline/Rivulet Dr,68651
32.42587,0054A4,-111.045136,FFFFFF,10830,040190046381147,1,16032,412,Tangerine/Thornydale,80274
32.380633,0054A4,-111.046946,FFFFFF,10830,040190046441000,2,16033,412,Thornydale/Linda Vista Bl,65662
32.358882,0054A4,-111.047028,FFFFFF,10830,040190046462000,3,16034,412,Thornydale/Cortaro Farms Rd,53816
32.344529,0054A4,-111.047014,FFFFFF,10830,040190046471012,4,16035,412,Thornydale/Massingale Rd,65481
32.336829,0054A4,-111.047084,FFFFFF,10830,040190046132000,5,14155,412,Thornydale/Ina Rd,70099
32.335372,0054A4,-111.049821,FFFFFF,10830,040190046132000,6,159,412,Lowe's/Ina,70099
32.330278,0054A4,-111.046362,FFFFFF,10830,040190046132010,7,15977,412,Thornydale/Horizon Hills Dr,70099
32.323136,0054A4,-111.043865,FFFFFF,10830,040190046133010,8,14983,412,Orange Grove/Thornydale,70099
32.323085,0054A4,-111.037032,FFFFFF,10830,040190046102001,9,14985,412,Orange Grove/Cmo de la Tierra,51875
32.312812,0054A4,-111.028687,FFFFFF,10830,040190046103005,10,14964,412,Shannon/Master Pieces Dr,51875
32.309764,0054A4,-111.02888,FFFFFF,10830,040190046103016,11,15015,412,River/Shannon,51875
32.307933,0054A4,-111.025228,FFFFFF,10830,040190046103021,12,16103,412,River/Sunset,51875
32.305012,0054A4,-111.011735,FFFFFF,10830,040190046161034,13,16105,412,River/La Cholla,50294
32.297305,0054A4,-110.9947,FFFFFF,10830,040190046181007,14,14483,412,River/La Canada,76250
32.297464,0054A4,-110.990449,FFFFFF,10830,040190046181007,15,14569,412,River/Hansen,76250
32.297359,0054A4,-110.983343,FFFFFF,10830,040190046181006,16,16108,412,River/River Crossing Ln,76250
32.29715,0054A4,-110.977357,FFFFFF,10830,040190047102019,17,12236,412,River/Oracle,25000
32.295683,0054A4,-110.971248,FFFFFF,10830,040190047102010,18,12902,412,Stone/River,25000
32.288622,0054A4,-110.967882,FFFFFF,10830,040190045101007,19,16013,412,Tohono Transit Center,10829
32.448969,72AA74,-111.212276,FFFFFF,10831,040190044302039,1,16198,413,Marana Main/Civic Center,55926
32.453044,72AA74,-111.208381,FFFFFF,10831,040190044302025,2,16098,413,Lon Adams/Grier Rd,55926
32.454405,72AA74,-111.216946,FFFFFF,10831,040190044302042,3,15587,413,Sandario Rd/Grier Rd,55926
32.415527,72AA74,-111.154006,FFFFFF,10831,040190044312076,4,16078,413,Water St/Campbell St,38527
32.353352,72AA74,-111.092355,FFFFFF,10831,040190044261006,5,14917,413,Arizona Pavilions/Cortaro Road,72876
32.33742,72AA74,-111.055138,FFFFFF,10831,040190046132001,6,272,413,Ina/Oldfather,70099
32.335372,72AA74,-111.049821,FFFFFF,10831,040190046132000,7,159,413,Lowe's/Ina,70099
31.85856,5C1100,-110.977676,FFFFFF,10832,040190041191171,1,15983,421,Park Centre Av/Continental Rd,72767
31.867585,5C1100,-110.993655,FFFFFF,10832,040190043173013,2,15982,421,Trader Ln/Front St,41625
31.91139,5C1100,-110.98241,FFFFFF,10832,040190043261059,3,15978,421,Nogales Hy/Abrego Dr,61679
31.956824,5C1100,-110.974133,FFFFFF,10832,040190043261003,4,15979,421,Sahuarita Rd/Desert Gem,61679
31.96004,5C1100,-110.983321,FFFFFF,10832,040190043291066,5,15989,421,Rancho Sahuarita Bl/Sahuarita Rd,85197
32.004595,5C1100,-110.98827,FFFFFF,10832,040199409001067,6,15999,421,Pima Mine Rd/I-19,27121
32.162997,5C1100,-110.971425,FFFFFF,10832,040190038024000,7,14226,421,Laos Transit Center,22560
32.222081,5C1100,-110.968373,FFFFFF,10832,040190001001001,8,14516,421,Congress/6th Av,23125
32.170073,A1A234,-111.063121,FFFFFF,10833,040190043331000,1,16058,430,C Don Miguel/Cmo de Oeste,63283
32.177458,A1A234,-111.079148,FFFFFF,10833,040190044221016,2,16059,430,Kinney Rd/Bopp Rd,60872
32.186743,A1A234,-111.091524,FFFFFF,10833,040190044042029,3,16060,430,Western Way Ci/Kinney Rd,49702
32.177349,A1A234,-111.101699,FFFFFF,10833,040190044212005,4,16061,430,Bopp Rd/Thornton(Donald),41098
32.177239,A1A234,-111.145022,FFFFFF,10833,040190044211039,5,16062,430,Bopp Rd/San Joaquin Rd,41098
32.10665,9D4D0A,-111.008993,FFFFFF,10834,040199409001109,1,16084,440,San Xavier/Little Nogales,27121
32.090495,9D4D0A,-111.005392,FFFFFF,10834,040199409001120,2,16086,440,Little Nogales Dr/Campus Dr,27121
32.091546,9D4D0A,-111.021626,FFFFFF,10834,040199409001085,3,16087,440,Campus Dr/Mission Rd,27121
32.106987,9D4D0A,-111.018828,FFFFFF,10834,040199409001129,4,16109,440,Mission/San Xavier,27121
32.133757,9D4D0A,-111.015409,FFFFFF,10834,040199409001005,5,11105,440,Valencia/Mission,27121
32.13368,9D4D0A,-110.997962,FFFFFF,10834,040190025062032,6,230,440,Valencia/Midvale Park Rd,45793
32.135143,9D4D0A,-110.977545,FFFFFF,10834,040190037042017,7,12102,440,12th Av/Valencia,38525
32.162997,9D4D0A,-110.971425,FFFFFF,10834,040190038024000,8,14226,440,Laos Transit Center,22560
32.090865,C1272D,-110.80829,FFFFFF,10835,040190040732068,1,14846,450,UA Technology Park,77578
32.100772,C1272D,-110.80085,FFFFFF,10835,040190040741017,2,15947,450,Old Vail Rd/Rita Rd,67452
32.091881,C1272D,-110.782619,FFFFFF,10835,040190040741018,3,15026,450,Old Vail Rd Park & Ride,67452
32.100648,C1272D,-110.800032,FFFFFF,10835,040190040741008,4,15944,450,Old Vail Rd/Rita Rd,67452
32.116974,C1272D,-110.797309,FFFFFF,10835,040190040732036,5,14905,450,Nexus/LaPalma Dr,77578
32.103046,C1272D,-110.772636,FFFFFF,10835,040190040621000,6,14847,450,Houghton/Rita,73269
32.119334,C1272D,-110.77259,FFFFFF,10835,040190040631063,7,16147,450,Houghton/Valencia,74763
32.140641,C1272D,-110.770172,FFFFFF,10835,040190040631077,8,16148,450,Bilby/Courtland,74763
32.155466,C1272D,-110.771947,FFFFFF,10835,040190040631005,9,16149,450,Seven Generations/Thunder Sky,74763
32.166109,C1272D,-110.815521,FFFFFF,10835,040190040583001,10,34,450,Pima College East Campus,75476
32.168305,C1272D,-110.818889,FFFFFF,10835,040190040583001,11,16167,450,Poinciana/Clements Center,75476
32.168596,C1272D,-110.823763,FFFFFF,10835,040190040583001,12,12613,450,Pantano/Poinciana,75476
32.172455,C1272D,-110.82376,FFFFFF,10835,040190040583001,13,12614,450,Pantano/Dogwood,75476
32.177464,C1272D,-110.824255,FFFFFF,10835,040190040381013,14,16041,450,Escalante/Pantano,46463
32.191569,C1272D,-110.838543,FFFFFF,10835,040190040372007,15,11776,450,Golf Links/Park & Ride (inside),63083
32.248837,566C11,-110.840989,FFFFFF,10837,040190040321000,1,85,5,Sabino Canyon/Tanque Verde,49125
32.250925,566C11,-110.841251,FFFFFF,10837,040190040301020,2,82,5,Tanque Verde/Sabino Canyon,82337
32.25072,566C11,-110.845711,FFFFFF,10837,040190040301025,3,13395,5,Tanque Verde/Indian Ruins,82337
32.247988,566C11,-110.850368,FFFFFF,10837,040190030033000,4,13396,5,Tanque Verde/Grant,30227
32.245182,566C11,-110.854659,FFFFFF,10837,040190030033000,5,15047,5,Tanque Verde/6445 Tanque Verde Rd,30227
32.243422,566C11,-110.858594,FFFFFF,10837,040190030033001,6,14787,5,Pima/Wilmot,30227
32.243448,566C11,-110.862103,FFFFFF,10837,040190030033001,7,14875,5,Pima/Alamo,30227
32.243522,566C11,-110.86722,FFFFFF,10837,040190030032024,8,12973,5,Pima/Sahuara,30227
32.243496,566C11,-110.871515,FFFFFF,10837,040190030031013,9,12974,5,Pima/Van Buren,30227
32.243508,566C11,-110.875945,FFFFFF,10837,040190030031002,10,12975,5,Pima/Craycroft,30227
32.243495,566C11,-110.880137,FFFFFF,10837,040190029043023,11,12963,5,Pima/Beverly,59816
32.243496,566C11,-110.883774,FFFFFF,10837,040190029043026,12,12977,5,Pima/Rosemont,59816
32.243485,566C11,-110.885957,FFFFFF,10837,040190029043019,13,12978,5,Pima/Santa Rosa,59816
32.243479,566C11,-110.888684,FFFFFF,10837,040190029043029,14,12979,5,Pima/Arcadia,59816
32.243478,566C11,-110.893035,FFFFFF,10837,040190029012011,15,12980,5,Pima/Swan,29872
32.243505,566C11,-110.897249,FFFFFF,10837,040190029012012,16,12981,5,Pima/Belvedere,29872
32.243454,566C11,-110.901525,FFFFFF,10837,040190029013016,17,12982,5,Pima/Columbus,29872
32.243474,566C11,-110.90596,FFFFFF,10837,040190029013019,18,12983,5,Pima/Desmond,29872
32.243463,566C11,-110.909953,FFFFFF,10837,040190018011015,19,53,5,Pima/Alvernon,34865
32.243411,566C11,-110.914483,FFFFFF,10837,040190018011009,20,12984,5,Pima/Dodge,34865
32.243425,566C11,-110.918613,FFFFFF,10837,040190018012012,21,12985,5,Pima/Palo Verde,34865
32.243371,566C11,-110.922805,FFFFFF,10837,040190018012014,22,12986,5,Pima/Howard,34865
32.243315,566C11,-110.927219,FFFFFF,10837,040190016001015,23,12987,5,Elm/Country Club,40900
32.243293,566C11,-110.93151,FFFFFF,10837,040190016001018,24,12988,5,Elm/Treat,40900
32.242599,566C11,-110.935379,FFFFFF,10837,040190016002027,25,12989,5,Tucson Bl/Elm,40900
32.239462,566C11,-110.935386,FFFFFF,10837,040190006001001,26,12991,5,Tucson Bl/Drachman,39000
32.236191,566C11,-110.93592,FFFFFF,10837,040190006001017,27,11155,5,Speedway/Tucson,39000
32.23622,566C11,-110.940015,FFFFFF,10837,040190006001020,28,11156,5,Speedway/Plumer,39000
32.236178,566C11,-110.944438,FFFFFF,10837,040190006001023,29,41,5,Speedway/Campbell,39000
32.236135,566C11,-110.947087,FFFFFF,10837,040190005006000,30,11157,5,Speedway/Warren Underpass,
32.236092,566C11,-110.951134,FFFFFF,10837,040190005006003,31,11344,5,Speedway/Highland Underpass,
32.236157,566C11,-110.95533,FFFFFF,10837,040190005006006,32,11161,5,Speedway/Olive Underpass,
32.236136,566C11,-110.960148,FFFFFF,10837,040190005006010,33,11163,5,Speedway/Euclid,
32.236001,566C11,-110.962964,FFFFFF,10837,040190004002015,34,11164,5,Speedway/2nd Av,31328
32.236042,566C11,-110.965911,FFFFFF,10837,040190004002013,35,11165,5,Speedway/4th Av,31328
32.235993,566C11,-110.968584,FFFFFF,10837,040190004002012,36,11166,5,Speedway/6th Av,31328
32.236076,566C11,-110.972246,FFFFFF,10837,040190004002008,37,12570,5,Speedway/Stone,31328
32.236041,566C11,-110.975083,FFFFFF,10837,040190003001000,38,12571,5,Speedway/10th Av,16111
32.235947,566C11,-110.97838,FFFFFF,10837,040190003002009,39,12572,5,Speedway/Main,16111
32.235707,566C11,-110.988858,FFFFFF,10837,040190012001010,40,12573,5,Speedway/Columbia,28450
32.235709,566C11,-110.990545,FFFFFF,10837,040190012001010,41,226,5,Speedway/Grande,28450
32.235809,566C11,-110.994354,FFFFFF,10837,040190012001042,42,11712,5,Speedway/Riverview,28450
32.235786,566C11,-110.99759,FFFFFF,10837,040190012001042,43,11713,5,Speedway/Cherokee,28450
32.235757,566C11,-110.999861,FFFFFF,10837,040190012001042,44,11714,5,Speedway/Seminole,28450
32.235743,566C11,-111.001739,FFFFFF,10837,040190012002014,45,11715,5,Speedway/El Rio,28450
32.235712,566C11,-111.005151,FFFFFF,10837,040190044141010,46,12578,5,Speedway/Silverbell,53586
32.236067,566C11,-111.015469,FFFFFF,10837,040190044141010,47,14855,5,Speedway/Falcon Ridge Dr.,53586
32.235495,566C11,-111.02165,FFFFFF,10837,040190044111026,48,12580,5,Greasewood/Speedway,87511
32.226321,566C11,-111.020344,FFFFFF,10837,040190044111026,49,14758,5,Greasewood/Anklam,87511
32.226583,566C11,-111.016596,FFFFFF,10837,040190044152002,50,16152,5,Pima College West Campus,28264
32.162552,568F84,-110.971329,FFFFFF,10838,040190038024000,1,14220,50,Laos Transit Center,22560
32.162953,568F84,-110.973202,FFFFFF,10838,040190038024000,2,14823,50,Liberty/Irvington,22560
32.163709,568F84,-110.968052,FFFFFF,10838,040190024003009,3,10926,50,6th Av/Irvington,27852
32.165405,568F84,-110.968078,FFFFFF,10838,040190024003009,4,10927,50,6th Av/Oklahoma,27852
32.168589,568F84,-110.968109,FFFFFF,10838,040190024003013,5,10928,50,6th Av/Illinois,27852
32.170158,568F84,-110.968115,FFFFFF,10838,040190024003013,6,10929,50,6th Av/Michigan,27852
32.173801,568F84,-110.968131,FFFFFF,10838,040190024005015,7,10930,50,6th Av/District,27852
32.177899,568F84,-110.968631,FFFFFF,10838,040190024002000,8,11561,50,Ajo/6th Av,27852
32.177884,568F84,-110.974071,FFFFFF,10838,040190024002004,9,13030,50,Ajo/Liberty,27852
32.177938,568F84,-110.978155,FFFFFF,10838,040190025011034,10,13031,50,Ajo/12th Av,20234
32.177901,568F84,-110.98143,FFFFFF,10838,040190025011032,11,13032,50,Ajo/16th Av,20234
32.17794,568F84,-110.991732,FFFFFF,10838,040190025033000,12,13033,50,Ajo/Cottonwood,37404
32.177938,568F84,-110.994218,FFFFFF,10838,040190025033006,13,13034,50,Ajo/Holiday Isle Blvd,37404
32.177953,568F84,-110.996517,FFFFFF,10838,040190025033017,14,13035,50,Ajo/Phoebe,37404
32.177946,568F84,-110.999244,FFFFFF,10838,040190025033001,15,13036,50,Ajo/Freedom Drive,37404
32.177506,568F84,-111.003405,FFFFFF,10838,040190043102000,16,200,50,Mission/Ajo,47684
32.177795,568F84,-111.006449,FFFFFF,10838,040190043102000,17,13038,50,Ajo/Cook,47684
32.177717,568F84,-111.00269,FFFFFF,10838,040190025041012,18,268,50,Ajo/Mission,20043
32.162015,AAC02A,-110.971527,FFFFFF,10839,040190038024000,1,14755,6,Laos Transit Center,22560
32.163151,AAC02A,-110.967651,FFFFFF,10839,040190038021002,2,12633,6,Irvington/6th Av,22560
32.163163,AAC02A,-110.964437,FFFFFF,10839,040190038021002,3,12634,6,Irvington/3rd Av,22560
32.163247,AAC02A,-110.960682,FFFFFF,10839,040190037061001,4,12635,6,Irvington/1st Av,17656
32.163866,AAC02A,-110.956064,FFFFFF,10839,040190022011040,5,13054,6,Park/Irvington,24870
32.167951,AAC02A,-110.956145,FFFFFF,10839,040190022011032,6,13055,6,Park/Ohio,24870
32.172633,AAC02A,-110.956143,FFFFFF,10839,040190022011022,7,330,6,Park/Sun Tran,24870
32.175473,AAC02A,-110.956207,FFFFFF,10839,040190022011021,8,13057,6,Park/Palmdale,24870
32.178281,AAC02A,-110.956155,FFFFFF,10839,040190022011017,9,58,6,Park/Ajo,24870
32.188298,AAC02A,-110.956228,FFFFFF,10839,040190022022016,10,13058,6,Park/Tucson Marketplace,26099
32.193418,AAC02A,-110.95606,FFFFFF,10839,040190022022014,11,13060,6,Park/35th St,26099
32.194882,AAC02A,-110.956023,FFFFFF,10839,040190022022010,12,13061,6,Park/34rd St,26099
32.197437,AAC02A,-110.956042,FFFFFF,10839,040190022021046,13,13062,6,Park/31st St,26099
32.199857,AAC02A,-110.956129,FFFFFF,10839,040190022021026,14,13063,6,Park/Silverlake,26099
32.203135,AAC02A,-110.956135,FFFFFF,10839,040190022021012,15,13064,6,Park/25th St,26099
32.206479,AAC02A,-110.956121,FFFFFF,10839,040190008001065,16,14017,6,Park/22nd St,34698
32.207152,AAC02A,-110.956123,FFFFFF,10839,040190008001062,17,14864,6,Park/22nd St,34698
32.211181,AAC02A,-110.956162,FFFFFF,10839,040190008001019,18,14370,6,Park/19th St,34698
32.219387,AAC02A,-110.959293,FFFFFF,10839,040190008002031,19,14726,6,Euclid/12th St,34698
32.22152,AAC02A,-110.959897,FFFFFF,10839,040190008002022,20,10925,6,Broadway/Euclid,34698
32.223375,AAC02A,-110.968582,FFFFFF,10839,040190001001001,21,42,6,6th Av/Pennington,23125
32.221165,AAC02A,-110.965693,FFFFFF,10839,040190001001010,22,10861,6,Broadway/4th Av,23125
32.221759,AAC02A,-110.959343,FFFFFF,10839,040190008002023,23,13604,6,Euclid/Broadway,34698
32.224077,AAC02A,-110.959362,FFFFFF,10839,040190005007013,24,13079,6,Euclid/9th St,
32.228305,AAC02A,-110.959311,FFFFFF,10839,040190005007001,25,60,6,Euclid/6th St,
32.23195,AAC02A,-110.959389,FFFFFF,10839,040190005006030,26,13080,6,Euclid/University,
32.234487,AAC02A,-110.959325,FFFFFF,10839,040190005006012,27,13081,6,Euclid/1st St,
32.236402,AAC02A,-110.959386,FFFFFF,10839,040190005006009,28,13082,6,Euclid/Speedway,
32.239787,AAC02A,-110.959426,FFFFFF,10839,040190014002014,29,14368,6,Euclid/Drachman,37188
32.243713,AAC02A,-110.959469,FFFFFF,10839,040190014002001,30,13084,6,Euclid/Lester,37188
32.246894,AAC02A,-110.959481,FFFFFF,10839,040190014001014,31,13085,6,Euclid/Seneca,37188
32.250746,AAC02A,-110.960875,FFFFFF,10839,040190014001007,32,12084,6,1st Av/Grant,37188
32.254624,AAC02A,-110.960807,FFFFFF,10839,040190014001000,33,13087,6,1st Av/Copper,37188
32.257899,AAC02A,-110.960812,FFFFFF,10839,040190026023007,34,13088,6,1st Av/Glenn,37031
32.261559,AAC02A,-110.960893,FFFFFF,10839,040190026023006,35,13089,6,1st Av/Blacklidge,37031
32.265489,AAC02A,-110.960899,FFFFFF,10839,040190026023003,36,343,6,1st Av/Ft Lowell,37031
32.267673,AAC02A,-110.960916,FFFFFF,10839,040190026023001,37,13090,6,1st Av/Halcyon,37031
32.270045,AAC02A,-110.960924,FFFFFF,10839,040190026024003,38,13091,6,1st Av/Graybill,37031
32.271674,AAC02A,-110.960896,FFFFFF,10839,040190026024003,39,12895,6,1st Av/Prince,37031
32.274851,AAC02A,-110.960933,FFFFFF,10839,040190026022000,40,12896,6,1st Av/Rillito Apts,37031
32.27962,AAC02A,-110.960974,FFFFFF,10839,040190045111004,41,12897,6,1st Av/Roger,21974
32.283275,AAC02A,-110.960992,FFFFFF,10839,040190045101000,42,13095,6,1st Av/Limberlost,10829
32.286662,AAC02A,-110.962879,FFFFFF,10839,040190045101007,43,13096,6,Wetmore/Carls Jr,10829
32.286629,AAC02A,-110.966988,FFFFFF,10839,040190045101007,44,13098,6,Wetmore/Stanley Pl,10829
32.288886,AAC02A,-110.968402,FFFFFF,10839,040190045101007,45,14236,6,Tohono Transit Center,10829
32.288883,8A1F03,-110.967996,FFFFFF,10841,040190045101007,1,14756,61,Tohono Transit Center,10829
32.290148,8A1F03,-110.979145,FFFFFF,10841,040190045082009,2,11321,61,Auto Mall Dr/Oracle,31107
32.290111,8A1F03,-110.983468,FFFFFF,10841,040190045082008,3,16157,61,Auto Mall Dr/Auto Sprint Rd,31107
32.286698,8A1F03,-110.987412,FFFFFF,10841,040190045082010,4,11324,61,Wetmore/Auto Mall Dr,31107
32.286835,8A1F03,-110.991788,FFFFFF,10841,040190045082004,5,11325,61,Wetmore/Lake,31107
32.286877,8A1F03,-110.995512,FFFFFF,10841,040190045122014,6,11326,61,Wetmore/Flowing Wells,37407
32.286977,8A1F03,-110.999673,FFFFFF,10841,040190045122026,7,11327,61,Wetmore/Pomona,37407
32.28856,8A1F03,-111.002695,FFFFFF,10841,040190045122022,8,14881,61,Ruthrauff/Romero,37407
32.292153,8A1F03,-111.00383,FFFFFF,10841,040190045122019,9,14882,61,Ruthrauff/Seabrooke,37407
32.294237,8A1F03,-111.006895,FFFFFF,10841,040190045122000,10,14883,61,Ruthrauff/Shamrock,37407
32.29467,8A1F03,-111.011977,FFFFFF,10841,040190045122005,11,11946,61,La Cholla/Ruthrauff,37407
32.297837,8A1F03,-111.011963,FFFFFF,10841,040190045122000,12,14749,61,La Cholla/Jay Av,37407
32.30094,8A1F03,-111.01194,FFFFFF,10841,040190045122000,13,14617,61,La Cholla/Curtis,37407
32.30548,8A1F03,-111.012044,FFFFFF,10841,040190046161014,14,14752,61,La Cholla/River Rd,50294
32.308938,8A1F03,-111.012055,FFFFFF,10841,040190046161004,15,11947,61,La Cholla/Sunset,50294
32.312508,8A1F03,-111.012075,FFFFFF,10841,040190046161010,16,14780,61,La Cholla/OracleJaynesStation,50294
32.316004,8A1F03,-111.012113,FFFFFF,10841,040190046161009,17,14799,61,La Cholla/Rudasill,50294
32.319657,8A1F03,-111.01211,FFFFFF,10841,040190046161008,18,14716,61,La Cholla/Hospital Dr.,50294
32.323706,8A1F03,-111.012209,FFFFFF,10841,040190046281008,19,11948,61,La Cholla/Orange Grove,59408
32.329754,8A1F03,-111.012948,FFFFFF,10841,040190046281007,20,14615,61,La Cholla/Labriego,59408
32.333076,8A1F03,-111.01292,FFFFFF,10841,040190046151007,21,14747,61,La Cholla/Omar,96985
32.337373,8A1F03,-111.01313,FFFFFF,10841,040190046262000,22,271,61,Ina/La Cholla,48831
32.33741,8A1F03,-111.018246,FFFFFF,10841,040190046262000,23,11359,61,Ina/2300 W Ina Road WB,48831
32.337424,8A1F03,-111.022462,FFFFFF,10841,040190046261003,24,12183,61,Ina/Crystal Cave,48831
32.337429,8A1F03,-111.024995,FFFFFF,10841,040190046261003,25,11951,61,Ina/Shama Wing,48831
32.337865,8A1F03,-111.029441,FFFFFF,10841,040190046261000,26,14829,61,Shannon/Ina,48831
32.344751,8A1F03,-111.028846,FFFFFF,10841,040190046261000,27,14830,61,Shannon/Pima College Northwest,48831
32.346474,8A1F03,-111.026216,FFFFFF,10841,040190046261000,28,14831,61,Shannon/YMCA,48831
32.347086,8A1F03,-111.019976,FFFFFF,10841,040190046262006,29,16209,61,Magee/Mona Lisa,48831
32.347113,8A1F03,-111.014195,FFFFFF,10841,040190046262000,30,14788,61,Magee/La Cholla,48831
32.343308,8A1F03,-111.012926,FFFFFF,10841,040190046262000,31,14631,61,La Cholla/Foothills Mall Dr,48831
32.206469,008066,-110.790115,000000,10842,040190040492013,1,14533,7,22nd St/Harrison,39595
32.206388,008066,-110.795301,000000,10842,040190040492013,2,14534,7,22nd St/Brown,39595
32.206449,008066,-110.800083,000000,10842,040190040492017,3,14535,7,22nd St/Oak Park,39595
32.206513,008066,-110.80721,000000,10842,040190040702000,4,14536,7,22nd St/Cmo Seco,65777
32.206514,008066,-110.811538,000000,10842,040190040702004,5,13335,7,22nd St/Lusk,65777
32.206504,008066,-110.815664,000000,10842,040190040693007,6,12366,7,22nd St/Sarnoff,29978
32.206514,008066,-110.817934,000000,10842,040190040693007,7,13337,7,22nd St/Sherwood Village Dr,29978
32.206548,008066,-110.824181,000000,10842,040190040694014,8,11866,7,22nd St/Pantano Pkwy,29978
32.20662,008066,-110.828408,000000,10842,040190040102005,9,13338,7,22nd St/Pantano Rd,30000
32.206628,008066,-110.833241,000000,10842,040190040103013,10,11867,7,22nd St/Prudence,30000
32.206633,008066,-110.837175,000000,10842,040190040103011,11,13341,7,22nd St/Turquoise,30000
32.20664,008066,-110.841678,000000,10842,040190033022014,12,11868,7,22nd St/Kolb,47778
32.20667,008066,-110.845267,000000,10842,040190033022008,13,13344,7,22nd St/Carnegie Dr,47778
32.206658,008066,-110.850646,000000,10842,040190033022004,14,13345,7,22nd St/Fordham,47778
32.206633,008066,-110.855121,000000,10842,040190033023014,15,13346,7,22nd St/Amherst,47778
32.206884,008066,-110.858354,000000,10842,040190035025007,16,70,7,22nd St/Wilmot,22500
32.207081,008066,-110.862595,000000,10842,040190035025010,17,13347,7,22nd St/Alamo,22500
32.207051,008066,-110.867512,000000,10842,040190035024008,18,13348,7,22nd St/Colonia,22500
32.207028,008066,-110.870285,000000,10842,040190035024008,19,13349,7,22nd St/Van Buren,22500
32.207076,008066,-110.876059,000000,10842,040190035022000,20,304,7,22nd St/Craycroft,22500
32.207059,008066,-110.881415,000000,10842,040190035023007,21,13352,7,22nd St/Magnolia,22500
32.207089,008066,-110.890093,000000,10842,040190035023007,22,13354,7,22nd St/Mountain View,22500
32.207056,008066,-110.892801,000000,10842,040190035011009,23,13355,7,22nd St/Swan,16458
32.207141,008066,-110.897391,000000,10842,040190035011004,24,13356,7,22nd St/Belvedere,16458
32.207085,008066,-110.901521,000000,10842,040190035012000,25,13357,7,22nd St/Columbus,16458
32.207123,008066,-110.905476,000000,10842,040190035012002,26,13358,7,22nd St/Irving,16458
32.207114,008066,-110.910221,000000,10842,040190019002010,27,74,7,22nd St/Alvernon,40919
32.20714,008066,-110.913877,000000,10842,040190019002010,28,13359,7,22nd St/Dodge,40919
32.207119,008066,-110.917901,000000,10842,040190019002010,29,11833,7,22nd St/Randolph Way,40919
32.207135,008066,-110.920572,000000,10842,040190019002042,30,11834,7,22nd St/Jones,40919
32.207021,008066,-110.927024,000000,10842,040190020007004,31,13362,7,22nd St/Country Club,32431
32.206962,008066,-110.93131,000000,10842,040190020007006,32,13363,7,22nd St/Treat,32431
32.206996,008066,-110.935357,000000,10842,040190020006019,33,13364,7,22nd St/Tucson,32431
32.206979,008066,-110.953389,000000,10842,040190008001063,34,10922,7,22nd St/Santa Rita,34698
32.206949,008066,-110.956576,000000,10842,040190008001061,35,10923,7,22nd St/Park,34698
32.206934,008066,-110.959653,000000,10842,040190008001058,36,13367,7,22nd St/Euclid,34698
32.206955,008066,-110.964198,000000,10842,040190008001069,37,16161,7,22nd St/3rd Av,34698
32.20693,008066,-110.968775,000000,10842,040190009002031,38,13369,7,22nd St/6th Av,27616
32.206859,008066,-110.972695,000000,10842,040190009002016,39,13370,7,22nd St/Meyer Av,27616
32.209145,008066,-110.974576,000000,10842,040190009002016,40,14876,7,10th Av/20th St,27616
32.211012,008066,-110.974632,000000,10842,040190009001046,41,12132,7,10th Av/19th St,27616
32.213282,008066,-110.974248,000000,10842,040190010001026,42,12133,7,Main/17th St,43542
32.216808,008066,-110.97415,000000,10842,040190010001022,43,13434,7,Cushing/Main,43542
32.219744,008066,-110.972391,000000,10842,040190001002023,44,14797,7,Church/Ochoa,23125
32.222474,008066,-110.968219,000000,10842,040190001001001,45,28,7,Downtown Ronstadt Center,23125
32.162787,CE1141,-110.97155,FFFFFF,10844,040190038024000,1,14223,8,Laos Transit Center,22560
32.163709,CE1141,-110.968052,FFFFFF,10844,040190024003009,2,10926,8,6th Av/Irvington,27852
32.165405,CE1141,-110.968078,FFFFFF,10844,040190024003009,3,10927,8,6th Av/Oklahoma,27852
32.168589,CE1141,-110.968109,FFFFFF,10844,040190024003013,4,10928,8,6th Av/Illinois,27852
32.170158,CE1141,-110.968115,FFFFFF,10844,040190024003013,5,10929,8,6th Av/Michigan,27852
32.173801,CE1141,-110.968131,FFFFFF,10844,040190024005015,6,10930,8,6th Av/District,27852
32.176551,CE1141,-110.968097,FFFFFF,10844,040190024005002,7,10931,8,6th Av/President,27852
32.178202,CE1141,-110.968172,FFFFFF,10844,040190024004033,8,11060,8,6th Av/Ajo,27852
32.181792,CE1141,-110.9682,FFFFFF,10844,040190024004033,9,13461,8,6th Av/Veterans,27852
32.185403,CE1141,-110.968208,FFFFFF,10844,040190024004025,10,13462,8,6th Av/44th St,27852
32.189814,CE1141,-110.968214,FFFFFF,10844,040190023002015,11,13463,8,6th Av/39th St,30208
32.192723,CE1141,-110.968292,FFFFFF,10844,040190023002008,12,13464,8,6th Av/36th St,30208
32.195417,CE1141,-110.968274,FFFFFF,10844,040190023003017,13,13465,8,6th Av/33rd St,30208
32.197907,CE1141,-110.968275,FFFFFF,10844,040190023003010,14,13466,8,6th Av/31st St,30208
32.199712,CE1141,-110.968349,FFFFFF,10844,040190023003006,15,76,8,6th Av/29th St,30208
32.202761,CE1141,-110.968371,FFFFFF,10844,040190023003001,16,13467,8,6th Av/26th St,30208
32.2072,CE1141,-110.968533,FFFFFF,10844,040190009002031,17,13469,8,6th Av/22nd St,27616
32.209752,CE1141,-110.968363,FFFFFF,10844,040190009002011,18,13470,8,6th Av/20th St,27616
32.213638,CE1141,-110.968453,FFFFFF,10844,040190009001027,19,13472,8,6th Av/17th St,27616
32.216097,CE1141,-110.968495,FFFFFF,10844,040190009001008,20,16100,8,6th Av/15th St,27616
32.219596,CE1141,-110.968502,FFFFFF,10844,040190001002027,21,13474,8,6th Av/12th St,23125
32.222968,CE1141,-110.968115,FFFFFF,10844,040190001001001,22,14203,8,Downtown Ronstadt Center,23125
32.221165,CE1141,-110.965693,FFFFFF,10844,040190001001010,23,10861,8,Broadway/4th Av,23125
32.22122,CE1141,-110.959211,FFFFFF,10844,040190008002029,24,13481,8,Broadway/Euclid,34698
32.221257,CE1141,-110.954744,FFFFFF,10844,040190007003009,25,13482,8,Broadway/Fremont,45238
32.221289,CE1141,-110.950649,FFFFFF,10844,040190007003011,26,13483,8,Broadway/Highland,45238
32.221303,CE1141,-110.947657,FFFFFF,10844,040190007003013,27,13484,8,Broadway/Cherry,45238
32.221345,CE1141,-110.943487,FFFFFF,10844,040190007004010,28,13485,8,Broadway/Campbell,45238
32.221366,CE1141,-110.939084,FFFFFF,10844,040190007004008,29,13486,8,Broadway/Plumer,45238
32.221397,CE1141,-110.934766,FFFFFF,10844,040190019003033,30,13487,8,Broadway/Tucson,40919
32.221375,CE1141,-110.930524,FFFFFF,10844,040190019003031,31,13488,8,Broadway/Treat,40919
32.221425,CE1141,-110.926237,FFFFFF,10844,040190019002020,32,13490,8,Broadway/Country Club,40919
32.221466,CE1141,-110.917685,FFFFFF,10844,040190019002010,33,78,8,Broadway/Randolph Way,40919
32.221399,CE1141,-110.914103,FFFFFF,10844,040190019002010,34,13491,8,Broadway/Dodge,40919
32.221436,CE1141,-110.909156,FFFFFF,10844,040190034005012,35,11008,8,Broadway/Alvernon,66413
32.221444,CE1141,-110.905615,FFFFFF,10844,040190034005013,36,13493,8,Broadway/Irving,66413
32.221378,CE1141,-110.900553,FFFFFF,10844,040190034005018,37,13494,8,Broadway/Columbus,66413
32.221321,CE1141,-110.895722,FFFFFF,10844,040190034005018,38,13495,8,Broadway/Belvedere,66413
32.221392,CE1141,-110.891927,FFFFFF,10844,040190034001001,39,307,8,Broadway/Swan,66413
32.221506,CE1141,-110.886898,FFFFFF,10844,040190034001000,40,13498,8,Broadway/Niven,66413
32.221483,CE1141,-110.883275,FFFFFF,10844,040190033043002,41,13499,8,Broadway/Rosemont,21496
32.221451,CE1141,-110.879031,FFFFFF,10844,040190033043013,42,13500,8,Broadway/Williams,21496
32.221418,CE1141,-110.874756,FFFFFF,10844,040190033031017,43,13501,8,Broadway/Craycroft,25875
32.221412,CE1141,-110.871631,FFFFFF,10844,040190033031016,44,13502,8,Broadway/Leonora,25875
32.221394,CE1141,-110.868113,FFFFFF,10844,040190033033001,45,13503,8,Broadway/Chantilly,25875
32.221428,CE1141,-110.86518,FFFFFF,10844,040190033033001,46,13505,8,Broadway/Park Place,25875
32.221957,CE1141,-110.857742,FFFFFF,10844,040190040682003,47,81,8,Wilmot/Broadway,38417
32.225963,CE1141,-110.8578,FFFFFF,10844,040190040681017,48,13508,8,Wilmot/Carondelet,38417
32.229344,CE1141,-110.857815,FFFFFF,10844,040190040681003,49,13510,8,Wilmot/5th St,38417
32.232148,CE1141,-110.857731,FFFFFF,10844,040190040681010,50,13511,8,Wilmot/Rosewood,38417
32.23636,CE1141,-110.857779,FFFFFF,10844,040190040671009,51,13512,8,Wilmot/Speedway,33155
32.243694,CE1141,-110.858015,FFFFFF,10844,040190030033000,52,14688,8,Wilmot/Pima,30227
32.247301,CE1141,-110.8579,FFFFFF,10844,040190030033000,53,14689,8,Wilmot/Sunny Dr,30227
32.250517,CE1141,-110.857503,FFFFFF,10844,040190030033000,54,13637,8,Grant/Wilmot,30227
32.247988,CE1141,-110.850368,FFFFFF,10844,040190030033000,55,13396,8,Tanque Verde/Grant,30227
32.245182,CE1141,-110.854659,FFFFFF,10844,040190030033000,56,15047,8,Tanque Verde/6445 Tanque Verde Rd,30227
32.241756,CE1141,-110.85809,FFFFFF,10844,040190030024001,57,13399,8,Wilmot/Lee,40982
32.248837,FF64FF,-110.840989,FFFFFF,10846,040190040321000,1,85,9,Sabino Canyon/Tanque Verde,49125
32.250925,FF64FF,-110.841251,FFFFFF,10846,040190040301020,2,82,9,Tanque Verde/Sabino Canyon,82337
32.25072,FF64FF,-110.845711,FFFFFF,10846,040190040301025,3,13395,9,Tanque Verde/Indian Ruins,82337
32.248726,FF64FF,-110.850243,FFFFFF,10846,040190030041014,4,13559,9,Grant/Tanque Verde,28800
32.250769,FF64FF,-110.855272,FFFFFF,10846,040190030041001,5,13560,9,Grant/6400 E Grant,28800
32.250738,FF64FF,-110.858405,FFFFFF,10846,040190030041002,6,13561,9,Grant/Wilmot,28800
32.250744,FF64FF,-110.862619,FFFFFF,10846,040190030041012,7,15958,9,Grant/Sunny Dr,28800
32.25077,FF64FF,-110.866842,FFFFFF,10846,040190030042024,8,13564,9,Grant/Sahuara,28800
32.250855,FF64FF,-110.870936,FFFFFF,10846,040190030042003,9,13565,9,Grant/Rainbow Vista,28800
32.250872,FF64FF,-110.875747,FFFFFF,10846,040190029042017,10,96,9,Grant/Craycroft,59816
32.250763,FF64FF,-110.880272,FFFFFF,10846,040190029042011,11,13567,9,Grant/Beverly,59816
32.250763,FF64FF,-110.88407,FFFFFF,10846,040190029042010,12,13568,9,Grant/Rosemont,59816
32.250806,FF64FF,-110.888859,FFFFFF,10846,040190029042027,13,13570,9,Grant/Arcadia,59816
32.250735,FF64FF,-110.893052,FFFFFF,10846,040190029011009,14,13571,9,Grant/Swan,29872
32.250755,FF64FF,-110.897329,FFFFFF,10846,040190029011008,15,13572,9,Grant/Belvedere,29872
32.250743,FF64FF,-110.901063,FFFFFF,10846,040190029011014,16,13573,9,Grant/Columbus,29872
32.250758,FF64FF,-110.905874,FFFFFF,10846,040190029014003,17,13574,9,Grant/Walnut,29872
32.250729,FF64FF,-110.910428,FFFFFF,10846,040190018016000,18,15679,9,Grant/Alvernon,34865
32.250715,FF64FF,-110.912264,FFFFFF,10846,040190018016002,19,13575,9,Grant/3767 E Grant SAAVI,34865
32.250613,FF64FF,-110.91539,FFFFFF,10846,040190018016004,20,14889,9,Grant/Chrysler,34865
32.25063,FF64FF,-110.918696,FFFFFF,10846,040190018013004,21,13577,9,Grant/Palo Verde,34865
32.250554,FF64FF,-110.922345,FFFFFF,10846,040190018013003,22,13578,9,Grant/Edith,34865
32.250474,FF64FF,-110.925642,FFFFFF,10846,040190018013002,23,13580,9,Grant/Doolen School,34865
32.250448,FF64FF,-110.927317,FFFFFF,10846,040190018014006,24,13581,9,Grant/Country Club,34865
32.250483,FF64FF,-110.931329,FFFFFF,10846,040190018014008,25,13582,9,Grant/Treat,34865
32.25041,FF64FF,-110.935776,FFFFFF,10846,040190016004005,26,13583,9,Grant/Tucson,40900
32.250433,FF64FF,-110.939841,FFFFFF,10846,040190016004014,27,13584,9,Grant/Plumer,40900
32.249054,FF64FF,-110.944263,FFFFFF,10846,040190016004018,28,106,9,Campbell Av/Grant@Edison,40900
32.245871,FF64FF,-110.944221,FFFFFF,10846,040190016003024,29,11921,9,Campbell Av/Waverly,40900
32.240839,FF64FF,-110.94418,FFFFFF,10846,040190015001013,30,220,9,Campbell Av/Adams,12857
32.235706,FF64FF,-110.944114,FFFFFF,10846,040190006001024,31,11924,9,Campbell Av/Speedway,39000
32.231702,FF64FF,-110.946885,FFFFFF,10846,040190005004010,32,100,9,UA Mall,
32.227934,FF64FF,-110.94447,FFFFFF,10846,040190005004017,33,16055,9,6th St/Campbell,
32.227922,FF64FF,-110.947819,FFFFFF,10846,040190005004013,34,11848,9,6th St/Cherry,
32.227867,FF64FF,-110.950229,FFFFFF,10846,040190005004013,35,11849,9,6th St/Highland,
32.227838,FF64FF,-110.956628,FFFFFF,10846,040190005007000,36,11736,9,6th St/Park Av,
32.227836,FF64FF,-110.959144,FFFFFF,10846,040190005007001,37,11851,9,6th St/Euclid,
32.227816,FF64FF,-110.963823,FFFFFF,10846,040190004003032,38,11852,9,6th St/3rd Av,31328
32.227844,FF64FF,-110.966515,FFFFFF,10846,040190004001033,39,16102,9,6th St/Herbert Av,31328
32.223245,FF64FF,-110.968082,FFFFFF,10846,040190001001001,40,14202,9,Downtown Ronstadt Center,23125
