stop_id,stop_code,stop_name,stop_desc,stop_lat,stop_lon,zone_id,stop_url,location_type,parent_station,wheelchair_boarding
3,,Park/Speedway,N PARK AVE & E SPEEDWAY BLVD,32.236753,-110.956685,,,,,0
4,,Glenn/Campbell,E GLENN ST & N CAMPBELL AV,32.257543,-110.943543,,,,,0
5,,Glenn/Alvernon,E GLENN ST & N ALVERNON WAY,32.257785,-110.909233,,,,,0
8,,Glenn/Alvernon,E GLENN ST & N HASKELL DR,32.257945,-110.910127,,,,,0
9,,Glenn/Campbell,E GLENN ST & N CAMPBELL AV,32.257615,-110.943542,,,,,0
14,,Forgeus/36th St,S FORGEUS STRAV & E 36TH ST,32.192682,-110.935772,,,,,0
18,,UAMC/Kino Campus,UAMC KINO,32.17689,-110.930741,,,,,0
20,,Escalante/Pantano,E ESCALANTE RD & S PANTANO RD,32.17723,-110.823121,,,,,0
21,,Stella/Kolb,E STELLA RD & S KOLB RD,32.184746,-110.841452,,,,,0
22,,Wilmot/Broadway,S WILMOT RD & E BROADWAY BLVD,32.220401,-110.8581,,,,,0
23,,5th St/Alvernon,E 5TH ST & N ALVERNON WAY,32.228973,-110.91003,,,,,0
25,,Downtown Ronstadt Center,W RONSTADT TRANSIT CENTER DR,32.222626,-110.968119,,,,,0
28,,Downtown Ronstadt Center,W RONSTADT TRANSIT CENTER DR & E TANQUE VERDE RD,32.222474,-110.968219,,,,,0
29,,6th St/Campbell,E 6TH ST & N CAMPBELL AVE,32.227727,-110.942714,,,,,0
30,,5th St/Alvernon,E 5TH ST & N ALVERNON WAY,32.228805,-110.909321,,,,,0
32,,Stella/Kolb,E STELLA RD & S KOLB RD,32.184594,-110.840733,,,,,0
34,,Pima College East Campus,S FRED ENKE DR & E PCC EAST PL,32.166109,-110.815521,,,,,0
35,,Harrison/Golf Links,S HARRISON RD & E GOLF LINKS RD,32.192619,-110.789644,,,,,0
36,,Speedway/Harrison Park N Ride,E SH PARK N RIDE WAY & N EUCLID AVE,32.23501,-110.790247,,,,,0
40,,Speedway/Alvernon,E SPEEDWAY BLVD & N ALVERNON WAY,32.236315,-110.910143,,,,,0
41,,Speedway/Campbell,E SPEEDWAY BLVD & N WARREN AVE,32.236178,-110.944438,,,,,0
42,,6th Av/Pennington,N 6TH AVE & W RONSTADT TRANSIT CENTER DR,32.223375,-110.968582,,,,,0
45,,Speedway/Campbell,E SPEEDWAY BL & N CAMPBELL AV,32.235911,-110.943469,,,,,0
46,,Speedway/Alvernon,E SPEEDWAY BLVD & N ALVERNON WAY,32.236046,-110.909159,,,,,0
47,,Speedway/Wilmot,E SPEEDWAY BLVD & N WILMOT RD,32.235564,-110.857491,,,,,0
48,,Kolb/Golf Links,S KOLB RD & E 34TH ST,32.192325,-110.840761,,,,,0
51,,Harrison/Golf Links,S HARRISON RD & E GOLF LINKS RD,32.192908,-110.789843,,,,,0
53,,Pima/Alvernon,E PIMA ST & N ROSEMARY DR,32.243463,-110.909953,,,,,0
54,,Pima/Alvernon,E PIMA ST & N ALVERNON WAY,32.243415,-110.909335,,,,,0
57,,Park/Bilby,S PARK AV & E BILBY RD,32.141665,-110.956025,,,,,0
58,,Park/Ajo,S PARK AVE & E AJO WAY,32.178281,-110.956155,,,,,0
60,,Euclid/6th St,N EUCLID AVE & E 5TH ST,32.228305,-110.959311,,,,,0
64,,Fort Lowell/1st Avenue,E FORT LOWELL RD & N 1ST AVE,32.26468,-110.960637,,,,,0
65,,Euclid/6th St,N EUCLID AVE & E 6TH ST,32.227424,-110.959551,,,,,0
67,,Park/Ajo,S PARK AVE & E AJO WAY,32.178865,-110.956384,,,,,0
70,,22nd St/Wilmot,E 22ND ST & S WILMOT RD,32.206884,-110.858354,,,,,0
71,,22nd St/Alvernon,E 22ND ST & S ALVERNON WAY,32.20689,-110.909141,,,,,0
74,,22nd St/Alvernon,E 22ND ST & S ALVERNON WAY,32.207114,-110.910221,,,,,0
75,,22nd St/Wilmot,E 22ND ST & S WILMOT RD,32.20658,-110.857583,,,,,0
76,,6th Av/29th St,S 6TH AVE & E 29TH ST,32.199712,-110.968349,,,,,0
78,,Broadway/Randolph Way,E BROADWAY BLVD & S RANDOLPH WAY,32.221466,-110.917685,,,,,0
81,,Wilmot/Broadway,N WILMOT RD & E BROADWAY BLVD,32.221957,-110.857742,,,,,0
82,,Tanque Verde/Sabino Canyon,E TANQUE VERDE RD & N SABINO CANYON RD,32.250925,-110.841251,,,,,0
85,,Sabino Canyon/Tanque Verde,N SABINO CANYON RD & E REDBUD RD,32.248837,-110.840989,,,,,0
86,,Broadway/Wilmot,E BROADWAY BLVD & N WILMOT RD,32.221399,-110.858377,,,,,0
89,,Broadway/Randolph Way,E BROADWAY BLVD & S RANDOLPH WAY,32.221737,-110.91861,,,,,0
91,,6th Av/29th St,S 6TH AVE & W 29TH ST,32.199086,-110.968585,,,,,0
92,,Catalina Hy/Tanque Verde,E CATALINA HWY & E TANQUE VERDE RD,32.259294,-110.798893,,,,,0
95,,Cloud Rd/Pantano,E CLOUD RD & N PANTANO RD,32.268882,-110.823921,,,,,0
96,,Grant/Craycroft,E GRANT RD & N CRAYCROFT RD,32.250872,-110.875747,,,,,0
100,,UA Mall,E UNIVERSITY BLVD & UNKNOWN,32.231702,-110.946885,,,,,0
106,,Campbell Av/Grant@Edison,N CAMPBELL AVE & E EDISON ST,32.249054,-110.944263,,,,,0
107,,Grant/Alvernon,E GRANT RD & N ALVERNON WAY,32.25048,-110.909524,,,,,0
108,,Grant/Craycroft,E GRANT RD & N CRAYCROFT RD,32.250559,-110.875034,,,,,0
109,,Sabino Canyon/Tanque Verde,N SABINO CANYON RD & E TANQUE VERDE RD,32.25236,-110.840697,,,,,0
116,,Oracle/Grant,N ORACLE RD & W GRANT RD,32.249231,-110.97831,,,,,0
117,,Ajo/Park Av,E AJO WAY & S PARK AVE,32.177956,-110.957181,,,,,0
118,,Tucson Intl Airport,S TUCSON BLVD & N TOOLE AVE,32.12276,-110.938568,,,,,0
119,,Butterfield Dr/Gas Rd,S BUTTERFIELD DR & E GAS RD,32.166238,-110.915813,,,,,0
120,,Alvernon/Broadway,N ALVERNON WAY & E BROADWAY BLVD,32.221808,-110.90947,,,,,0
121,,Alvernon/Grant,N ALVERNON WAY & E GRANT RD,32.251315,-110.909612,,,,,0
122,,Dodge/River,N DODGE LOOP & E KLEINDALE RD,32.273786,-110.913777,,,,,0
124,,Alvernon/Grant,N ALVERNON WAY & E GRANT RD,32.250399,-110.909802,,,,,0
125,,Alvernon/Broadway,S ALVERNON WAY & E BROADWAY BLVD,32.221323,-110.90973,,,,,0
126,,Butterfield Dr/Gas Rd,S BUTTERFIELD DR & E GAS RD,32.166467,-110.915881,,,,,0
128,,Ajo/Park Av,E AJO WY & S PARK AV,32.177774,-110.95603,,,,,0
129,,Downtown Ronstadt Center,W RONSTADT TRANSIT CENTER DR,32.223312,-110.968239,,,,,0
130,,St Mary's/Grande,W SAINT MARYS RD & N GRANDE AVE,32.229673,-110.990063,,,,,0
132,,Congress/Grande,W CONGRESS ST & N GRANDE AVE,32.220083,-110.988842,,,,,0
134,,Craycroft/29th St,S CRAYCROFT RD & E 29TH ST,32.199957,-110.87502,,,,,0
135,,29th St/Irving,E 29TH ST & S IRVING AVE,32.199704,-110.904742,,,,,0
136,,Alvernon/22nd St,S ALVERNON WAY & E 22ND ST,32.206401,-110.909716,,,,,0
139,,Alvernon/22nd St,S ALVERNON WY & E 22ND ST,32.207339,-110.909478,,,,,0
140,,29th St/Irving,E 29TH ST & S IRVING AVE,32.199861,-110.905239,,,,,0
142,,Golf Links/Kolb,E GOLF LINKS RD & S KOLB RD,32.191814,-110.838806,,,,,0
143,,Country Club/22nd St,S COUNTRY CLUB RD & E 21ST ST,32.207905,-110.92652,,,,,0
144,,Campbell Av/Broadway,N CAMPBELL AV & E BROADWAY BL,32.221593,-110.94367,,,,,0
148,,Campbell Av/Prince,N CAMPBELL AV & E PRINCE RD,32.272572,-110.943717,,,,,0
149,,Campbell Av/Prince,N CAMPBELL AVE & E PRINCE RD,32.272553,-110.943883,,,,,0
153,,Kino Pw/Broadway,S KINO PW & E BROADWAY BLVD,32.221086,-110.944123,,,,,0
155,,12th Av/Valencia,S 12TH AVE & W VALENCIA RD,32.132741,-110.977924,,,,,0
156,,10th Av/29th St,S 10TH AVE & W 29TH ST,32.199811,-110.974531,,,,,0
157,,Oracle/Grant,N ORACLE RD & W GRANT RD,32.25147,-110.977858,,,,,0
159,,Lowe's/Ina,N THORNYDALE PLAZA LOOP & W CRESTA LOMA DR,32.335372,-111.049821,,,,,0
161,,Oracle/Honeywell,N ORACLE PARK N RIDE DR,32.407655,-110.943027,,,,,0
165,,Oracle/Ina,N ORACLE RD & W INA RD,32.336696,-110.977684,,,,,0
167,,10th Av/29th St,S 10TH AVE & W 29TH ST,32.199602,-110.974719,,,,,0
170,,Country Club/Broadway,N COUNTRY CLUB RD & E BROADWAY BLVD,32.221776,-110.926487,,,,,0
171,,Country Club/Grant,N COUNTRY CLUB RD & E GRANT RD,32.250691,-110.926768,,,,,0
172,,Prince/1st Av,E PRINCE RD & N 1ST AVE,32.271909,-110.961534,,,,,0
173,,Romero/Wetmore,N ROMERO RD & W WETMORE RD,32.286248,-111.003532,,,,,0
174,,Davis/Fire Station,N DAVIS AVE & W CURTIS RD,32.300806,-111.026923,,,,,0
177,,Prince/1st Av,E PRINCE RD & N 1ST AV,32.272165,-110.961605,,,,,0
178,,Country Club/Grant,N COUNTRY CLUB RD & E GRANT RD,32.250593,-110.92697,,,,,0
179,,Country Club/Broadway,S COUNTRY CLUB RD & E BROADWAY BLVD,32.221228,-110.926705,,,,,0
184,,Grant/Oracle,W GRANT RD & N ORACLE RD,32.250401,-110.978766,,,,,0
186,,Grant/Silverbell,W GRANT RD & N SILVERBELL RD,32.250537,-111.01291,,,,,0
187,,Grant/Oracle,W GRANT RD & N ORACLE RD,32.250084,-110.977287,,,,,0
188,,Speedway/Grande,W SPEEDWAY BLVD & N GRANDE AVE,32.235468,-110.989849,,,,,0
189,,Riverview/Speedway,N RIVERVIEW BLVD & W SPEEDWAY BLVD,32.236142,-110.994066,,,,,0
192,,Riverview/Speedway,N RIVERVIEW BL & W SPEEDWAY BL,32.236163,-110.994157,,,,,0
193,,Pima College Desert Vista Campus,S PCC DESERT VISTA PL & N TYNDALL AVE,32.145884,-110.988565,,,,,0
194,,Midvale Park/Valencia,S MIDVALE PARK RD & W VALENCIA RD,32.134066,-110.998764,,,,,0
195,,Mission/Ajo,S MISSION RD & W AJO WAY,32.178262,-111.003154,,,,,0
196,,San Marcos/La Cholla,W SAN MARCOS BL & S LA CHOLLA BL,32.203073,-111.011308,,,,,0
197,,29th St/6th Av,E 29TH ST & S 6TH AVE,32.199513,-110.968255,,,,,0
198,,29th St/6th Av,W 29TH ST & S 6TH AVE,32.19958,-110.968866,,,,,0
199,,San Marcos/La Cholla,W SAN MARCOS BLVD & S LA CHOLLA BLVD,32.20324,-111.011255,,,,,0
200,,Mission/Ajo,S MISSION RD & W AJO WAY,32.177506,-111.003405,,,,,0
201,,Valencia/Midvale Park Rd,W VALENCIA RD & S MIDVALE PARK RD,32.133888,-110.999654,,,,,0
207,,6th Av/Drexel,S 6TH AVE & W DREXEL RD,32.14882,-110.968021,,,,,0
208,,6th Av/Drexel,S 6TH AVE & E DREXEL RD,32.148324,-110.968079,,,,,0
209,,Craycroft/I-10 TTT,S CRAYCROFT RD & E REX STRAV,32.126891,-110.875147,,,,,0
212,,Drexel/Country Club,E DREXEL RD & S BONNEY AVE,32.148883,-110.92592,,,,,0
213,,Irvington/Campbell,E IRVINGTON RD & S CAMPBELL AVE,32.163372,-110.943984,,,,,0
217,,Drexel/Country Club,E DREXEL RD & S COUNTRY CLUB RD,32.148716,-110.925921,,,,,0
219,,Belvedere/Benson Hwy,S BELVEDERE AVE & E BENSON HWY,32.139407,-110.896394,,,,,0
220,,Campbell Av/Adams,N CAMPBELL AVE & E ADAMS ST,32.240839,-110.94418,,,,,0
222,,Drexel/Mission,W DREXEL RD & S MISSION RD,32.14833,-111.012549,,,,,0
223,,Drexel/Mission,W DREXEL RD & S MISSION RD,32.1484,-111.013603,,,,,0
226,,Speedway/Grande,W SPEEDWAY BLVD & N GRANDE AVE,32.235709,-110.990545,,,,,0
229,,Valencia/Missiondale,W VALENCIA RD & S MISSIONDALE RD,32.13419,-110.968889,,,,,0
230,,Valencia/Midvale Park Rd,W VALENCIA RD & W COMMERCE CT,32.13368,-110.997962,,,,,0
231,,Cardinal/Valencia,S CARDINAL AVE & W BARREL DR,32.132344,-111.028916,,,,,0
234,,C Tetakusim/Cmo de Oeste,TETAKUSIM & S CMO DE OESTE,32.114866,-111.063646,,,,,0
238,,Valencia/Cardinal,W VALENCIA RD & S CARDINAL AVE,32.133689,-111.025762,,,,,0
240,,6th Av/Valencia,S 6TH AVE & E VALENCIA RD,32.134741,-110.967856,,,,,0
242,,Swan/22nd St,S SWAN RD & E DOUGLAS ST,32.207325,-110.892154,,,,,0
244,,Swan/Speedway,N SWAN RD & E HELEN ST,32.236511,-110.892432,,,,,0
245,,Swan/Grant,N SWAN RD & E GRANT RD,32.251004,-110.892518,,,,,0
246,,Swan/Ft. Lowell,N SWAN RD & E FORT LOWELL RD,32.261186,-110.892556,,,,,0
248,,Swan/Grant,N SWAN RD & E GRANT RD,32.250312,-110.892823,,,,,0
249,,Swan/Speedway,N SWAN RD & E 1ST ST,32.235812,-110.892769,,,,,0
252,,Swan/22nd St,S SWAN RD & E JUAREZ ST,32.205761,-110.892452,,,,,0
255,,Craycroft/29th St,S CRAYCROFT RD & E 29TH ST,32.199445,-110.875196,,,,,0
257,,Craycroft/Grant,N CRAYCROFT RD & E GRANT RD,32.251155,-110.87518,,,,,0
258,,Fort Lowell/Alvernon,E FORT LOWELL RD & N ALVERNON WAY,32.265267,-110.910229,,,,,0
259,,Fort Lowell/Winstel,E FORT LOWELL RD & N WINSTEL BLVD,32.265043,-110.910813,,,,,0
261,,Craycroft/Broadway,S CRAYCROFT RD & E BROADWAY BLVD,32.221279,-110.875315,,,,,0
265,,Pantano/Broadway,S PANTANO RD & E BROADWAY BLVD,32.22057,-110.823976,,,,,0
266,,Pantano/22nd St,S PANTANO RD & E 22ND ST,32.207,-110.823717,,,,,0
268,,Ajo/Mission,W AJO WAY & S MISSION RD,32.177717,-111.00269,,,,,0
270,,La Cholla/Ina,N LA CHOLLA BLVD & W INA RD,32.337809,-111.012613,,,,,0
271,,Ina/La Cholla,W INA RD & N LA CHOLLA BLVD,32.337373,-111.01313,,,,,0
272,,Ina/Oldfather,W INA RD & N OLDFATHER RD,32.33742,-111.055138,,,,,0
273,,Ina/Cmo De La Cruz,W INA RD & N CAMINO DE LA CRUZ,32.337687,-111.06041,,,,,0
274,,Broadway/Church,W BROADWAY BLVD & S CHURCH,32.221188,-110.973114,,,,,0
280,,Ina/Cmo De La Cruz,W INA RD & N CAMINO DE LA CRUZ,32.337525,-111.060326,,,,,0
281,,Ina/Oldfather,W INA RD & N OLDFATHER RD,32.337672,-111.055179,,,,,0
283,,Ina/La Cholla,W INA RD & N LA CHOLLA BLVD,32.337141,-111.0161,,,,,0
284,,Oracle/Orange Grove,N ORACLE RD & S PICNIC PL,32.323261,-110.974774,,,,,0
287,,Oracle/Orange Grove,N ORACLE RD & W ORANGE GROVE RD,32.322249,-110.974914,,,,,0
289,,Sunrise Dr/Swan,E SUNRISE DR & N SWAN RD,32.308467,-110.893164,,,,,0
290,,Sunrise Dr/Swan,E SUNRISE DR & N SWAN RD,32.308292,-110.891458,,,,,0
292,,Alvernon/27th St,S ALVERNON WY & E 27TH ST,32.202915,-110.909425,,,,,0
295,,Raytheon/Center,S MISSILE LOOP & S RAYTHEON WAY,32.105239,-110.941273,,,,,0
303,,Alvernon/27th St,S ALVERNON WY & E 27TH ST,32.202531,-110.909611,,,,,0
304,,22nd St/Craycroft,E 22ND ST & S BEVERLY AVE,32.207076,-110.876059,,,,,0
307,,Broadway/Swan,E BROADWAY BLVD & S SWAN RD,32.221392,-110.891927,,,,,0
308,,Broadway/Swan,E BROADWAY BLVD & N SWAN RD,32.22168,-110.89269,,,,,0
311,,22nd St/Craycroft,E 22ND ST & S CRAYCROFT RD,32.206763,-110.874616,,,,,0
312,,Stella/Charlotte,E STELLA RD & S CHARLOTTE AV,32.184743,-110.83748,,,,,0
321,,Raytheon/C Gate,C GATE & RAYTHEON,32.101154,-110.938407,,,,,0
322,,Raytheon/Building 830,S RAYTHEON WAY,32.104331,-110.938545,,,,,0
324,,Raytheon/Building 840,BUILDING 840 & RAYTHEON,32.105267,-110.945805,,,,,0
325,,Raytheon/Building 847,BUILDING 847 & RAYTHEON,32.105249,-110.953831,,,,,0
330,,Park/Sun Tran,S PARK AV & PRICE CENTER RD,32.172633,-110.956143,,,,,0
331,,12th Av/Ajo,S 12TH AV & W AJO WY,32.178039,-110.977427,,,,,0
333,,1st Av/Ft Lowell,N 1ST AVE & E FORT LOWELL RD,32.264473,-110.961076,,,,,0
334,,Prince/Oracle,W PRINCE RD & N ORACLE RD,32.272096,-110.978453,,,,,0
335,,Prince/Romero,W PRINCE RD & N POMONA RD,32.272167,-111.002504,,,,,0
338,,12th Av/Ajo,S 12TH AVE & W AJO WAY,32.177604,-110.977732,,,,,0
342,,Prince/Oracle,W PRINCE RD & N ORACLE RD,32.27182,-110.977514,,,,,0
343,,1st Av/Ft Lowell,N 1ST AVE & E NAVAJO RD,32.265489,-110.960899,,,,,0
10858,,Alameda/Stone,E ALAMEDA ST,32.224426,-110.970948,,,,,0
10859,,Church/Pennington,N CHURCH AVE & W PENNINGTON ST,32.222785,-110.972711,,,,,0
10860,,Broadway/6th Av,E BROADWAY BLVD & S 6TH AVE,32.221096,-110.968505,,,,,0
10861,,Broadway/4th Av,E BROADWAY BLVD & S 4TH AVE,32.221165,-110.965693,,,,,0
10862,,Euclid/12th St,S EUCLID AVE & E 12TH ST,32.219714,-110.959534,,,,,0
10864,,22nd St/Park,E 22ND ST & S PARK AVE,32.206749,-110.955843,,,,,0
10868,,Campbell Av/Barleycorn,S CAMPBELL AV & E BARLEYCORN LN,32.199359,-110.943721,,,,,0
10869,,31st St/Campbell,E 31ST ST & S CAMPBELL AVE,32.197415,-110.942642,,,,,0
10870,,31st St/Amalia,E 31ST ST & S AMALIA AV,32.197421,-110.940471,,,,,0
10871,,Plumer/33rd St,S PLUMER AV & E 33RD ST,32.196235,-110.939291,,,,,0
10872,,Menor Stv/Norton,E MENOR SV & S NORTON AV,32.196114,-110.936585,,,,,0
10873,,Menor Stv/Forgeus,E MENOR SV & S FORGEUS SV,32.194174,-110.934242,,,,,0
10874,,Forgeus/36th St,S FORGEUS STRAV & E 36TH ST,32.192808,-110.935845,,,,,0
10875,,36th St/Kramer,E 36TH ST & S KRAMER AVE,32.19252,-110.941977,,,,,0
10876,,Campbell Av/36th St,S CAMPBELL AVE & E 36TH ST,32.191661,-110.943638,,,,,0
10877,,Campbell Av/Cochise Vista,S CAMPBELL AVE & S CAPRI CIR,32.18717,-110.943632,,,,,0
10878,,Campbell Av/Duvall Vista,S CAMPBELL AVE & S CAPRI CIR,32.185608,-110.943629,,,,,0
10879,,Campbell Av/Fayette Vista,S CAMPBELL AVE & E FAYETTE VISTA,32.184074,-110.943626,,,,,0
10880,,Hidalgo Vista/Campbell,E HIDALGO VISTA & S CAMPBELL AV,32.181964,-110.943021,,,,,0
10881,,Hidalgo Vista/Naco Vista,E HIDALGO VISTA & S NACO VISTA,32.183842,-110.939314,,,,,0
10882,,Hidalgo Vista/Lloyd Vista,E HIDALGO VISTA & S LLOYD VISTA,32.184818,-110.937727,,,,,0
10883,,Pinal Vista/Hidalgo Vista,E PINAL VISTA & E HIDALGO VISTA,32.186519,-110.936284,,,,,0
10884,,Pinal Vista/Sunland Vista,E PINAL VISTA & S SUNLAND VISTA,32.187184,-110.934304,,,,,0
10885,,Pinal Vista/Forgeus,E PINAL VISTA & S FORGEUS AV,32.187696,-110.932241,,,,,0
10886,,Pinal Vista/Coconino Vista,E PINAL VISTA & E COCONINO VISTA,32.188369,-110.929932,,,,,0
10887,,Pinal Vista/Rickey Vista,E PINAL VISTA & E RICKEY VISTA,32.189747,-110.929289,,,,,0
10893,,Country Club/Ajo,S COUNTRY CLUB RD & E AJO WAY,32.177531,-110.926545,,,,,0
10895,,Country Club/Ajo,S COUNTRY CLUB RD & E AJO WAY,32.178338,-110.926271,,,,,0
10899,,Country Club/Food Bank,S COUNTRY CLUB RD & E RICKEY VISTA,32.189232,-110.926416,,,,,0
10901,,Pinal Vista/Rickey Vista,E PINAL VISTA & E RICKEY VISTA,32.189563,-110.929534,,,,,0
10902,,Pinal Vista/Coconino Vista,E PINAL VISTA & E COCONINO VISTA,32.18808,-110.930361,,,,,0
10903,,Pinal Vista/Forgeus,E PINAL VISTA & S FORGEUS AVE,32.18786,-110.932729,,,,,0
10904,,Pinal Vista/Sunland Vista,E PINAL VISTA & S SUNLAND VISTA,32.187323,-110.934452,,,,,0
10905,,Hidalgo Vista/Pinal Vista,E HIDALGO VISTA & E PINAL VISTA,32.186496,-110.936721,,,,,0
10906,,Hidalgo Vista/Lloyd Vista,E HIDALGO VISTA & S LLOYD VISTA,32.184914,-110.937807,,,,,0
10907,,Hidalgo Vista/Naco Vista,E HIDALGO VISTA & S NACO VISTA,32.183614,-110.939686,,,,,0
10908,,Hidalgo Vista/Campbell,E HIDALGO VISTA & S CAMPBELL AVE,32.182128,-110.94304,,,,,0
10909,,Campbell Av/Fayette Vista,S CAMPBELL AVE & E IRENE VISTA,32.183828,-110.943439,,,,,0
10910,,Campbell Av/Duvall Vista,S CAMPBELL AVE & S CAPRI CIR,32.18538,-110.943444,,,,,0
10911,,Campbell Av/Cochise Vista,S CAMPBELL AVE & E PINAL VISTA,32.187787,-110.94344,,,,,0
10912,,36th St/Campbell,E 36TH ST & S CAMPBELL AVE,32.192285,-110.942981,,,,,0
10913,,36th St/Plumer,E 36TH ST & S PLUMER AVE,32.192355,-110.938962,,,,,0
10918,,31st St/Campbell,E 31ST ST & S CAMPBELL AVE,32.19757,-110.943106,,,,,0
10919,,Campbell Av/Barleycorn,S CAMPBELL AV & E BARLEYCORN LN,32.199743,-110.943545,,,,,0
10922,,22nd St/Santa Rita,E 22ND ST & SANTA RITA,32.206979,-110.953389,,,,,0
10923,,22nd St/Park,E 22ND ST & S PARK AVE,32.206949,-110.956576,,,,,0
10925,,Broadway/Euclid,E BROADWAY BLVD & N EUCLID AVE,32.22152,-110.959897,,,,,0
10926,,6th Av/Irvington,S 6TH AVE & E IRVINGTON RD,32.163709,-110.968052,,,,,0
10927,,6th Av/Oklahoma,S 6TH AVE & W OKLAHOMA ST,32.165405,-110.968078,,,,,0
10928,,6th Av/Illinois,S 6TH AVE & W ILLINOIS ST,32.168589,-110.968109,,,,,0
10929,,6th Av/Michigan,S 6TH AVE & E MICHIGAN DR,32.170158,-110.968115,,,,,0
10930,,6th Av/District,S 6TH AVE & E DISTRICT ST,32.173801,-110.968131,,,,,0
10931,,6th Av/President,S 6TH AVE & E PRESIDENT ST,32.176551,-110.968097,,,,,0
10932,,Ajo/6th Av,E AJO WAY & S 6TH AVE,32.177697,-110.967809,,,,,0
10933,,Ajo/2rd Av,E AJO WAY & S 2ND AVE,32.177785,-110.962789,,,,,0
10934,,Ajo/Thomas O Price Center,E AJO WAY & S PARK AVE,32.17782,-110.959004,,,,,0
10935,,Ajo/Benson Hwy,E AJO WAY & E BENSON HWY,32.177841,-110.951994,,,,,0
10936,,Ajo/Bernard,E AJO WAY & E BERNARD DR,32.177833,-110.949736,,,,,0
10937,,Ajo/Juvenile Center,,32.177784,-110.939097,,,,,0
10938,,Ajo/P.C. Sheriffs Dept.,,32.177801,-110.936458,,,,,0
10939,,Ajo/Forgeus,E AJO WAY & S FORGEUS AVE,32.177853,-110.931857,,,,,0
10941,,Milber St/La Colina Health Care,E MILBER ST & S COUNTRY CLUB RD,32.172766,-110.928199,,,,,0
10942,,Ajo/Country Club,E AJO WAY & S COUNTRY CLUB RD,32.177877,-110.925807,,,,,0
10943,,Ajo/Randolph Av.,E AJO WAY & S RANDOLPH AVE,32.177877,-110.922066,,,,,0
10945,,Tucson Bl/Corona,S TUCSON BLVD & E ELVIRA RD,32.12369,-110.934414,,,,,0
10946,,Tucson Bl/Elvira,S TUCSON BLVD & E ELVIRA RD,32.12715,-110.934493,,,,,0
10947,,Tucson Bl/Medina,S TUCSON BLVD & E ARAGON RD,32.130174,-110.934442,,,,,0
10948,,Valencia/Tucson Blvd,E VALENCIA RD & S BAY COLONY DR,32.133957,-110.93382,,,,,0
10949,,Valencia/Bay Colony,E VALENCIA RD & S BAY COLONY DR,32.133944,-110.929599,,,,,0
10950,,Valencia/Country Club,E VALENCIA RD & COUNTRY CLUB,32.133993,-110.925136,,,,,0
10951,,Valencia/Lisa Frank Dr,E VALENCIA RD & S BROSIUS AVE,32.133972,-110.921429,,,,,0
10952,,Palo Verde/Britannia,S PALO VERDE RD & E BRITANNIA DR,32.136278,-110.917621,,,,,0
10953,,Palo Verde/Mossman,S PALO VERDE RD & E MOSSMAN RD,32.143485,-110.917664,,,,,0
10954,,Palo Verde/Benson Hwy,S PALO VERDE RD & E BENSON HWY,32.152445,-110.917471,,,,,0
10955,,Palo Verde/Nebraska,S PALO VERDE RD & E NEBRASKA SV,32.155832,-110.917504,,,,,0
10956,,Hotel Dr/Irvington,S HOTEL DR & E IRVINGTON RD,32.164169,-110.914536,,,,,0
10958,,Palo Verde/Coach Dr,S PALO VERDE RD & S COACH DR,32.170899,-110.917534,,,,,0
10959,,Palo Verde/Columbia,S PALO VERDE RD & E COLUMBIA ST,32.172622,-110.917619,,,,,0
10960,,Palo Verde/Ajo,S PALO VERDE RD & E AJO WAY,32.178594,-110.917558,,,,,0
10961,,Palo Verde/Veterans,S PALO VERDE RD & E VETERANS ST,32.181892,-110.917677,,,,,0
10962,,Palo Verde/44th St,S PALO VERDE RD & E 44TH ST,32.185952,-110.917554,,,,,0
10969,,Alvernon/29th St,S ALVERNON WAY & E 29TH ST,32.200443,-110.909348,,,,,0
10972,,Alvernon/Sta Barbara,S ALVERNON WAY & E SANTA BARBARA AVE,32.211818,-110.909447,,,,,0
10973,,Alvernon/Hayne,S ALVERNON WAY & E TIMROD ST,32.214604,-110.909475,,,,,0
10974,,Alvernon/Whittier,S ALVERNON WAY & E WHITTIER ST,32.21818,-110.909445,,,,,0
10977,,Alvernon/Holmes,N ALVERNON WAY & E HOLMES ST,32.226804,-110.909427,,,,,0
10978,,Alvernon/5th St,N ALVERNON WAY & E 4TH ST,32.229333,-110.909499,,,,,0
10979,,Alvernon/3rd St,N ALVERNON WAY & E 4TH ST,32.231549,-110.909519,,,,,0
10980,,Alvernon/2nd St,N ALVERNON WAY & E 2ND ST,32.234588,-110.909535,,,,,0
10981,,Alvernon/Speedway,N ALVERNON WAY & E BELLEVUE ST,32.236463,-110.909537,,,,,0
10982,,Alvernon/Fairmount,N ALVERNON WAY & E FAIRMOUNT ST,32.2401,-110.909579,,,,,0
10983,,Alvernon/Pima,N ALVERNON WAY & E LOUIS LN,32.243786,-110.909575,,,,,0
10984,,Alvernon/Seneca,N ALVERNON WAY & E SENECA ST,32.247259,-110.909634,,,,,0
10985,,Alvernon/Flower,N ALVERNON WAY & E FLOWER ST,32.25451,-110.909662,,,,,0
10986,,Alvernon/Glenn,N ALVERNON WAY & E GLENN ST,32.258246,-110.909633,,,,,0
10987,,Alvernon/Blacklidge,N ALVERNON WAY & E BLACKLIDGE DR,32.261777,-110.909705,,,,,0
10994,,Fort Lowell/Dodge,E FORT LOWELL RD & N DODGE BLVD,32.264975,-110.91395,,,,,0
10996,,Alvernon/Blacklidge,N ALVERNON WAY & E BLACKLIDGE DR,32.261806,-110.909908,,,,,0
10997,,Alvernon/Glenn,N ALVERNON WAY & E GLENN ST,32.258186,-110.909943,,,,,0
10998,,Alvernon/Flower,N ALVERNON WAY & E FLOWER ST,32.254412,-110.909844,,,,,0
11000,,Alvernon/Seneca,N ALVERNON WAY & E SENECA ST,32.246881,-110.909797,,,,,0
11001,,Alvernon/Pima,N ALVERNON WAY & E PIMA ST,32.243048,-110.909753,,,,,0
11002,,Alvernon/Fairmount,N ALVERNON WAY & E FAIRMOUNT ST,32.239604,-110.909821,,,,,0
11005,,Alvernon/3rd St,N ALVERNON WAY & E 3RD ST,32.232326,-110.909729,,,,,0
11006,,Alvernon/5th St,N ALVERNON WY & E 5TH ST,32.229181,-110.909721,,,,,0
11007,,Alvernon/C De Soto,N ALVERNON WAY & E C DE SOTO,32.225326,-110.909602,,,,,0
11008,,Broadway/Alvernon,E BROADWAY BLVD & S ALVERNON WAY,32.221436,-110.909156,,,,,0
11012,,Alvernon/Whittier,S ALVERNON WY & E WHITTIER ST,32.217974,-110.909699,,,,,0
11013,,Alvernon/Hayne,S ALVERNON WAY & E HAYNE ST,32.214001,-110.909787,,,,,0
11014,,Alvernon/Pso Dorado,S ALVERNON WAY & E PSO DORADO,32.210197,-110.909783,,,,,0
11018,,Alvernon/32nd St,S ALVERNON WY & E 32ND ST,32.199651,-110.909561,,,,,0
11019,,Winstel/March Pl,S WINSTEL AVE & E MARCH PL,32.198203,-110.910646,,,,,0
11020,,34th St/33rd St,E 34TH ST & E MARCH PL,32.196088,-110.910625,,,,,0
11022,,34th St/34th Pl,E 34TH ST & S 34TH PL,32.19418,-110.913413,,,,,0
11024,,34th St/Layton,E 34TH ST & LAYTON,32.194182,-110.918488,,,,,0
11027,,Alvernon/32nd St,S ALVERNON WAY & E 32ND ST,32.199115,-110.909632,,,,,0
11029,,Palo Verde/Veterans,S PALO VERDE RD & E VETERANS ST,32.181507,-110.917851,,,,,0
11030,,Palo Verde/Ajo,S PALO VERDE RD & E AJO WAY,32.177547,-110.917891,,,,,0
11031,,Palo Verde/Columbia,S PALO VERDE RD & E COLUMBIA ST,32.172579,-110.917783,,,,,0
11032,,Palo Verde/Michigan,S PALO VERDE RD & E MICHIGAN ST,32.170264,-110.917829,,,,,0
11033,,Gas Rd/Palo Verde,E GAS RD & S PALO VERDE RD,32.16695,-110.917394,,,,,0
11034,,Hotel Dr/Irvington,S HOTEL DR & E IRVINGTON RD,32.16387,-110.914644,,,,,0
11035,,Palo Verde/Corporate,S PALO VERDE RD & S JULIAN DR,32.15722,-110.917707,,,,,0
11037,,Palo Verde/Benson Hwy,S PALO VERDE RD & E BENSON HWY,32.151944,-110.917742,,,,,0
11038,,Palo Verde/Milton,S PALO VERDE RD & E MILTON RD,32.147202,-110.917877,,,,,0
11039,,Palo Verde/Mossman,S PALO VERDE RD & E MOSSMAN RD,32.14294,-110.917843,,,,,0
11040,,Palo Verde/Hemisphere,S PALO VERDE RD & E HEMISPHERE LOOP,32.139219,-110.917643,,,,,0
11041,,Palo Verde/Britannia,S PALO VERDE RD & E HEMISPHERE LOOP,32.136789,-110.9178,,,,,0
11042,,Valencia/Hemisphere,E VALENCIA RD & E HEMISPHERE LOOP,32.134295,-110.922422,,,,,0
11043,,Valencia/Country Club,E VALENCIA RD & S COUNTRY CLUB RD,32.134276,-110.927061,,,,,0
11044,,Valencia/Bay Colony,E VALENCIA RD & S TUCSON BLVD,32.134274,-110.930319,,,,,0
11045,,Tucson Bl/Valencia,S TUCSON BLVD & N TYNDALL AVE,32.133361,-110.934843,,,,,0
11046,,Tucson Bl/Medina,S TUCSON BLVD & E ARAGON RD,32.129979,-110.934808,,,,,0
11047,,Tucson Bl/Elvira,S TUCSON BLVD & E ELVIRA RD,32.126982,-110.934825,,,,,0
11048,,Tucson Bl/Corona,S TUCSON BLVD & E ELVIRA RD,32.124189,-110.934801,,,,,0
11049,,Ajo/Palo Verde,E AJO WAY & S PALO VERDE RD,32.178082,-110.91808,,,,,0
11050,,Ajo/Randolph Av.,E AJO WAY & S RANDOLPH AVE,32.17812,-110.923031,,,,,0
11053,,Ajo/Forgeus,E AJO WAY & S FORGEUS AVE,32.178047,-110.932545,,,,,0
11054,,Ajo/P.C. Sheriffs Dept.,E AJO WAY & S FORGEUS AVE,32.178033,-110.936186,,,,,0
11055,,Ajo/Juvenile Court,E AJO WAY & W I10 RAMP,32.178005,-110.939841,,,,,0
11056,,Ajo/Bernard,E AJO WAY & E BERNARD DR,32.177981,-110.950232,,,,,0
11057,,Ajo/Benson Hwy,E AJO WAY & E BENSON HWY,32.177965,-110.952968,,,,,0
11058,,Ajo/Golden Eagle Distrib,E AJO WAY & S 2ND AVE,32.17797,-110.95984,,,,,0
11059,,Ajo/2rd Av,E AJO WAY & S 2ND AVE,32.177931,-110.963149,,,,,0
11060,,6th Av/Ajo,S 6TH AVE & W AJO WAY,32.178202,-110.968172,,,,,0
11061,,6th Av/District,S 6TH AVE & W DISTRICT ST,32.173812,-110.968322,,,,,0
11063,,6th Av/Michigan,S 6TH AVE & W MICHIGAN DR,32.170709,-110.9683,,,,,0
11064,,6th Av/Illinois,S 6TH AVE & W ILLINOIS ST,32.169077,-110.968295,,,,,0
11065,,6th Av/Oklahoma,S 6TH AV & W OKLAHOMA ST,32.164891,-110.968317,,,,,0
11066,,Speedway/Cummings,E SPEEDWAY BL & N RIVERVIEW BL,32.235532,-110.79447,,,,,0
11067,,Speedway/Palms Park Dr.,E SPEEDWAY BLVD & E PALMS PARK DR,32.235551,-110.79863,,,,,0
11068,,Speedway/Av Ricardo Small,E SPEEDWAY BLVD & N AVE RICARDO SMALL,32.235526,-110.801649,,,,,0
11070,,Speedway/Cam Seco,E SPEEDWAY BLVD & N CMO SECO,32.235635,-110.807838,,,,,0
11073,,Speedway/Woodridge Apts,E SPEEDWAY BLVD & N SPEEDWAY PL,32.235641,-110.815599,,,,,0
11074,,Speedway/Sarnoff,E SPEEDWAY BLVD & N SARNOFF DR,32.235625,-110.816424,,,,,0
11075,,Speedway/Maguire,E SPEEDWAY BLVD & N MAGUIRE AVE,32.235646,-110.820039,,,,,0
11076,,Speedway/Pantano,E SPEEDWAY BLVD & N PANTANO RD,32.235669,-110.824278,,,,,0
11077,,Speedway/Grady,E SPEEDWAY BLVD & E GRADY AVE,32.23568,-110.827695,,,,,0
11078,,Speedway/7351 E Speedway,,32.23572,-110.835254,,,,,0
11085,,Tetakusim Rd/Settler Av,W TETAKUSIM RD & S SETTLER AVE,32.115586,-111.05512,,,,,0
11086,,Cmo Potam /C Tetakusim,S CMO POTAM & UNKNOWN,32.114318,-111.066724,,,,,0
11087,,Cmo Potam /Ball Field,S CMO POTAM & W C TORIM,32.113091,-111.066735,,,,,0
11091,,Tetakusim Rd/Sparrow Av,W TETAKUSIM RD & S CAMINO DE OESTE,32.115339,-111.057168,,,,,0
11092,,Sorrel Ln/Tetakusim Rd,S SORREL LN & W TETAKUSIM RD,32.116355,-111.045894,,,,,0
11093,,Los Reales/Bolingbroke,W LOS REALES RD & S BOLINGBROKE AVE,32.119067,-111.042912,,,,,0
11094,,Los Reales/C de la Bajada,W LOS REALES RD & S BRACKENBURY DR,32.119045,-111.039581,,,,,0
11095,,Los Reales/Cmo Alegre,W LOS REALES RD & S CMO LIBERTAD,32.119078,-111.033223,,,,,0
11096,,Cardinal/Los Reales,S CARDINAL AV & W LOS REALES RD,32.119748,-111.028858,,,,,0
11097,,Cardinal/Tigre,S CARDINAL AVE & W C DEL TIGRE,32.124484,-111.028958,,,,,0
11098,,Cardinal/Pajarito,S CARDINAL AVE & W C PAJARITO,32.127804,-111.028904,,,,,0
11099,,Cardinal/Pincushion,S CARDINAL AVE & W PINCUSHION LN,32.131237,-111.0288,,,,,0
11103,,Cardinal/Century Dr,S CARDINAL AVE & W CENTURY DR,32.135717,-111.028773,,,,,0
11105,,Valencia/Mission,W VALENCIA RD & S MISSION RD,32.133757,-111.015409,,,,,0
11107,,Valencia/Indian Agency Rd,W VALENCIA RD & S VALLEY INDIAN AGENCY CONNECT RD,32.133718,-111.002468,,,,,0
11108,,Valencia/Commerce Court,W VALENCIA RD & W COMMERCE CT,32.133674,-110.995694,,,,,0
11109,,Valencia/Pacheco,W VALENCIA RD & S PACHECO AVE,32.133756,-110.979073,,,,,0
11111,,6th Av/Valeska,S 6TH AVE & W VALESKA ST,32.137173,-110.967871,,,,,0
11112,,6th Av/Bilby,S 6TH AVE & W BILBY RD,32.141625,-110.967891,,,,,0
11113,,6th Av/Delta,S 6TH AV & E DELTA RD,32.145262,-110.967893,,,,,0
11115,,6th Av/Alaska,S 6TH AV & E ALASKA ST,32.154111,-110.967983,,,,,0
11117,,Liberty/Nebraska,S LIBERTY AVE & W NEBRASKA ST,32.156261,-110.973152,,,,,0
11121,,Kolb/C Osita,S KOLB RD & E C OSITO,32.196146,-110.840833,,,,,0
11126,,Kolb/Princeton,S KOLB RD & E PRINCETON PL,32.211175,-110.840845,,,,,0
11129,,Kolb/Broadway,N KOLB RD & E BROADWAY BLVD,32.221493,-110.840771,,,,,0
11130,,Kolb/Kingston,N KOLB RD & E KINGSTON DR,32.22624,-110.840867,,,,,0
11133,,Speedway/Kolb,E SPEEDWAY BLVD & N GREEN HILLS AVE,32.235735,-110.841758,,,,,0
11134,,Speedway/Dorado,E SPEEDWAY BLVD & E DORADO BLVD,32.235681,-110.845308,,,,,0
11135,,Speedway/Caribe,E SPEEDWAY BLVD & N CARIBE AVE,32.235694,-110.846847,,,,,0
11136,,Speedway/Natachee,E SPEEDWAY BLVD & N EL DORADO PL,32.235688,-110.850571,,,,,0
11137,,Speedway/Radisson Hotel,,32.235723,-110.853737,,,,,0
11138,,Speedway/Wilmot,E SPEEDWAY BLVD & N WILMOT RD,32.236087,-110.858525,,,,,0
11139,,Speedway/Alamo,E SPEEDWAY BLVD & N ALAMO AVE,32.236225,-110.862256,,,,,0
11140,,Speedway/Sahuara,E SPEEDWAY BLVD & N MCKINLEY AVE,32.236326,-110.866985,,,,,0
11141,,Speedway/Van Buren,E SPEEDWAY BLVD & N JEFFERSON AVE,32.236321,-110.871267,,,,,0
11142,,Speedway/Craycroft,E SPEEDWAY BLVD & N CRAYCROFT RD,32.236285,-110.875949,,,,,0
11143,,Speedway/Beverly,E SPEEDWAY BLVD & N BEVERLY AVE,32.236272,-110.880034,,,,,0
11144,,Speedway/Rosemont,E SPEEDWAY BLVD & N ROSEMONT BLVD,32.236314,-110.884438,,,,,0
11145,,Speedway/Arcadia,E SPEEDWAY BLVD & N ARCADIA AVE,32.236346,-110.888597,,,,,0
11146,,Speedway/Swan,E SPEEDWAY BLVD & N SWAN RD,32.236309,-110.893205,,,,,0
11147,,Speedway/Catalina,E SPEEDWAY BLVD & N CATALINA AVE,32.236314,-110.898821,,,,,0
11148,,Speedway/Columbus,E SPEEDWAY BLVD & N BRYANT AVE,32.236279,-110.902074,,,,,0
11149,,Speedway/Arlington,E SPEEDWAY BLVD & N ARLINGTON BLVD,32.236323,-110.905982,,,,,0
11150,,Speedway/Dodge,E SPEEDWAY BLVD & N DODGE BLVD,32.236352,-110.913607,,,,,0
11152,,Speedway/Howard,E SPEEDWAY BLVD & N HOWARD BLVD,32.236244,-110.922183,,,,,0
11153,,Speedway/Country Club,E SPEEDWAY BLVD & N COUNTRY CLUB RD,32.236182,-110.927238,,,,,0
11154,,Speedway/Treat,E SPEEDWAY BLVD & N TREAT AVE,32.236188,-110.930502,,,,,0
11155,,Speedway/Tucson,E SPEEDWAY BLVD & N TUCSON,32.236191,-110.93592,,,,,0
11156,,Speedway/Plumer,E SPEEDWAY BLVD & N PLUMER AVE,32.23622,-110.940015,,,,,0
11157,,Speedway/Warren Underpass,E SPEEDWAY BLVD & WARREN UNDERPASS,32.236135,-110.947087,,,,,0
11161,,Speedway/Olive Underpass,E SPEEDWAY BLVD & OLIVE UNDERPASS,32.236157,-110.95533,,,,,0
11163,,Speedway/Euclid,E SPEEDWAY BLVD & N EUCLID AVE,32.236136,-110.960148,,,,,0
11164,,Speedway/2nd Av,E SPEEDWAY BL & N BEAN AV,32.236001,-110.962964,,,,,0
11165,,Speedway/4th Av,E SPEEDWAY BLVD & N 4TH AVE,32.236042,-110.965911,,,,,0
11166,,Speedway/6th Av,E SPEEDWAY BL & N 6TH AV,32.235993,-110.968584,,,,,0
11167,,Stone/Speedway,N STONE AVE & W SPEEDWAY BLVD,32.23521,-110.971944,,,,,0
11168,,Stone/University,N STONE AVE & W UNIVERSITY BLVD,32.231337,-110.971872,,,,,0
11170,,Stone/Franklin,N STONE AVE & N TOOLE AVE,32.225841,-110.971806,,,,,0
11171,,Stone/Alameda,N STONE AVE & E ALAMEDA ST,32.2246,-110.971759,,,,,0
11172,,Alameda/Court Av,W ALAMEDA ST & N COURT AVE,32.223427,-110.97419,,,,,0
11175,,6th Av/6th St,N 6TH AVE & UNNAMED,32.22734,-110.968558,,,,,0
11177,,Speedway/6th Av,E SPEEDWAY BL & N 6TH AV,32.235831,-110.968544,,,,,0
11178,,Speedway/4th Av,E SPEEDWAY BLVD & N 4TH AVE,32.235778,-110.965327,,,,,0
11179,,Speedway/2nd Av,E SPEEDWAY BL & N 2ND AV,32.235835,-110.962379,,,,,0
11180,,Speedway/Euclid,E SPEEDWAY BLVD & N EUCLID AVE,32.235906,-110.958945,,,,,0
11181,,Speedway/Olive Underpass,E SPEEDWAY BLVD & OLIVE UNDERPASS,32.235878,-110.955184,,,,,0
11182,,Speedway/Highland Underpass,E SPEEDWAY BL & N MOUNTAIN AV,32.235885,-110.951063,,,,,0
11183,,Speedway/Warren Underpass,E SPEEDWAY BLVD & WARREN UNDERPASS,32.235886,-110.947313,,,,,0
11184,,Speedway/Plumer,E SPEEDWAY BLVD & N WILSON AVE,32.235941,-110.939368,,,,,0
11185,,Speedway/Tucson,E SPEEDWAY BLVD & N TUCSON BLVD,32.235948,-110.934632,,,,,0
11186,,Speedway/Treat,E SPEEDWAY BLVD & N TREAT AVE,32.235858,-110.930825,,,,,0
11187,,Speedway/Country Club,E SPEEDWAY BLVD & N COUNTRY CLUB RD,32.235835,-110.926357,,,,,0
11188,,Speedway/Miramonte,E SPEEDWAY BLVD & N CMO MIRAMONTE,32.236058,-110.921182,,,,,0
11189,,Speedway/Richey,E SPEEDWAY BLVD & N RICHEY BLVD,32.236018,-110.915658,,,,,0
11190,,Speedway/Dodge,E SPEEDWAY BLVD & N DODGE BLVD,32.236007,-110.912949,,,,,0
11191,,Speedway/Arlington,E SPEEDWAY BLVD & N ARLINGTON BLVD,32.236009,-110.905,,,,,0
11193,,Speedway/Belvedere,E SPEEDWAY BL & N BELVEDERE AV,32.236055,-110.896562,,,,,0
11194,,Speedway/Swan,E SPEEDWAY BLVD & N SWAN RD,32.236094,-110.892203,,,,,0
11195,,Speedway/Arcadia,E SPEEDWAY BLVD & N ARCADIA AVE,32.236079,-110.888044,,,,,0
11196,,Speedway/Rosemont,E SPEEDWAY BLVD & N ROSEMONT BLVD,32.236071,-110.883587,,,,,0
11197,,Speedway/Beverly,E SPEEDWAY BL & N BEVERLY AV,32.236029,-110.879465,,,,,0
11198,,Speedway/Craycroft,E SPEEDWAY BLVD & N CRAYCROFT RD,32.236013,-110.875062,,,,,0
11200,,Speedway/Van Buren,E SPEEDWAY BL & N MCKINLEY AV,32.236012,-110.870646,,,,,0
11201,,Speedway/Sahuara,E SPEEDWAY BLVD & N SAHUARA AVE,32.236036,-110.866658,,,,,0
11202,,Speedway/Sonoita,E SPEEDWAY BLVD & N ALAMO AVE,32.235966,-110.86395,,,,,0
11204,,Speedway/Radisson Hotel,,32.235427,-110.852642,,,,,0
11205,,Speedway/Natachee,E SPEEDWAY BLVD & N NATACHEE,32.235438,-110.849725,,,,,0
11207,,Speedway/Dorado,E SPEEDWAY BLVD & E DORADO BLVD,32.235386,-110.844738,,,,,0
11209,,Kolb/Speedway,N KOLB RD & E SPEEDWAY BLVD,32.234892,-110.841132,,,,,0
11212,,Kolb/Kingston,N KOLB RD & E KINGSTON DR,32.225776,-110.841096,,,,,0
11213,,Kolb/K-Mart,N KOLB RD,32.222626,-110.84111,,,,,0
11214,,Kolb/Broadway,S KOLB RD & E BROADWAY BLVD,32.220635,-110.841133,,,,,0
11217,,Kolb/Princeton,S KOLB RD & E PRINCETON PL,32.210585,-110.841097,,,,,0
11220,,Kolb/C Ileo,S KOLB RD & E C ILEO,32.198697,-110.841156,,,,,0
11228,,Speedway/Kolb,E SPEEDWAY BLVD & N KOLB RD,32.235379,-110.840402,,,,,0
11230,,Speedway/7350 E Speedway,7400 E SPEEDWAY BLVD & N PRUDENCE RD,32.235388,-110.834792,,,,,0
11232,,Speedway/Pantano,E SPEEDWAY BLVD & N PANTANO RD,32.235368,-110.823359,,,,,0
11233,,Speedway/Maguire,E SPEEDWAY BLVD & N MAGUIRE AVE,32.235425,-110.819391,,,,,0
11234,,Speedway/Woodridge Apts,,32.235421,-110.81592,,,,,0
11235,,Speedway/Keesal,E SPEEDWAY BLVD & N ELECTRA DR,32.235397,-110.812672,,,,,0
11236,,Speedway/Goebel,E SPEEDWAY BLVD & N GOEBEL AVE,32.235334,-110.809335,,,,,0
11237,,Speedway/Cam Seco,E SPEEDWAY BLVD & N CMO SECO,32.235307,-110.806168,,,,,0
11239,,Speedway/Av Ricardo Small,E SPEEDWAY BL & N AVENIDA RICARDO SMAL,32.235378,-110.800764,,,,,0
11240,,Speedway/Igo Way,E SPEEDWAY BLVD & N IGO WAY,32.235427,-110.79789,,,,,0
11241,,Speedway/Cummings,E SPEEDWAY BLVD & N CUMMINGS DR,32.23537,-110.794339,,,,,0
11246,,32nd St/Chrysler,E 32ND ST & S DODGE BLVD,32.199391,-110.914192,,,,,0
11247,,Silverlake/Palo Verde,E SILVERLAKE RD & S PALO VERDE AVE,32.199759,-110.918377,,,,,0
11249,,Silverlake/Randolph Way,E SILVERLAKE RD & S HOWARD SV,32.199682,-110.922556,,,,,0
11250,,Country Club/Silverlake,S COUNTRY CLUB RD & E SILVERLAKE RD,32.199908,-110.92661,,,,,0
11251,,Country Club/27th St,S COUNTRY CLUB RD & E 27TH ST,32.203006,-110.926589,,,,,0
11252,,Country Club/23rd St,S COUNTRY CLUB RD & E 23RD ST,32.205914,-110.926675,,,,,0
11255,,Country Club/Eastland,S COUNTRY CLUB RD & E EASTLAND ST,32.211694,-110.926508,,,,,0
11256,,Country Club/17th St,S COUNTRY CLUB RD & E CMO CAMPESTRE,32.21366,-110.926541,,,,,0
11257,,Country Club/Arroyo Chico,S COUNTRY CLUB RD & E ARROYO CHICO,32.216833,-110.926497,,,,,0
11263,,Park/Drachman,N PARK AVE & E DRACHMAN ST,32.239801,-110.956756,,,,,0
11264,,Park/Elm,N PARK AVE & E ELM ST,32.242663,-110.956776,,,,,0
11265,,Park/Waverly,N PARK AV & E WAVERLY ST,32.24599,-110.956747,,,,,0
11266,,Park/Grant,N PARK AVE & E GRANT RD,32.250103,-110.956828,,,,,0
11267,,Park/Copper,N PARK AVE & E COPPER ST,32.254179,-110.956744,,,,,0
11268,,Park/Glenn,N PARK AVE & E GLENN ST,32.257371,-110.956711,,,,,0
11269,,Glenn/Mountain,E GLENN ST & N VIA ENCANTADORA,32.257473,-110.952688,,,,,0
11270,,Glenn/Cherry,E GLENN ST & N CHERRY AVE,32.257523,-110.947933,,,,,0
11272,,Glenn/Plumer,E GLENN ST & N PLUMER AVE,32.257558,-110.939325,,,,,0
11273,,Glenn/Tucson,E GLENN ST & N TUCSON BLVD,32.257579,-110.934995,,,,,0
11274,,Glenn/Treat,E GLENN ST & N TREAT AVE,32.257629,-110.930781,,,,,0
11275,,Glenn/Country Club,E GLENN ST & N COUNTRY CLUB RD,32.25766,-110.926535,,,,,0
11276,,Glenn/Edith,E GLENN ST & N EDITH BLVD,32.257685,-110.922778,,,,,0
11277,,Glenn/Palo Verde,E GLENN ST & N PALO VERDE AVE,32.257748,-110.917959,,,,,0
11278,,Glenn/Dodge,E GLENN ST & N DODGE BLVD,32.25778,-110.913862,,,,,0
11288,,Glenn/Columbus,E GLENN ST & N FAIR OAKS AVE,32.257954,-110.901795,,,,,0
11289,,Glenn/Sycamore,E GLENN ST & N C DE ROMY,32.257918,-110.905905,,,,,0
11290,,Glenn/Dodge,E GLENN ST & N RICHEY BLVD,32.257886,-110.914694,,,,,0
11291,,Glenn/Palo Verde,E GLENN ST & N SPARKMAN BLVD,32.257849,-110.918737,,,,,0
11292,,Glenn/Edith,E GLENN ST & N FLANWILL BLVD,32.25779,-110.923304,,,,,0
11293,,Glenn/Country Club,E GLENN ST & N COUNTRY CLUB RD,32.257819,-110.927335,,,,,0
11294,,Glenn/Treat,E GLENN ST & N TREAT AVE,32.257733,-110.931349,,,,,0
11295,,Glenn/Tucson,E GLENN ST & N WILSON AVE,32.257679,-110.935542,,,,,0
11296,,Glenn/Plumer,E GLENN ST & N PLUMER AV,32.2577,-110.939807,,,,,0
11298,,Glenn/Cherry,E GLENN ST & N CHERRY AV,32.257648,-110.948588,,,,,0
11299,,Glenn/Mountain,E GLENN ST & N VIA ENCANTADORA,32.257607,-110.952654,,,,,0
11300,,Glenn/Park,E GLENN ST & N PARK AV,32.257677,-110.956407,,,,,0
11301,,Park/Copper,N PARK AVE & E COPPER ST,32.253744,-110.956886,,,,,0
11302,,Park/Grant,N PARK AVE & E GRANT RD,32.250086,-110.956955,,,,,0
11303,,Park/Waverly,N PARK AVE & E SENECA ST,32.245817,-110.956921,,,,,0
11304,,Park/Elm,N PARK AVE & E LEE ST,32.242183,-110.956888,,,,,0
11305,,Park/Drachman,N PARK AVE & E DRACHMAN ST,32.23938,-110.956888,,,,,0
11321,,Auto Mall Dr/Oracle,W AUTO MALL DR & N CIRCUIT RD,32.290148,-110.979145,,,,,0
11324,,Wetmore/Auto Mall Dr,W WETMORE RD & W AUTO MALL DR,32.286698,-110.987412,,,,,0
11325,,Wetmore/Lake,W WETMORE RD & N LAKE DR,32.286835,-110.991788,,,,,0
11326,,Wetmore/Flowing Wells,W WETMORE RD & N FLOWING WELLS RD,32.286877,-110.995512,,,,,0
11327,,Wetmore/Pomona,W WETMORE RD & N POMONA AVE,32.286977,-110.999673,,,,,0
11328,,Oracle/Rudasill,N ORACLE RD & W RUDASILL RD,32.31435,-110.977705,,,,,0
11329,,River/Stone,E RIVER RD & N STONE AVE,32.296099,-110.970667,,,,,0
11330,,River/Campana Dr,E RIVER RD & N LA CAMPANA,32.293807,-110.95907,,,,,0
11331,,River/Via Entrada,E RIVER RD & N VIA ENTRADA,32.290859,-110.949157,,,,,0
11332,,Campbell Av/River,N CAMPBELL AVE & E RIVER RD,32.285978,-110.943934,,,,,0
11333,,Campbell Av/Allen,N CAMPBELL AVE & E ALLEN RD,32.275661,-110.943951,,,,,0
11344,,Speedway/Highland Underpass,E SPEEDWAY BLVD & N MOUNTAIN AVE,32.236092,-110.951134,,,,,0
11347,,River/Campbell,E RIVER RD & N CAMPBELL AVE,32.287343,-110.944504,,,,,0
11348,,River/Via Entrada,E RIVER RD & N VIA ENTRADA,32.291749,-110.950632,,,,,0
11349,,River/1st Av,E RIVER RD & N 1ST AVE,32.29564,-110.961685,,,,,0
11350,,River/Stone,W RIVER RD & E RIVER RD,32.296431,-110.971752,,,,,0
11352,,Ina/Pso Del Norte,W INA RD & N PSO DEL NORTE,32.33741,-110.983229,,,,,0
11355,,Ina/La Canada,W INA RD & N LA CANADA DR,32.337324,-110.995639,,,,,0
11357,,Ina/Magic Pl,W INA RD & N MAGIC LN,32.337329,-111.004874,,,,,0
11358,,Ina/Casablanca,W INA RD & N CASABLANCA DR,32.337418,-111.009082,,,,,0
11359,,Ina/2300 W Ina Road WB,,32.33741,-111.018246,,,,,0
11362,,Ina/Shannon,W INA RD & N SHANNON RD,32.337535,-111.030203,,,,,0
11364,,Ina/Cmo De La Tierra,W INA RD & N CMO DE LA TIERRA,32.337551,-111.038393,,,,,0
11365,,Ina/Meredith,W INA RD & N MEREDITH BLVD,32.337666,-111.044009,,,,,0
11368,,Stone/Speedway,N STONE AVE & E SPEEDWAY BLVD,32.236188,-110.971696,,,,,0
11369,,Romero/Carefree Village,,32.282385,-111.003449,,,,,0
11372,,Flowing Wells/Roger,N FLOWING WELLS RD & W ROGER RD,32.278774,-110.995129,,,,,0
11373,,Flowing Wells/Pastime,N FLOWING WELLS RD & W PASTIME RD,32.275411,-110.995169,,,,,0
11375,,Flowing Wells/Prince,N FLOWING WELLS RD & W PRINCE RD,32.272344,-110.994957,,,,,0
11378,,Flowing Wells/Delano,N FLOWING WELLS RD & W DELANO DR,32.26389,-110.995097,,,,,0
11379,,Miracle Mile/Flowing Wells,W MIRACLE MILE & N FLOWING WELLS RD,32.261123,-110.994478,,,,,0
11380,,Miracle Mile/El Burrito,W MIRACLE MILE & N EL BURRITO AVE,32.261055,-110.991146,,,,,0
11381,,Miracle Mile/Fairview,W MIRACLE MILE & N FAIRVIEW AVE,32.260895,-110.986243,,,,,0
11382,,Miracle Mile/Riviera Motel,W MIRACLE MILE & N 14TH AVE,32.260902,-110.981544,,,,,0
11383,,Oracle/Glenn,N ORACLE RD & W GLENN ST,32.257383,-110.978256,,,,,0
11384,,Oracle/Jacinto,N ORACLE RD & W JACINTO ST,32.253739,-110.978228,,,,,0
11385,,Oracle/Alturas,N ORACLE RD & W ALTURAS ST,32.251972,-110.978214,,,,,0
11387,,Oracle/Plata,N ORACLE RD & W LESTER ST,32.244261,-110.978142,,,,,0
11388,,Oracle/Lee,N ORACLE RD & W LEE ST,32.241411,-110.978128,,,,,0
11389,,Main/Mabel,N MAIN ST & N MAIN AVE,32.238561,-110.978112,,,,,0
11407,,Main/Speedway,N MAIN AVE & W SPEEDWAY BLVD,32.236311,-110.9778,,,,,0
11408,,Main/Mabel,N MAIN ST & N MAIN AVE,32.238645,-110.977895,,,,,0
11409,,Oracle/Lee,N ORACLE RD & W LEE ST,32.241337,-110.977852,,,,,0
11413,,Oracle/Jacinto,N ORACLE RD & W JACINTO ST,32.254188,-110.977948,,,,,0
11414,,Oracle/Glenn,N ORACLE RD & W GLENN ST,32.257916,-110.977924,,,,,0
11415,,Miracle Mile/Cemetery,W MIRACLE MILE & N 14TH AVE,32.261103,-110.980108,,,,,0
11417,,Miracle Mile/Fairview,W MIRACLE MILE & N FAIRVIEW AVE,32.261126,-110.987144,,,,,0
11418,,Miracle Mile/El Burrito,W MIRACLE MILE & N EL BURRITO AVE,32.261235,-110.991207,,,,,0
11419,,Miracle Mile/Flowing Wells,W MIRACLE MILE & N FLOWING WELLS RD,32.261347,-110.994559,,,,,0
11425,,Prince/Iroquois,W PRINCE RD & N IROQUOIS AVE,32.272056,-110.998137,,,,,0
11426,,Flowing Wells/Prince,N FLOWING WELLS RD & W PRINCE RD,32.271977,-110.995126,,,,,0
11427,,Flowing Wells/Pastime,N FLOWING WELLS RD & W PASTIME RD,32.275946,-110.994857,,,,,0
11430,,Romero/Roger,N ROMERO RD & W ROGER RD,32.279893,-111.003335,,,,,0
11431,,Romero/Carefree Village,,32.283131,-111.00335,,,,,0
11433,,Wetmore/Flowing Wells,W WETMORE RD & N FLOWING WELLS RD,32.286817,-110.994574,,,,,0
11434,,Wetmore/El Burrito,W WETMORE RD & N EL BURRITO AVE,32.286778,-110.991287,,,,,0
11435,,Auto Mall Dr/Wetmore,W AUTO MALL DR & N FAIRVIEW AVE,32.287229,-110.986542,,,,,0
11438,,Auto Mall Dr/Oracle,W AUTO MALL DR & N CIRCUIT RD,32.289981,-110.979563,,,,,0
11455,,Congress/Granada,W CONGRESS ST & N GRANADA AVE,32.221161,-110.976615,,,,,0
11464,,Congress/Granada,W CONGRESS ST & N GRANADA AVE,32.22144,-110.97673,,,,,0
11465,,Ina/I-10 Interstate,,32.337493,-111.064467,,,,,0
11466,,Ina/Thornydale,W INA RD & N MEREDITH BLVD,32.337366,-111.044855,,,,,0
11467,,Ina/Cmo De La Tierra,W INA RD & N CMO DE LA TIERRA,32.33733,-111.037616,,,,,0
11469,,Ina/Shannon,W INA RD & N SHANNON RD,32.337263,-111.028902,,,,,0
11471,,Ina/Mona Lisa,W INA RD & N MONA LISA RD,32.337205,-111.021342,,,,,0
11472,,Ina/Omar,W INA RD & N OMAR DR,32.337145,-111.01814,,,,,0
11486,,Ina/3201 W Ina Road EB,W INA RD & N SHANNON RD,32.337307,-111.034679,,,,,0
11494,,Ina/La Canada,W INA RD & N LA CANADA DR,32.337029,-110.994628,,,,,0
11497,,Ina/Via Ponte,W INA RD & N VIA PONTE,32.337126,-110.979762,,,,,0
11499,,Stone/Glenn,N STONE AVE & E LAGUNA ST,32.257935,-110.971832,,,,,0
11500,,Stone/Roger,N STONE AVE & E ROGER RD,32.278846,-110.972023,,,,,0
11502,,1st Av/River,N 1ST AVE & E RIVER RD,32.295642,-110.960967,,,,,0
11503,,1st Av/Foothills Dr,N 1ST AVE & E FOOTHILLS DR,32.299507,-110.960827,,,,,0
11504,,1st Av/Mescal Pl,N 1ST AVE & E MESCAL PL,32.301653,-110.961005,,,,,0
11505,,1st Av/Via Entrada,N 1ST AVE & E VIA ENTRADA,32.307002,-110.960932,,,,,0
11506,,1st Av/Rudasill,N 1ST AV & E RUDASILL RD,32.315993,-110.960956,,,,,0
11507,,Orange Grove/1st Av,E ORANGE GROVE RD & N 1ST AV,32.322676,-110.9609,,,,,0
11508,,Orange Grove/Pla De Eduardo,E ORANGE GROVE RD & N PLACITA DE EDUARDO,32.322655,-110.956127,,,,,0
11509,,Orange Grove/Cmo Arturo,E ORANGE GROVE RD & N CAMINO ARTURO,32.32264,-110.948963,,,,,0
11510,,Orange Grove/Cmo La Zorrela,E ORANGE GROVE RD & E CAMINO LA ZORRELA,32.323486,-110.941725,,,,,0
11513,,Sunrise Dr/La Paloma Club House,E SUNRISE DR & N CAMPO ABIERTO,32.317712,-110.914375,,,,,0
11514,,Sunrise Dr/Via Palomita,E SUNRISE DR & E VIA PALOMITA,32.312419,-110.912007,,,,,0
11515,,Sunrise Dr/Hacienda Del Sol,E SUNRISE DR & N HACIENDA DEL SOL RD,32.309171,-110.908283,,,,,0
11516,,Sunrise Dr/Pontatoc Road,E SUNRISE DR & N HACIENDA DEL SOL RD,32.308228,-110.901995,,,,,0
11518,,Swan/Glenn,N SWAN RD & E GLENN ST,32.257417,-110.892703,,,,,0
11525,,Toole/7th Av,N TOOLE AVE & N 7TH AVE,32.225778,-110.970687,,,,,0
11526,,Congress/Church,W CONGRESS ST & N 6TH AVE,32.221724,-110.972994,,,,,0
11534,,Sunrise Dr/Pontatoc Road,E SUNRISE DR & N HACIENDA DEL SOL RD,32.308594,-110.90292,,,,,0
11536,,Sunrise Dr/Via Palomita,E SUNRISE DR & E VIA PALOMITA,32.312993,-110.911958,,,,,0
11537,,Sunrise Dr/La Paloma Club House,E SUNRISE DR & N CAMPO ABIERTO,32.317561,-110.914569,,,,,0
11538,,Sunrise Dr/Campo Abierto,E SUNRISE DR & N CAMPO ABIERTO,32.320434,-110.918671,,,,,0
11540,,Orange Grove/Cmo La Zorrela,E ORANGE GROVE RD & E CAMINO LA ZORRELA,32.323381,-110.942036,,,,,0
11541,,Orange Grove/Cmo Arturo,E ORANGE GROVE RD & N CAMINO ARTURO,32.322707,-110.9494,,,,,0
11542,,Orange Grove/Cmo De Michael,E ORANGE GROVE RD & N CAMINO DE MICHAEL,32.322719,-110.955155,,,,,0
11543,,1st Av/Orange Grove,N 1ST AVE & E ORANGE GROVE RD,32.322588,-110.961316,,,,,0
11544,,1st Av/Rudasill,N 1ST AVE & E RUDASILL RD,32.315265,-110.961294,,,,,0
11545,,1st Av/Via Entrada,N 1ST AVE & E VIA ENTRADA,32.306346,-110.961278,,,,,0
11546,,1st Av/Mescal Pl,N 1ST AVE & W C CANARIO,32.301386,-110.961285,,,,,0
11547,,1st Av/Foothills Dr,N 1ST AVE & E FOOTHILLS DR,32.298971,-110.961063,,,,,0
11549,,Stone/Wetmore,N STONE AVE & E WETMORE RD,32.286189,-110.969859,,,,,0
11550,,Stone/Roger,N STONE AVE & W ROGER RD,32.278794,-110.972332,,,,,0
11561,,Ajo/6th Av,W AJO WAY & S 6TH AVE,32.177899,-110.968631,,,,,0
11610,,Alvernon/Speedway,N ALVERNON WY & E SPEEDWAY BL,32.235714,-110.909823,,,,,0
11689,,6th Av/Ajo,S 6TH AVE & W AJO WAY,32.177573,-110.968369,,,,,0
11704,,Grande/Speedway,N GRANDE AVE & W DELAWARE ST,32.23464,-110.990294,,,,,0
11705,,Grande/Ontario,N GRANDE AVE & W HURON ST,32.23358,-110.990188,,,,,0
11706,,Grande/Sonora,S GRANADA AVE & SONORA,32.230672,-110.989775,,,,,0
11712,,Speedway/Riverview,W SPEEDWAY BLVD & N CUESTA AVE,32.235809,-110.994354,,,,,0
11713,,Speedway/Cherokee,W SPEEDWAY BLVD & N CHEROKEE AVE,32.235786,-110.99759,,,,,0
11714,,Speedway/Seminole,W SPEEDWAY BLVD & N SEMINOLE AVE,32.235757,-110.999861,,,,,0
11715,,Speedway/El Rio,W SPEEDWAY BLVD & N EL RIO DR,32.235743,-111.001739,,,,,0
11716,,Silverbell/Speedway,N SILVERBELL RD & W SPEEDWAY BLVD,32.234671,-111.00371,,,,,0
11717,,Silverbell/C Mecedora,N SILVERBELL RD & W CALLE MECEDORA,32.232666,-111.002366,,,,,0
11718,,Silverbell/San Jose,N SILVERBELL RD & SAN JOSE,32.230903,-111.000983,,,,,0
11719,,Silverbell/Tucson Terrace,N SILVERBELL RD & W SILVERBELL TREE DR,32.225357,-110.997479,,,,,0
11720,,Fresno/Silverbell,W FRESNO ST & N SILVERBELL RD,32.224279,-110.995166,,,,,0
11722,,Westmoreland/Fresno,N WESTMORELAND AV & W FRESNO ST,32.223861,-110.992866,,,,,0
11723,,Westmoreland/Alameda,N WESTMORELAND AVE & W ALAMEDA ST,32.222044,-110.992695,,,,,0
11724,,Westmoreland/Pennington,N WESTMORELAND AV & W PENNINGTON ST,32.220556,-110.99253,,,,,0
11725,,Congress/Westmoreland,W CONGRESS ST & S WESTMORELAND AV,32.219585,-110.992221,,,,,0
11727,,Congress/Av del Convento,W CONGRESS ST & N LINDA AVE,32.220269,-110.985244,,,,,0
11735,,6th St/Euclid,E 6TH ST & N EUCLID AVE,32.227704,-110.959039,,,,,0
11736,,6th St/Park Av,E 6TH ST & N PARK AV,32.227838,-110.956628,,,,,0
11738,,6th St/Highland,E 6TH ST & N HIGHLAND AVE,32.227678,-110.950125,,,,,0
11739,,6th St/Cherry,E 6TH ST & N CHERRY AVE,32.227716,-110.947772,,,,,0
11740,,6th St/Plumer,E 6TH ST & N PLUMER AVE,32.227843,-110.93915,,,,,0
11741,,6th St/Tucson,E 6TH ST & N TUCSON BLVD,32.227786,-110.935878,,,,,0
11742,,6th St/Treat,E 6TH ST & N TREAT AVE,32.227851,-110.930827,,,,,0
11743,,Country Club/8th St,N COUNTRY CLUB RD & E 8TH ST,32.22509,-110.926808,,,,,0
11747,,Country Club/Arroyo Chico,S COUNTRY CLUB & E ARROYO CHICO,32.216434,-110.926746,,,,,0
11749,,Country Club/Eastland,S COUNTRY CLUB RD & E 19TH ST,32.2112,-110.926768,,,,,0
11751,,22nd St/Country Club,22ND ST & COUNTRY CLUB,32.206839,-110.92618,,,,,0
11752,,22nd St/Randolph Pkwy,E 22ND ST & S JONES BLVD,32.206852,-110.922012,,,,,0
11754,,22nd St/Palo Verde,E 22ND ST & S PALO VERDE AVE,32.206884,-110.917808,,,,,0
11757,,29th St/Columbus,E 29TH ST & COLUMBUS,32.199681,-110.901333,,,,,0
11758,,29th St/Belvedere,E 29TH ST & S BELVEDERE,32.199677,-110.897122,,,,,0
11759,,29th St/Venice,E 29TH ST & S SWAN RD,32.199638,-110.894351,,,,,0
11760,,29th St/Swan,E 29TH ST & S SWAN RD,32.199598,-110.89142,,,,,0
11761,,29th St/4880 E 29th St,29TH ST,32.199623,-110.887154,,,,,0
11762,,29th St/Rosemont,E 29TH ST & S ROSEMONT AVE,32.199551,-110.882881,,,,,0
11763,,29th St/Farwell,E 29TH ST & S FARWELL AV,32.199584,-110.880662,,,,,0
11765,,29th St/Van Buren,E 29TH ST & S SAHUARA AVE,32.199673,-110.870653,,,,,0
11766,,29th St/Sahuara,E 29TH ST & S SAHUARA AVE,32.199599,-110.866826,,,,,0
11767,,29th St/Zuni,E 29TH ST & S ZUNI AVE,32.199673,-110.86141,,,,,0
11768,,Wilmot/29th St,S WILMOT RD & E C AURORA,32.199406,-110.858141,,,,,0
11770,,Wilmot/33rd St,S WILMOT RD & E C MARTE,32.195817,-110.858139,,,,,0
11771,,Golf Links/Wilmot,E GOLF LINKS RD & S WILMOT RD,32.191942,-110.857408,,,,,0
11772,,Golf Links/C Polar,E GOLF LINKS RD & S C POLAR,32.191793,-110.853037,,,,,0
11774,,Golf Links/Mann,E GOLF LINKS RD & S MANN AVE,32.19182,-110.849073,,,,,0
11775,,Golf Links/Langley,E GOLF LINKS RD & S LANGLEY AVE,32.191821,-110.844736,,,,,0
11776,,Golf Links/Park & Ride (inside),E GLK PARK N RIDE LOOP & W IRONWOOD HILL DR,32.191569,-110.838543,,,,,0
11777,,Golf Links/Cordova,E GOLF LINKS RD & S C CORDOVA,32.191819,-110.835795,,,,,0
11778,,Golf Links/Prudence,E GOLF LINKS RD & S PRUDENCE RD,32.191805,-110.832109,,,,,0
11779,,Golf Links/Marc Dr,E GOLF LINKS RD & S MARC DR,32.191795,-110.828573,,,,,0
11780,,Golf Links/Pantano Rd,E GOLF LINKS RD & S PANTANO RD,32.191731,-110.823287,,,,,0
11781,,Golf Links/Lakeside Pkwy,E GOLF LINKS RD & E LAKESIDE PW,32.191728,-110.819194,,,,,0
11782,,Golf Links/Saddleback,E GOLF LINKS RD & S SADDLEBACK RD,32.191758,-110.81661,,,,,0
11783,,Golf Links/Sarnoff,E GOLF LINKS RD & S SARNOFF DR,32.191737,-110.814224,,,,,0
11785,,Golf Links/Pantano Pkwy,E GOLF LINKS RD & S PANTANO PW,32.191615,-110.808301,,,,,0
11786,,Golf Links/Oakenshield,E GOLF LINKS RD & S OAKENSHIELD WAY,32.19166,-110.804108,,,,,0
11787,,Golf Links/Palm Springs,E GOLF LINKS RD & S PALM SPRINGS DR,32.191663,-110.799112,,,,,0
11803,,Golf Links/Palm Springs,E GOLF LINKS RD & S PALM SPRINGS DR,32.191925,-110.79915,,,,,0
11804,,Golf Links/Cmo Seco,E GOLF LINKS RD & S CMO SECO,32.191899,-110.804085,,,,,0
11805,,Golf Links/Pantano Pkwy,E GOLF LINKS RD & S PANTANO PW,32.191988,-110.809424,,,,,0
11807,,Golf Links/Sarnoff,E GOLF LINKS RD & S SARNOFF DR,32.191968,-110.814787,,,,,0
11808,,Golf Links/Saddleback,E GOLF LINKS RD & S SADDLEBACK RD,32.192001,-110.817636,,,,,0
11809,,Golf Links/Lakeside Pkwy,E GOLF LINKS RD & E LAKESIDE PW,32.192059,-110.820053,,,,,0
11810,,Golf Links/Pantano Rd,E GOLF LINKS RD & S PANTANO RD,32.192004,-110.824273,,,,,0
11811,,Golf Links/Marc Dr,E GOLF LINKS RD & S MARC DR,32.192032,-110.829122,,,,,0
11812,,Golf Links/Prudence,E GOLF LINKS RD & S PRUDENCE RD,32.192036,-110.832653,,,,,0
11813,,Golf Links/Cordova,E GOLF LINKS RD & S C CORDOVA,32.1921,-110.836455,,,,,0
11814,,Golf Links/Kolb,E GOLF LINKS RD & S KOLB RD,32.192065,-110.841498,,,,,0
11815,,Golf Links/Golf Links Cir,E GOLF LINKS RD & E GOLF LINKS CI,32.192097,-110.844738,,,,,0
11816,,Golf Links/Av Regulo,E GOLF LINKS RD & S AVE REGULO,32.192067,-110.849463,,,,,0
11817,,Golf Links/C Polar,E GOLF LINKS RD & S C POLAR,32.192072,-110.853398,,,,,0
11820,,29th St/Wilmot,E 29TH ST & S WILMOT RD,32.19974,-110.858562,,,,,0
11821,,29th St/Alamo,E 29TH ST & S SONOITA AVE,32.199746,-110.862167,,,,,0
11822,,29th St/Sahuara,E 29TH ST & S SAHUARA AVE,32.199732,-110.866028,,,,,0
11823,,29th St/Van Buren,E 29TH ST & S VAN BUREN AVE,32.199723,-110.871366,,,,,0
11824,,29th St/Beverly,E 29TH ST & S BEVERLY AVE,32.199788,-110.879745,,,,,0
11825,,29th St/Rosemont,E 29TH ST & S ROSEMONT AVE,32.199804,-110.884232,,,,,0
11826,,29th St/4929 E 29th St,29ST ST,32.199808,-110.887874,,,,,0
11827,,29th St/Swan,E 29TH ST & S SWAN RD,32.199817,-110.892759,,,,,0
11828,,29th St/Belvedere,E 29TH ST & S BELVEDERE AVE,32.199852,-110.896555,,,,,0
11829,,29th St/Columbus,E 29TH ST & S COLUMBUS BLVD,32.199844,-110.900721,,,,,0
11833,,22nd St/Randolph Way,E 22ND ST & S RANDOLPH WAY,32.207119,-110.917901,,,,,0
11834,,22nd St/Jones,E 22ND ST & S JONES BLVD,32.207135,-110.920572,,,,,0
11843,,Country Club/8th St,N COUNTRY CLUB RD & E 8TH ST,32.225393,-110.926538,,,,,0
11844,,6th St/Country Club,E 6TH ST & N COUNTRY CLUB RD,32.228474,-110.927018,,,,,0
11845,,6th St/Treat,E 6TH ST & N TREAT AVE,32.22802,-110.931331,,,,,0
11846,,6th St/Tucson,E 6TH ST & N TUCSON BLVD,32.227951,-110.935727,,,,,0
11847,,6th St/Plumer,E 6TH ST & N PLUMER AVE,32.227936,-110.939791,,,,,0
11848,,6th St/Cherry,E 6TH ST & N CHERRY AVE,32.227922,-110.947819,,,,,0
11849,,6th St/Highland,E 6TH ST & N CHERRY AVE,32.227867,-110.950229,,,,,0
11851,,6th St/Euclid,E 6TH ST & N EUCLID AVE,32.227836,-110.959144,,,,,0
11852,,6th St/3rd Av,E 6TH ST & N 3RD AVE,32.227816,-110.963823,,,,,0
11859,,Eastland/Country Club,E EASTLAND ST & S COUNTRY CLUB RD,32.211572,-110.927329,,,,,0
11860,,Eastland/Treat,E EASTLAND ST & S TREAT AVE,32.211555,-110.931168,,,,,0
11861,,Eastland/Tucson,E EASTLAND ST & S TUCSON BLVD,32.211532,-110.935496,,,,,0
11862,,Eastland/Plumer,E EASTLAND ST & S PLUMER AVE,32.211536,-110.939836,,,,,0
11863,,Campbell Av/Eastland,S CAMPBELL AVE & E EASTLAND ST,32.211518,-110.943632,,,,,0
11864,,Winsett/Campbell,E WINSETT ST & S CAMPBELL AVE,32.214226,-110.944218,,,,,0
11865,,Kino Pw/14th St,S KINO PW & E 14TH ST,32.217828,-110.944038,,,,,0
11866,,22nd St/Pantano Pkwy,E 22ND ST & S PANTANO RD,32.206548,-110.824181,,,,,0
11867,,22nd St/Prudence,E 22ND ST & S PRUDENCE RD,32.206628,-110.833241,,,,,0
11868,,22nd St/Kolb,E 22ND ST & KOLB,32.20664,-110.841678,,,,,0
11872,,Stella/Prudence,E STELLA RD & S PRUDENCE RD,32.184732,-110.832759,,,,,0
11878,,Stella/Prudence,E STELLA RD & S PRUDENCE RD,32.184659,-110.8326,,,,,0
11879,,Campbell Av/8th St,N CAMPBELL AV & E 8TH ST,32.225442,-110.9437,,,,,0
11880,,Campbell Av/6th St,N CAMPBELL AV & E 6TH ST,32.228179,-110.94371,,,,,0
11881,,Campbell Av/Speedway,N CAMPBELL AVE & E SPEEDWAY BLVD,32.236753,-110.943748,,,,,0
11882,,Campbell Av/Adams,N CAMPBELL AV & E ADAMS ST,32.240929,-110.943772,,,,,0
11883,,Campbell Av/Lester,N CAMPBELL AV & E LESTER ST,32.243962,-110.943821,,,,,0
11884,,Campbell Av/Seneca,N CAMPBELL AVE & E SENECA ST,32.246906,-110.943945,,,,,0
11886,,Campbell Av/Copper,N CAMPBELL AVE & E COPPER ST,32.254255,-110.943838,,,,,0
11887,,Campbell Av/Glenn,N CAMPBELL AV & E GLENN ST,32.258567,-110.943702,,,,,0
11888,,Campbell Av/Blacklidge,N CAMPBELL AV & E BLACKLIDGE DR,32.261483,-110.943688,,,,,0
11889,,Campbell Av/Ft Lowell,N CAMPBELL AVE & E FORT LOWELL RD,32.264652,-110.943699,,,,,0
11890,,Campbell Av/Kleindale,N CAMPBELL AVE & E KLEINDALE RD,32.268921,-110.943624,,,,,0
11891,,Campbell Av/Allen,N CAMPBELL AVE & E ALLEN RD,32.276224,-110.9437,,,,,0
11892,,Roger/Campbell,E ROGER RD & N CAMPBELL AVE,32.279575,-110.944371,,,,,0
11893,,Roger/Foothills MHP,,32.279519,-110.947662,,,,,0
11894,,Roger/Mountain,E ROGER RD & N MOUNTAIN AVE,32.2795,-110.952941,,,,,0
11895,,Roger/1st Av,E ROGER RD & N 1ST AV,32.279426,-110.960869,,,,,0
11898,,Roger/4th Av,E ROGER RD & N 4TH AVE,32.279268,-110.965544,,,,,0
11900,,Roger/Stone,E ROGER RD & N STONE AVE,32.279149,-110.971532,,,,,0
11902,,Stone/Limberlost,N STONE AVE & E LIMBERLOST DR,32.283138,-110.969464,,,,,0
11904,,Stone/Limberlost,N STONE AVE & E NAVAJO RD,32.282482,-110.969705,,,,,0
11905,,Roger/Stone,E ROGER RD & N STONE AVE,32.279203,-110.971532,,,,,0
11907,,Roger/4th Av,E ROGER RD & N FONTANA AVE,32.279231,-110.965716,,,,,0
11908,,Roger/1st Av,E ROGER RD & N 1ST AV,32.279263,-110.960743,,,,,0
11909,,Roger/Park,E ROGER RD & N PARK AVE,32.279301,-110.956464,,,,,0
11910,,Roger/Mountain,E ROGER RD & N MOUNTAIN AVE,32.279338,-110.951737,,,,,0
11911,,Roger/Foothills MHP,,32.279431,-110.947654,,,,,0
11912,,Campbell Av/Roger,N CAMPBELL AVE & E ROGER RD,32.27898,-110.94395,,,,,0
11914,,Campbell Av/Kleindale,N CAMPBELL AVE & E KLEINDALE RD,32.268359,-110.943862,,,,,0
11915,,Campbell Av/Ft Lowell,N CAMPBELL AV & E FORT LOWELL RD,32.264705,-110.943853,,,,,0
11916,,Campbell Av/Blacklidge,N CAMPBELL AV & E BLACKLIDGE DR,32.260973,-110.943876,,,,,0
11918,,Campbell Av/Glenn,N CAMPBELL AVE & E GLENN ST,32.257278,-110.944007,,,,,0
11919,,Campbell Av/Copper,N CAMPBELL AVE & E COPPER ST,32.253868,-110.944022,,,,,0
11921,,Campbell Av/Waverly,N CAMPBELL AVE & E WAVERLY ST,32.245871,-110.944221,,,,,0
11924,,Campbell Av/Speedway,N CAMPBELL AVE & E SPEEDWAY BLVD,32.235706,-110.944114,,,,,0
11925,,Campbell Av/6th St,N CAMPBELL AVE & E 7TH ST,32.2275,-110.944016,,,,,0
11926,,Campbell Av/9th St,N CAMPBELL AVE & E 7TH ST,32.224396,-110.944004,,,,,0
11927,,Winsett/Kino Blvd,E WINSETT ST & S KINO PW,32.214681,-110.945551,,,,,0
11928,,Campbell Av/17th St,S CAMPBELL AVE & E 17TH ST,32.213215,-110.943839,,,,,0
11929,,Eastland/Campbell,E EASTLAND ST & E 19TH ST,32.211148,-110.943369,,,,,0
11930,,Eastland/Plumer,E EASTLAND ST & S PLUMER AVE,32.211428,-110.939869,,,,,0
11931,,Eastland/Tucson,E EASTLAND ST & S TUCSON BLVD,32.211468,-110.935337,,,,,0
11932,,22nd St/Tucson,E 22ND ST & S TUCSON BLVD,32.206762,-110.934777,,,,,0
11935,,12th Av/Teton,S 12TH AVE & W CABOT DR,32.124655,-110.977771,,,,,0
11936,,12th Av/Inez,S 12TH AVE & W ACADIA DR,32.121379,-110.977766,,,,,0
11946,,La Cholla/Ruthrauff,N LA CHOLLA BLVD & W NOREEN ST,32.29467,-111.011977,,,,,0
11947,,La Cholla/Sunset,N LA CHOLLA BLVD & W SUNSET RD,32.308938,-111.012055,,,,,0
11948,,La Cholla/Orange Grove,N LA CHOLLA BLVD & W ORANGE GROVE RD,32.323706,-111.012209,,,,,0
11951,,Ina/Shama Wing,W INA RD & N PERUGIA WAY,32.337429,-111.024995,,,,,0
11959,,Ina/Shama Wing,,32.337235,-111.025405,,,,,0
11962,,La Cholla/Orange Grove,N LA CHOLLA BLVD & W ORANGE GROVE RD,32.322859,-111.01226,,,,,0
11963,,La Cholla/Sunset,N LA CHOLLA BLVD & W SUNSET RD,32.308312,-111.012112,,,,,0
11964,,Ruthrauff/La Cholla,W RUTHRAUFF RD & N C HARMONIA,32.294484,-111.012363,,,,,0
11970,,Grant/Cherry,E GRANT RD & N CHERRY AV,32.249986,-110.948518,,,,,0
11971,,Grant/Mountain,E GRANT RD & N MOUNTAIN AV,32.25003,-110.952816,,,,,0
11972,,Grant/Park,E GRANT RD & N PARK AVE,32.249934,-110.957137,,,,,0
11973,,Grant/1st Av,E GRANT RD & N 1ST AVE,32.25047,-110.96144,,,,,0
11974,,Grant/Los Altos,E GRANT RD & N LOS ALTOS AV,32.250525,-110.963776,,,,,0
11975,,Grant/Fontana,E GRANT RD & N FONTANA AVE,32.25042,-110.968105,,,,,0
11976,,Irvington/13th Av,W IRVINGTON RD & S 13TH AVE,32.163352,-110.97929,,,,,0
11977,,Irvington/15th Av,W IRVINGTON RD & S 15TH AVE,32.163288,-110.980864,,,,,0
11981,,Santa Clara/Milton,S SANTA CLARA AVE & W MILTON ST,32.146279,-110.981898,,,,,0
11982,,Santa Clara/Mossman,S SANTA CLARA AVE & W MOSSMAN ST,32.142681,-110.981975,,,,,0
11983,,Santa Clara/C Garcia,S SANTA CLARA AVE & W C GARCIA,32.139783,-110.981991,,,,,0
11984,,Santa Clara/Santa Maria,S SANTA CLARA AVE & W SANTA MARIA ST,32.137234,-110.981984,,,,,0
11985,,Santa Clara/Santa Louisa,S SANTA CLARA AVE & W SANTA LOUISA ST,32.135126,-110.98205,,,,,0
11994,,Mission/Irvington Pl,S MISSION RD & W IRVINGTON PL,32.163545,-111.006412,,,,,0
11995,,Mission/Via Ingresso,S MISSION RD & W VIA INGRESSO,32.169769,-111.004709,,,,,0
11996,,Mission/Veterans,S MISSION RD & W VETERANS PL,32.181698,-111.00311,,,,,0
11997,,Mission/C La Paz,S MISSION RD & C LA PAZ,32.184393,-111.002895,,,,,0
11999,,Mission/2800 Block,S MISSION RD & W 36TH ST,32.189005,-110.999646,,,,,0
12000,,36th St/Mission,W 36TH ST & S MISSION RD,32.192368,-110.999847,,,,,0
12001,,36th St/Lands End,W 36TH ST & S LANDS END RD,32.192376,-111.003834,,,,,0
12002,,36th St/Enchanted Hills,W 36TH ST & S ENCHANTED HILLS DR,32.192379,-111.007117,,,,,0
12004,,La Cholla/San Juan,S LA CHOLLA BLVD & W SAN JUAN TRL,32.199129,-111.011607,,,,,0
12005,,La Cholla/A Mountain Ctr,S LA CHOLLA BLVD,32.201507,-111.011702,,,,,0
12006,,San Marcos/Cmo Santiago,W SAN MARCOS BLVD & S CMO SANTIAGO,32.203057,-111.007344,,,,,0
12007,,San Marcos/Cmo del Sierra,W SAN MARCOS BLVD & S CMO DEL SIERRA,32.203043,-111.005015,,,,,0
12008,,San Marcos/San Jacinto,W SAN MARCOS BLVD & S SAN JACINTO DR,32.203075,-111.002989,,,,,0
12010,,San Marcos/Mission,W SAN MARCOS BLVD & S MISSION RD,32.202913,-110.995979,,,,,0
12011,,Silverlake/Silverlake Estates,W SILVERLAKE RD & UNNAMED,32.199405,-110.993436,,,,,0
12012,,Silverlake/Cottonwood,W SILVERLAKE RD & S COTTONWOOD LN,32.199427,-110.99007,,,,,0
12013,,Silverlake/Santa Cruz,W SILVERLAKE RD & S SANTA CRUZ LN,32.199455,-110.986051,,,,,0
12014,,Silverlake/I-10 Interstate,W SILVERLAKE RD & S I19 RAMP,32.199368,-110.980127,,,,,0
12015,,29th St/11th Av,W 29TH ST & S 11TH AVE,32.199445,-110.976253,,,,,0
12016,,29th St/10th Av,W 29TH ST & S 10TH AVE,32.199485,-110.97428,,,,,0
12017,,29th St/8th Av,W 29TH ST & S 8TH AVE,32.199516,-110.971244,,,,,0
12018,,4th Av/28th St,S 4TH AV & E 28TH ST,32.200256,-110.965372,,,,,0
12019,,4th Av/26th St,S 4TH AVE & E 26TH ST,32.202973,-110.965367,,,,,0
12020,,4th Av/24th St,S 4TH AVE & E 23RD ST,32.205376,-110.965335,,,,,0
12021,,4th Av/22nd St,S 4TH AVE & E 22ND ST,32.207278,-110.965335,,,,,0
12022,,4th Av/20th St,S 4TH AVE & E 20TH ST,32.209701,-110.965427,,,,,0
12023,,4th Av/17th St,S 4TH AVE & E 17TH ST,32.21357,-110.965452,,,,,0
12024,,4th Av/15th St,S 4TH AVE & E 15TH ST,32.21651,-110.965475,,,,,0
12025,,12th St/4th Av,E 12TH ST & S HERBERT AVE,32.21997,-110.965838,,,,,0
12043,,Los Reales/Missiondale,W LOS REALES RD & S MISSIONDALE RD,32.119529,-110.96929,,,,,0
12045,,Los Reales/San Fernando,W LOS REALES RD & S SAN FERNANDO RD,32.119556,-110.973132,,,,,0
12046,,12th Av/Los Reales,S 12TH AVE & W LOS REALES RD,32.119932,-110.977463,,,,,0
12050,,12th Av/Medina,S 12TH AVE & W C CASTILE,32.130665,-110.977542,,,,,0
12051,,Valencia/San Fernando,W VALENCIA RD & S SAN FERNANDO RD,32.133868,-110.973004,,,,,0
12061,,6th Av/Thoroughbred,S 6TH AV & E THOROUGHBRED ST,32.159318,-110.968243,,,,,0
12062,,6th Av/Nebraska,S 6TH AVE & E NEBRASKA ST,32.155599,-110.96814,,,,,0
12063,,6th Av/Alaska,S 6TH AV & E ALASKA ST,32.154175,-110.968174,,,,,0
12067,,Park/Drexel,S PARK AVE & E DREXEL RD,32.148338,-110.956246,,,,,0
12079,,10th Av/23rd St,S 10TH AVE & W 23RD ST,32.205241,-110.974721,,,,,0
12084,,1st Av/Grant,N 1ST AVE & E ALTURAS ST,32.250746,-110.960875,,,,,0
12086,,Prince/Stone,W PRINCE RD & N STONE AVE,32.272107,-110.972576,,,,,0
12087,,Prince/Flowing Wells,W PRINCE RD & N FLOWING WELLS RD,32.272264,-110.995691,,,,,0
12094,,Prince/Flowing Wells,W PRINCE RD & N FLOWING WELLS RD,32.271987,-110.994456,,,,,0
12095,,Stone/Prince,N STONE AVE & E KING RD,32.272488,-110.971952,,,,,0
12096,,Prince/Stone,W PRINCE RD & N STONE AVE,32.271848,-110.972414,,,,,0
12098,,1st Av/Grant,N 1ST AVE & E GRANT RD,32.250621,-110.961046,,,,,0
12102,,12th Av/Valencia,S 12TH AVE & W VALENCIA RD,32.135143,-110.977545,,,,,0
12104,,12th Av/Santa Maria,S 12TH AVE & W SANTA MARIA ST,32.137913,-110.977532,,,,,0
12106,,12th Av/Bilby,S 12TH AVE & W BILBY RD,32.141601,-110.977485,,,,,0
12107,,12th Av/C Alvord,S 12TH AVE & W C RAMONA,32.14529,-110.97747,,,,,0
12108,,12th Av/Drexel,S 12TH AVE & W DREXEL RD,32.14896,-110.977476,,,,,0
12109,,12th Av/Canada St,S 12TH AVE & W CANADA ST,32.151436,-110.97747,,,,,0
12111,,Liberty/Utah,S LIBERTY AVE & W UTAH ST,32.157678,-110.973286,,,,,0
12114,,12th Av/Nebraska,S 12TH AVE & W NEBRASKA ST,32.15622,-110.977435,,,,,0
12115,,12th Av/Wyoming,S 12TH AVE & W WYOMING ST,32.159331,-110.977426,,,,,0
12116,,12th Av/Irvington,S 12TH AVE & W IRVINGTON RD,32.163596,-110.977352,,,,,0
12117,,12th Av/Ohio,S 12TH AVE & W OHIO ST,32.167411,-110.977367,,,,,0
12118,,12th Av/Pennsylvania,S 12TH AVE & W PENNSYLVANIA DR,32.171686,-110.977409,,,,,0
12120,,12th Av/Palmdale,S 12TH AV & W PALMDALE ST,32.175293,-110.977426,,,,,0
12123,,12th Av/Veterans,S 12TH AV & W VETERANS BL,32.181637,-110.977439,,,,,0
12124,,10th Av/44th St,S 10TH AV & W 43RD ST,32.185534,-110.975572,,,,,0
12125,,10th Av/41st St,S 10TH AV & W 41ST ST,32.187965,-110.974382,,,,,0
12127,,10th Av/36th St,S 10TH AVE & W 36TH ST,32.192803,-110.974474,,,,,0
12128,,10th Av/32nd St,S 10TH AV & W 32ND ST,32.196346,-110.974425,,,,,0
12129,,10th Av/26th St,S 10TH AVE & W 26TH ST,32.20276,-110.97456,,,,,0
12130,,10th Av/23rd St,S 10TH AVE & W 23RD ST,32.205784,-110.974584,,,,,0
12132,,10th Av/19th St,S 10TH AVE & W 19TH ST,32.211012,-110.974632,,,,,0
12133,,Main/17th St,S MAIN AVE & W 17TH ST,32.213282,-110.974248,,,,,0
12140,,Stone/University,N STONE AVE & E 2ND ST,32.231838,-110.9717,,,,,0
12142,,Drachman/Stone,W DRACHMAN ST & N STONE AVE,32.239528,-110.972204,,,,,0
12143,,Drachman/11th Av,W DRACHMAN ST & N 11TH AVE,32.239513,-110.976268,,,,,0
12150,,Oracle/Blacklidge,N ORACLE RD & W BLACKLIDGE DR,32.261514,-110.977954,,,,,0
12151,,Oracle/Ft Lowell,N ORACLE RD & W FORT LOWELL RD,32.265255,-110.977908,,,,,0
12152,,Oracle/Yavapai,N ORACLE RD & W YAVAPAI RD,32.270091,-110.977979,,,,,0
12153,,Oracle/Prince,N ORACLE RD & W PRINCE RD,32.272734,-110.977978,,,,,0
12154,,Oracle/Pastime,N ORACLE RD & W PASTIME RD,32.275688,-110.978042,,,,,0
12155,,Oracle/Roger,N ORACLE RD & W ROGER RD,32.279394,-110.978026,,,,,0
12156,,Oracle/Limberlost,N ORACLE RD & W LIMBERLOST DR,32.283155,-110.978053,,,,,0
12157,,Wetmore/Oracle,W WETMORE RD & N ORACLE RD,32.286382,-110.977745,,,,,0
12159,,Oracle/River,N ORACLE RD & W RIVER RD,32.297703,-110.978141,,,,,0
12162,,Oracle/Cresta Loma,N ORACLE RD & W CRESTA LOMA DR,32.304675,-110.978317,,,,,0
12164,,Oracle/Las Lomitas,N ORACLE RD & W LAS LOMITAS RD,32.313161,-110.977738,,,,,0
12169,,Oracle/Casas Adobes Rd,N ORACLE RD & N CASAS ADOBES RD,32.330569,-110.976527,,,,,0
12171,,Glenn/Cloverland,E GLENN ST & N BEVERLY AVE,32.257904,-110.880185,,,,,0
12175,,Ina/La Oesta,W INA RD & N LA OESTA AVE,32.337295,-110.987566,,,,,0
12178,,Ina/Express Care,,32.337335,-111.000671,,,,,0
12183,,Ina/Crystal Cave,W INA RD & CRYSTAL CAVE,32.337424,-111.022462,,,,,0
12191,,Oracle/Suffolk Dr,N ORACLE RD & W MAGEE RD,32.345573,-110.976024,,,,,0
12193,,Oracle/Mountain Vista,N ORACLE RD & W MOUNTAIN VISTA DR,32.355825,-110.973695,,,,,0
12194,,Oracle/Hardy Rd,N ORACLE RD & E HARDY RD,32.366577,-110.969375,,,,,0
12195,,Oracle/C Concordia,N ORACLE RD & E C CONCORDIA,32.373946,-110.966158,,,,,0
12196,,Oracle/Linda Vista,N ORACLE RD & E LINDA VISTA BLVD,32.381291,-110.963797,,,,,0
12197,,Oracle/El Conquistador Wy,N ORACLE RD & E EL CONQUISTADOR WAY,32.388554,-110.964225,,,,,0
12198,,Oracle/1st Av (OroValley),N ORACLE RD & UNKNOWN,32.400294,-110.95491,,,,,0
12209,,Ina/La Cholla,W INA RD & N LA CHOLLA BLVD,32.337171,-111.012261,,,,,0
12210,,Ina/Casablanca,W INA RD & N CASABLANCA DR,32.33711,-111.008508,,,,,0
12211,,Ina/Magic Ln,W INA RD & N MAGIC PL,32.337168,-111.005015,,,,,0
12212,,Ina/Express Care,W INA RD & N 1ST AVE,32.337107,-110.999869,,,,,0
12214,,Ina/Pampa Pl,W INA RD & N PAMPA PL,32.337054,-110.987696,,,,,0
12215,,Ina/Via Assisi,W INA RD & N PSO DEL NORTE,32.337135,-110.982378,,,,,0
12217,,Oracle/Hanley Blvd,N ORACLE RD & E HANLEY BLVD,32.404331,-110.950223,,,,,0
12218,,Oracle/1st Av (OroValley),N ORACLE RD & N 1ST AVE,32.399735,-110.955877,,,,,0
12219,,Oracle/El Conquistador Wy,N ORACLE RD & E EL CONQUISTADOR WAY,32.387758,-110.9645,,,,,0
12220,,Oracle/Linda Vista,N ORACLE RD & E LINDA VISTA BLVD,32.38047,-110.964234,,,,,0
12221,,Oracle/C Concordia,N ORACLE RD & E VISTA DEL ORO CIR N,32.373208,-110.966861,,,,,0
12222,,Oracle/8851 N Oracle,,32.368618,-110.968791,,,,,0
12223,,Oracle/Mountain Vista,N ORACLE RD & W MOUNTAIN VISTA DR,32.355103,-110.974291,,,,,0
12224,,Oracle/Magee,N ORACLE RD & W SUFFOLK DR,32.351513,-110.975122,,,,,0
12225,,Oracle/Suffolk Dr,N ORACLE RD & W SUFFOLK DR,32.344779,-110.976556,,,,,0
12227,,Oracle/Casas Adobes Rd,N ORACLE RD & N CASAS ADOBES RD,32.328396,-110.976327,,,,,0
12230,,Oracle/Lavery Ln,N ORACLE RD & W LAVERY LN,32.318655,-110.975361,,,,,0
12232,,Oracle/Las Lomitas,N ORACLE RD & W RUDASILL RD,32.311532,-110.978687,,,,,0
12234,,Oracle/Cresta Loma,N ORACLE RD & W YVON DR,32.303952,-110.978731,,,,,0
12236,,River/Oracle,W RIVER RD & N ORACLE RD,32.29715,-110.977357,,,,,0
12239,,Oracle/Wetmore,N ORACLE RD & W WETMORE RD,32.286196,-110.978288,,,,,0
12240,,Oracle/Limberlost,N ORACLE RD & W LIMBERLOST DR,32.282508,-110.978293,,,,,0
12241,,Oracle/Roger,N ORACLE RD & W ROGER RD,32.278945,-110.978286,,,,,0
12242,,Oracle/Simmons St,N ORACLE RD & W SIMMONS RD,32.275257,-110.97829,,,,,0
12243,,Oracle/Prince,N ORACLE RD & W PRINCE RD,32.271767,-110.97824,,,,,0
12245,,Oracle/Ft Lowell,N ORACLE RD & W FORT LOWELL RD,32.265192,-110.97821,,,,,0
12246,,Oracle/Blacklidge,N ORACLE RD,32.261911,-110.978196,,,,,0
12253,,Drachman/11th Av,W DRACHMAN ST & N 11TH AVE,32.239372,-110.976694,,,,,0
12254,,Drachman/9th Av,W DRACHMAN ST & N 9TH AVE,32.239392,-110.973235,,,,,0
12266,,Main/17th St,S MAIN AVE & W 17TH ST,32.213588,-110.974328,,,,,0
12267,,10th Av/19th St,S 10TH AVE & W 19TH ST,32.210549,-110.97473,,,,,0
12268,,10th Av/21st St,S 10TH AVE & W 21ST ST,32.208244,-110.974712,,,,,0
12270,,10th Av/26th St,S 10TH AVE & W 26TH ST,32.202366,-110.974734,,,,,0
12271,,10th Av/32nd St,S 10TH AVE & W 32ND ST,32.196623,-110.974619,,,,,0
12274,,10th Av/41st St,S 10TH AVE & W 41ST ST,32.187385,-110.974655,,,,,0
12275,,10th Av/44th St,S 10TH AVE & W 43RD ST,32.18551,-110.976063,,,,,0
12278,,12th Av/District,S 12TH AVE & W DISTRICT ST,32.174448,-110.977732,,,,,0
12279,,12th Av/Michigan,S 12TH AVE & W MICHIGAN ST,32.170084,-110.977665,,,,,0
12280,,12th Av/Ohio,S 12TH AVE & W OHIO ST,32.167494,-110.977684,,,,,0
12281,,12th Av/Oklahoma,S 12TH AVE & W OKLAHOMA ST,32.165366,-110.977684,,,,,0
12285,,12th Av/Nebraska,S 12TH AVE & W DAKOTA ST,32.155658,-110.977694,,,,,0
12287,,12th Av/Canada Dr,S 12TH AVE & W CANADA ST,32.151572,-110.977693,,,,,0
12288,,12th Av/Drexel,S 12TH AVE & W DREXEL RD,32.148412,-110.977661,,,,,0
12290,,12th Av/Santa Rosa,S 12TH AVE & W SANTA ROSA ST,32.141028,-110.977729,,,,,0
12292,,12th Av/Santa Maria,S 12TH AVE & W SANTA MARIA ST,32.137359,-110.977818,,,,,0
12294,,Harrison/29th St,S HARRISON RD & E 29TH ST,32.198841,-110.789704,,,,,0
12327,,Speedway/Grady,E SPEEDWAY BLVD & E GRADY AVE,32.235362,-110.827134,,,,,0
12332,,Harrison/5th St,N HARRISON RD & E 5TH ST,32.227652,-110.789802,,,,,0
12337,,22nd St/Lehigh Dr,E 22ND ST & LEHIGH DR,32.20637,-110.844806,,,,,0
12338,,22nd St/Kolb,E 22ND ST & S KOLB RD,32.2063,-110.840409,,,,,0
12339,,22nd St/Prudence,E 22ND ST & S PRUDENCE RD,32.206385,-110.832418,,,,,0
12340,,22nd St/Pantano Rd,E 22ND ST & PANTANO RD,32.206324,-110.82619,,,,,0
12341,,22nd St/Sarnoff,E 22ND ST & SARNOFF,32.206288,-110.814921,,,,,0
12343,,Broadway/Sarnoff,E BROADWAY BLVD & N MAGUIRE AVE,32.221113,-110.815909,,,,,0
12347,,Broadway/Indian House,E BROADWAY BLVD & N INDIAN HOUSE RD,32.221679,-110.865508,,,,,0
12366,,22nd St/Sarnoff,E 22ND ST & S SARNOFF DR,32.206504,-110.815664,,,,,0
12367,,Park/Alvord,S PARK AVE & E ALVORD RD,32.144686,-110.956272,,,,,0
12368,,Bilby/Randall,E BILBY RD & S RANDALL BLVD,32.141227,-110.951832,,,,,0
12369,,Bilby/Stewart,E BILBY RD & S DEL MORAL BLVD,32.14124,-110.949544,,,,,0
12370,,Bilby/Campbell,E BILBY RD & S CAMPBELL AVE,32.141245,-110.944226,,,,,0
12371,,Campbell Av/Bilby,S CAMPBELL AVE & E BILBY RD,32.139888,-110.943552,,,,,0
12384,,Valencia/Tucson Blvd,E VALENCIA RD & S TUCSON BLVD,32.134286,-110.935586,,,,,0
12385,,Campbell Av/Bilby,S CAMPBELL AVE & E BILBY RD,32.140237,-110.943367,,,,,0
12386,,Bilby/Campbell,E BILBY RD & S DEL MORAL BLVD,32.141353,-110.944288,,,,,0
12387,,Bilby/Stewart,E BILBY RD & S STEWART BLVD,32.141402,-110.94987,,,,,0
12388,,Bilby/Randall,E BILBY RD & S RANDALL BLVD,32.141392,-110.952288,,,,,0
12389,,Park/Alvord,S PARK AVE & E MILTON RD,32.145232,-110.956085,,,,,0
12391,,Grant/Stone,W GRANT RD & N STONE AVE,32.250405,-110.972353,,,,,0
12392,,Grant/10th Av,W GRANT RD & N 10TH AV,32.250427,-110.974861,,,,,0
12393,,Grant/15th Av,W GRANT RD & N 15TH AV,32.25041,-110.982861,,,,,0
12394,,Grant/Fairview,W GRANT RD & N FAIRVIEW AVE,32.250407,-110.986829,,,,,0
12395,,Grant/Forbes,W GRANT RD & N FORBES BL,32.250483,-110.995287,,,,,0
12397,,Grant/Huachuca,W GRANT RD & N HUACHUCA DR,32.25063,-111.001952,,,,,0
12398,,Grant/Coyote Dr,W GRANT RD & N COYOTE DR,32.250661,-111.005333,,,,,0
12399,,Grant/Jordan,W GRANT RD & N JONATHAN AVE,32.250726,-111.008407,,,,,0
12400,,Grant/Jordan,W GRANT RD & N JORDAN DR,32.250484,-111.008481,,,,,0
12402,,Grant/Dragoon,W GRANT RD & N DRAGOON ST,32.250429,-111.000151,,,,,0
12403,,Grant/Forbes,W GRANT RD & N FORBES BLVD,32.250224,-110.994905,,,,,0
12404,,Grant/Fairview,W GRANT RD & N FAIRVIEW AVE,32.250152,-110.986138,,,,,0
12405,,Grant/15th Av,W GRANT RD & N 15TH AVE,32.250096,-110.982032,,,,,0
12406,,Grant/10th Av,W GRANT RD & N 10TH AVE,32.250224,-110.974687,,,,,0
12407,,Grant/Stone,E GRANT RD & N STONE AVE,32.25023,-110.971662,,,,,0
12408,,Grant/6th Av,E GRANT RD & N 4TH AVE,32.250273,-110.967397,,,,,0
12409,,Grant/3rd Av,E GRANT RD & N 3RD AVE,32.250234,-110.963834,,,,,0
12411,,Grant/Park,E GRANT RD & N FREMONT AVE,32.249717,-110.956587,,,,,0
12412,,Grant/Mountain,E GRANT RD & N MOUNTAIN AVE,32.249737,-110.952178,,,,,0
12413,,Grant/Cherry,E GRANT RD & N CHERRY AVE,32.249843,-110.948198,,,,,0
12414,,Grant/Martin,E GRANT RD & N MARTIN AVE,32.249825,-110.945617,,,,,0
12424,,Silverlake/I-10 Interstate,W SILVERLAKE RD & S SANTA CRUZ LN,32.199607,-110.981332,,,,,0
12425,,Silverlake/Santa Cruz,W SILVERLAKE RD & S SANTA CRUZ LN,32.19963,-110.986572,,,,,0
12426,,Silverlake/Cottonwood,W SILVERLAKE RD & S COTTONWOOD LN,32.19963,-110.990026,,,,,0
12427,,Silverlake/County Jail,W SILVERLAKE RD & S COTTONWOOD LN,32.199628,-110.993171,,,,,0
12429,,Westmoreland/Congress,EL RIO WASH & W CEDAR ST,32.220156,-110.992247,,,,,0
12430,,Westmoreland/Alameda,EL RIO WASH & N WESTMORELAND AVE,32.222205,-110.992481,,,,,0
12431,,Westmoreland/Fresno,EL RIO WASH & N WESTMORELAND AVE,32.224173,-110.992717,,,,,0
12433,,Silverbell/Sonoran Palms Apts,,32.22498,-110.996687,,,,,0
12434,,Silverbell/St Mary's,N SILVERBELL RD & W SAINT MARYS RD,32.228205,-110.99863,,,,,0
12436,,St Mary's/Westmoreland,W SAINT MARYS RD & N WESTMORELAND AVE,32.229158,-110.993792,,,,,0
12437,,Grande/St Mary's,N GRANDE AVE & W SAINT MARYS RD,32.230013,-110.989525,,,,,0
12438,,Grande/Huron St,N GRANDE AVE & W HURON ST,32.233173,-110.98983,,,,,0
12440,,Speedway/Columbia,W SPEEDWAY BLVD & N COLUMBIA AVE,32.235464,-110.987983,,,,,0
12444,,Granada/St Marys,N GRANADA AVE & N 1ST AVE,32.227127,-110.978261,,,,,0
12446,,Alameda/Court Av,W ALAMEDA ST & N COURT AVE,32.223443,-110.973914,,,,,0
12451,,Grant/Coyote Dr,W GRANT RD & N COYOTE DR,32.250432,-111.004663,,,,,0
12452,,Dragoon/Grant,N DRAGOON ST & W GRANT RD,32.250247,-111.000656,,,,,0
12453,,Dragoon/Rillito,N DRAGOON ST,32.247202,-111.00068,,,,,0
12454,,Dragoon/Riverview,N DRAGOON ST & W RIVERVIEW BLVD,32.24574,-111.000643,,,,,0
12455,,Dragoon/Lester,N DRAGOON ST & W LESTER ST,32.243554,-111.000687,,,,,0
12456,,El Rio Dr/Aztec,W EL RIO DR & N AZTEC AVE,32.243416,-110.999203,,,,,0
12457,,El Rio Dr/Mohave,W EL RIO DR & N MOHAVE AVE,32.243696,-110.997651,,,,,0
12458,,El Rio Dr/Navajo,W EL RIO DR & N NAVAJO ST,32.242914,-110.994263,,,,,0
12459,,Riverview/El Rio Dr,W RIVERVIEW BLVD & N EL RIO DR,32.23913,-110.992779,,,,,0
12462,,Grande/St Mary's,N GRANDE AVE & W SAINT MARYS RD,32.229258,-110.989609,,,,,0
12463,,Grande/Emery,N GRANDE AV & W EMERY ST,32.226865,-110.989335,,,,,0
12464,,Grande/Franklin,N GRANDE AVE & W FRANKLIN ST,32.223188,-110.988919,,,,,0
12466,,Congress/Av del Convento,W CONGRESS ST & N LINDA AVE,32.220423,-110.985327,,,,,0
12467,,Congress/Bonita,W CONGRESS ST & N BONITA AVE,32.220623,-110.983097,,,,,0
12473,,Congress/I-10,W CONGRESS ST & N FREEWAY,32.220875,-110.981172,,,,,0
12477,,Grande/Alameda,N GRANDE AV & W ALAMEDA ST,32.222419,-110.988703,,,,,0
12478,,Grande/Emery,N GRANDE AVE & W EMERY ST,32.226654,-110.989138,,,,,0
12482,,Riverview/Hualpai Rd.,W RIVERVIEW BLVD & N HUALPAI RD,32.238807,-110.993148,,,,,0
12483,,El Rio Dr/Riverview,N EL RIO DR & RIVERVIEW,32.239962,-110.992398,,,,,0
12484,,El Rio Dr/Navajo,W EL RIO DR & N NAVAJO ST,32.243252,-110.994812,,,,,0
12485,,El Rio Dr/Mohave,W EL RIO DR & N MOHAVE AVE,32.243931,-110.997054,,,,,0
12486,,El Rio Dr/Aztec,W EL RIO DR & N AZTEC AVE,32.243471,-110.999362,,,,,0
12487,,Lester/Huachuca,LESTER & N HUACHUCA AVE,32.243828,-111.002446,,,,,0
12488,,Lester/Chiricahua,W LESTER ST & N CHIRICAHUA AVE,32.244156,-111.003878,,,,,0
12489,,Silverbell/Lester,N SILVERBELL RD & W LESTER ST,32.244054,-111.008935,,,,,0
12490,,Silverbell/Riverview,N SILVERBELL RD & W RIVERVIEW ST,32.245831,-111.010093,,,,,0
12491,,Silverbell/Tanglewood,N SILVERBELL RD & W TANGLEWOOD DR,32.248065,-111.01181,,,,,0
12492,,12th St/Herbert,E 12TH ST & S HERBERT AVE,32.219857,-110.966132,,,,,0
12493,,4th Av/13th St,S 4TH AVE & E 13TH ST,32.218324,-110.965552,,,,,0
12494,,4th Av/15th St,S 4TH AVE & E 15TH ST,32.216285,-110.96553,,,,,0
12495,,4th Av/17th St,S 4TH AVE & E 17TH ST,32.213075,-110.96551,,,,,0
12497,,4th Av/22nd St,S 4TH AVE & E 22ND ST,32.206365,-110.965471,,,,,0
12499,,4th Av/27th St,S 4TH AVE & E 27TH ST,32.20145,-110.965436,,,,,0
12500,,29th St/9th Av,W 29TH ST & S 9TH AVE,32.199566,-110.973311,,,,,0
12501,,29th St/11th Av,W 29TH ST & S 11TH AVE,32.199514,-110.97619,,,,,0
12507,,San Marcos/Mission,W SAN MARCOS BLVD & S MISSION RD,32.203013,-110.99638,,,,,0
12508,,San Marcos/San Antonio,W SAN MARCOS BL & S SAN ANTONIO DR,32.203203,-110.999303,,,,,0
12509,,San Marcos/San Jacinto,W SAN MARCOS BLVD & S SAN JACINTO DR,32.203152,-111.003051,,,,,0
12510,,San Marcos/Cmo del Sierra,W SAN MARCOS BLVD & S CMO ARRIBA,32.203208,-111.005493,,,,,0
12511,,San Marcos/Cmo Santiago,W SAN MARCOS BLVD & S CMO SANTIAGO,32.203214,-111.007806,,,,,0
12512,,La Cholla/A Mountain Ctr,S LA CHOLLA BLVD,32.201571,-111.011765,,,,,0
12513,,La Cholla/San Juan,S LA CHOLLA BLVD & W SAN JUAN TRL,32.198578,-111.011786,,,,,0
12514,,36th St/La Cholla,W 36TH ST & S LA CHOLLA BLVD,32.192209,-111.011297,,,,,0
12515,,36th St/Enchanted Hills,W 36TH ST & S ENCHANTED HILLS DR,32.192218,-111.007054,,,,,0
12516,,36th St/Lands End,W 36TH ST & S LANDS END RD,32.192219,-111.004064,,,,,0
12517,,36th St/Mission,W 36TH ST & S MISSION RD,32.192203,-110.999757,,,,,0
12518,,Mission/2800 Block,S MISSION RD & W 36TH ST,32.188837,-111.000061,,,,,0
12521,,Mission/C La Paz,S MISSION RD & C LA PAZ,32.184268,-111.003159,,,,,0
12522,,Mission/Veterans,S MISSION RD & W VETERANS PL,32.181706,-111.003413,,,,,0
12527,,Midvale Park/Drexel,S MIDVALE PARK RD & W DREXEL RD,32.14803,-110.998919,,,,,0
12528,,Mission/Via Ingresso,S MISSION RD,32.168803,-111.005666,,,,,0
12529,,Midvale Park/Houchin,S MIDVALE PARK RD & W HOUCHIN WAY,32.143604,-110.999089,,,,,0
12530,,Midvale Park/Headley,S MIDVALE PARK RD & HEADLEY,32.139529,-110.99908,,,,,0
12531,,Midvale Park/Walmart,S MIDVALE PARK RD & W JOYCE LOU DR,32.136873,-110.999073,,,,,0
12533,,Santa Clara/Santa Louisa,S SANTA CLARA AVE & W SANTA LOUISA ST,32.135122,-110.981948,,,,,0
12534,,Santa Clara/Santa Maria,S SANTA CLARA AVE & W SANTA MARIA ST,32.1379,-110.981899,,,,,0
12535,,Santa Clara/C Garcia,S SANTA CLARA AVE & W C GARCIA,32.139818,-110.981842,,,,,0
12536,,Santa Clara/Mossman,S SANTA CLARA AVE & W MOSSMAN ST,32.143139,-110.981858,,,,,0
12537,,Santa Clara/C Ramona,S SANTA CLARA AVE & W C ALVORD,32.145677,-110.981818,,,,,0
12541,,Irvington/15th Av,W IRVINGTON RD & S 15TH AVE,32.163121,-110.980449,,,,,0
12542,,Irvington/11th Av,W IRVINGTON RD & S 11TH AVE,32.163145,-110.976052,,,,,0
12546,,Drexel/Hildreth,W DREXEL RD & S HILDRETH AV,32.148382,-111.024086,,,,,0
12547,,Cardinal/Drexel,S CARDINAL AVE & W DREXEL RD,32.147824,-111.028789,,,,,0
12552,,Valencia/Cardinal,W VALENCIA RD & S CARDINAL AV,32.133887,-111.029537,,,,,0
12557,,Drexel/Cardinal,W DREXEL RD & S CARDINAL AVE,32.14826,-111.028354,,,,,0
12558,,Drexel/Hildreth,W DREXEL RD & S ORIOLE AVE,32.14826,-111.023855,,,,,0
12559,,Drexel/Westover,W DREXEL RD & S WESTOVER AVE,32.148283,-111.019774,,,,,0
12566,,Irvington/Rio Seco Apts,W IRVINGTON RD,32.163041,-110.995346,,,,,0
12570,,Speedway/Stone,W SPEEDWAY BLVD & N STONE AVE,32.236076,-110.972246,,,,,0
12571,,Speedway/10th Av,W SPEEDWAY BLVD & N 10TH AVE,32.236041,-110.975083,,,,,0
12572,,Speedway/Main,W SPEEDWAY BLVD & N 13TH AVE,32.235947,-110.97838,,,,,0
12573,,Speedway/Columbia,W SPEEDWAY BLVD & N COLUMBIA AVE,32.235707,-110.988858,,,,,0
12574,,Speedway/Cuesta,W SPEEDWAY BLVD & N RIVERVIEW BLVD,32.235613,-110.994716,,,,,0
12578,,Speedway/Silverbell,W SPEEDWAY BLVD & N SILVERBELL RD,32.235712,-111.005151,,,,,0
12580,,Greasewood/Speedway,N GREASEWOOD RD & W SPEEDWAY BLVD,32.235495,-111.02165,,,,,0
12583,,Anklam/Cmo Santiago,W ANKLAM RD & N CMO SANTIAGO,32.225164,-111.006997,,,,,0
12584,,St Mary's/Anklam,W SAINT MARYS RD & W ANKLAM RD,32.226892,-111.005061,,,,,0
12585,,St Mary's/San Rafael,W SAINT MARYS RD & N SAN RAFAEL AVE,32.228433,-111.002224,,,,,0
12586,,Silverbell/St Mary's,N SILVERBELL RD & W SAINT MARYS RD,32.229492,-110.999226,,,,,0
12587,,Silverbell/San Jose,N SILVERBELL RD & N STONE AVE,32.230533,-111.000855,,,,,0
12588,,Silverbell/Riley Circle,N SILVERBELL RD & W RILEY CI,32.233828,-111.002886,,,,,0
12589,,Speedway/Silverbell,W SPEEDWAY BLVD & N SILVERBELL RD,32.235475,-111.003095,,,,,0
12590,,Speedway/Seminole,W SPEEDWAY BL & N EL RIO DR,32.235513,-111.001609,,,,,0
12591,,Speedway/Cherokee,W SPEEDWAY BLVD & N CUESTA AVE,32.235592,-110.996923,,,,,0
12594,,Speedway/Alder,W SPEEDWAY BLVD & N MAIN AVE,32.235693,-110.977367,,,,,0
12595,,Speedway/10th Av,W SPEEDWAY BLVD & N 10TH AVE,32.235831,-110.974777,,,,,0
12596,,Speedway/Stone,E SPEEDWAY BLVD & N STONE AVE,32.23577,-110.97134,,,,,0
12602,,Swan/Andrew,S SWAN RD & E ANDREW ST,32.203384,-110.892155,,,,,0
12603,,Swan/24th St,S SWAN RD & E 24TH ST,32.20499,-110.892148,,,,,0
12604,,Swan/Eastland,S SWAN RD & E EASTLAND ST,32.211059,-110.892125,,,,,0
12605,,Swan/17th St,S SWAN RD & E 17TH ST,32.213872,-110.892094,,,,,0
12606,,Swan/Scarlett,S SWAN RD & E SCARLETT ST,32.217904,-110.892124,,,,,0
12607,,Swan/Broadway,N SWAN RD & E 10TH ST,32.221935,-110.892134,,,,,0
12608,,Swan/Burns,N SWAN RD & E BURNS ST,32.225068,-110.892183,,,,,0
12609,,Swan/5th St,N SWAN RD & E 5TH ST,32.229133,-110.892268,,,,,0
12610,,Swan/Hawthorne,N SWAN RD & E HAWTHORNE ST,32.232786,-110.892355,,,,,0
12613,,Pantano/Poinciana,S PANTANO RD & E POINCIANA DR,32.168596,-110.823763,,,,,0
12614,,Pantano/Dogwood,S PANTANO RD & E DOGWOOD ST,32.172455,-110.82376,,,,,0
12624,,Kolb/29th St,S KOLB RD & E 29TH ST,32.19943,-110.840849,,,,,0
12626,,Kolb/22nd St,S KOLB RD & E 22ND ST,32.207147,-110.840826,,,,,0
12629,,Kolb/Bonnie Brae,S KOLB RD & E BROADWAY BLVD,32.218784,-110.840834,,,,,0
12631,,Kolb/5th St,N KOLB RD & E 5TH ST,32.228499,-110.840871,,,,,0
12632,,Kolb/3rd St,N KOLB RD & E ROSEWOOD ST,32.231678,-110.840881,,,,,0
12633,,Irvington/6th Av,E IRVINGTON RD & S 6TH AVE,32.163151,-110.967651,,,,,0
12634,,Irvington/3rd Av,E IRVINGTON RD & S 3RD AV,32.163163,-110.964437,,,,,0
12635,,Irvington/1st Av,E IRVINGTON RD & S 1ST AVE,32.163247,-110.960682,,,,,0
12637,,Irvington/Park Av,E IRVINGTON RD & @PARK AV,32.163181,-110.955774,,,,,0
12638,,Irvington/Mountain,E IRVINGTON RD & @MOUNTAIN,32.163173,-110.952577,,,,,0
12639,,Irvington/Highland,E IRVINGTON RD & S HIGHLAND DR,32.163169,-110.949967,,,,,0
12640,,Irvington/Cherry,E IRVINGTON RD & S CHERRY AVE,32.163153,-110.947278,,,,,0
12641,,Campbell Av/Wyoming,S CAMPBELL AVE & E WYOMING ST,32.159214,-110.943556,,,,,0
12642,,Campbell Av/Bantam,S CAMPBELL AV & E BANTAM RD,32.155667,-110.943492,,,,,0
12643,,Campbell Av/Oregon,S CAMPBELL AVE & E OREGON ST,32.153492,-110.943518,,,,,0
12644,,Campbell Av/Holladay,S CAMPBELL AVE & E HOLLADAY ST,32.151488,-110.943348,,,,,0
12645,,Drexel/Campbell,E DREXEL RD & S CAMPBELL AVE,32.148587,-110.942884,,,,,0
12646,,Drexel/Jasmine,E DREXEL RD & S JASMINE WY,32.148603,-110.940113,,,,,0
12647,,Drexel/Wilson,E DREXEL RD & S WILSON AV,32.148624,-110.937268,,,,,0
12649,,Drexel/Country Club MHP,E DREXEL RD & S COUNTRY CLUB RD,32.148704,-110.927637,,,,,0
12654,,Country Club/Missouri,S COUNTRY CLUB RD & E IRVINGTON RD,32.166332,-110.926435,,,,,0
12657,,Masterson/Behan,S MASTERSON AV & E BEHAN ST,32.152182,-110.92198,,,,,0
12658,,Masterson/Benson Hwy,S MASTERSON AVE & E BENSON HWY,32.154184,-110.921606,,,,,0
12659,,Benson Hy/Palo Verde,E BENSON HWY & S PALO VERDE RD,32.152476,-110.91863,,,,,0
12660,,Benson Hy/3562 E Benson,E BENSON HWY & E DREXEL RD,32.15069,-110.915317,,,,,0
12667,,Drexel/Catalina,E DREXEL RD & S CATALINA AVE,32.148831,-110.899191,,,,,0
12668,,Belvedere/Ray Strav,S BELVEDERE AVE & E RAY ST,32.145205,-110.896496,,,,,0
12669,,Belvedere/Rex Strav,S BELVEDERE AV & E REX SV,32.141523,-110.896404,,,,,0
12671,,Littletown/Craycroft,E LITTLETOWN RD & S LANTANA VISTA DR,32.134143,-110.875562,,,,,0
12672,,Craycroft/Dream,S CRAYCROFT RD & E LITTLETOWN RD,32.130976,-110.874976,,,,,0
12681,,Benson Hy/Alvernon,E BENSON HY & S ALVERNON WY,32.147067,-110.909514,,,,,0
12682,,Benson Hy/Drexel,E BENSON HY & E DREXEL RD,32.149159,-110.912695,,,,,0
12684,,Benson Hy/Palo Verde,E BENSON HWY & S PALO VERDE RD,32.152681,-110.918404,,,,,0
12685,,Masterson/Benson Hwy,S MASTERSON AVE & E BENSON HWY,32.154131,-110.921713,,,,,0
12686,,Masterson/Behan,S MASTERSON AV & E BEHAN ST,32.152157,-110.922172,,,,,0
12687,,Masterson/Drexel,S MASTERSON AVE & E DREXEL RD,32.149172,-110.922115,,,,,0
12689,,Country Club/Missouri,S COUNTRY CLUB RD & E MISSOURI ST,32.16644,-110.926286,,,,,0
12697,,Drexel/Wilson,E DREXEL RD & S WILSON AVE,32.148731,-110.938142,,,,,0
12698,,Drexel/Jasmine,E DREXEL RD & S JASMINE WY,32.148762,-110.940846,,,,,0
12699,,Campbell Av/Drexel,S CAMPBELL AVE & E DREXEL RD,32.149026,-110.943373,,,,,0
12700,,Campbell Av/Holladay,S CAMPBELL AVE & E HOLLADAY ST,32.151273,-110.94353,,,,,0
12701,,Campbell Av/Oregon,S CAMPBELL AVE & E OREGON ST,32.153553,-110.943337,,,,,0
12702,,Campbell Av/Bantam,S CAMPBELL AV & E BANTAM RD,32.156051,-110.943338,,,,,0
12704,,Campbell Av/Irvington,S CAMPBELL AVE & E IRVINGTON RD,32.160953,-110.94323,,,,,0
12706,,Irvington/Mountain,E IRVINGTON RD & S MOUNTAIN AVE,32.163406,-110.952668,,,,,0
12707,,Irvington/Park Av,E IRVINGTON RD & S PARK AVE,32.163426,-110.956802,,,,,0
12708,,Irvington/1st Av,E IRVINGTON RD & S 1ST AVE,32.163435,-110.960125,,,,,0
12709,,Irvington/3rd Av,E IRVINGTON RD & S 3RD AVE,32.163383,-110.964889,,,,,0
12715,,Irvington/Rio Seco Apts,W IRVINGTON RD,32.163223,-110.995642,,,,,0
12723,,Drexel/Westover,W DREXEL RD & S WESTOVER AVE,32.148417,-111.020528,,,,,0
12725,,Kolb/3rd St,N KOLB RD & E 3RD ST,32.23133,-110.841108,,,,,0
12726,,Kolb/5th St,N KOLB RD & E 5TH ST,32.22801,-110.841092,,,,,0
12729,,Kolb/Bonnie Brae,S KOLB RD & E BONNIE BRAE DR,32.218319,-110.841084,,,,,0
12732,,Kolb/22nd St,S KOLB RD & E 22ND ST,32.206082,-110.841169,,,,,0
12733,,Kolb/C Centuri,S KOLB RD & E C CENTURI,32.201846,-110.841099,,,,,0
12743,,Pantano/Escalante,S PANTANO RD & E ESCALANTE RD,32.176994,-110.823993,,,,,0
12744,,Pantano/Dogwood,S PANTANO RD & E DOGWOOD ST,32.17207,-110.82404,,,,,0
12746,,Swan/Fairmount,N SWAN RD & E ADAMS ST,32.24,-110.892568,,,,,0
12748,,Swan/Pima,N SWAN RD & E LINDEN ST,32.243705,-110.892479,,,,,0
12749,,Swan/Seneca,N SWAN RD & E HAMPTON ST,32.247198,-110.892496,,,,,0
12750,,Swan/Edison,N SWAN RD & E EDISON ST,32.249101,-110.892497,,,,,0
12751,,Swan/Water St,N SWAN RD & E BERMUDA ST,32.25379,-110.892446,,,,,0
12752,,Glenn/Ralph,E GLENN ST & N LAUREL AVE,32.257936,-110.897731,,,,,0
12757,,Swan/San Carlos,N SWAN RD & E SAN CARLOS PL S,32.25363,-110.892722,,,,,0
12758,,Swan/Seneca,N SWAN RD & E WAVERLY ST,32.246749,-110.892809,,,,,0
12760,,Swan/Pima,N SWAN RD & E PIMA ST,32.24308,-110.892796,,,,,0
12762,,Swan/Bellevue,N SWAN RD & E BELLEVUE ST,32.237749,-110.892768,,,,,0
12763,,Swan/3rd St,N SWAN RD & E 3RD ST,32.232214,-110.892694,,,,,0
12765,,Swan/5th St,N SWAN RD & E 6TH ST,32.228587,-110.892498,,,,,0
12766,,Swan/Burns,N SWAN RD & E BURNS ST,32.224634,-110.892518,,,,,0
12767,,Swan/Broadway,S SWAN RD & E 12TH ST,32.221027,-110.892504,,,,,0
12768,,Swan/14th St,S SWAN RD & E 14TH ST,32.217347,-110.892481,,,,,0
12773,,Swan/27th St,S SWAN RD & E 27TH ST,32.201854,-110.892521,,,,,0
12778,,29th St/Beverly,E 29TH ST & S BEVERLY AVE,32.199564,-110.87867,,,,,0
12779,,29th St/Craycroft,E 29TH ST & S CRAYCROFT RD,32.199589,-110.874629,,,,,0
12781,,1st Av/River,N 1ST AVE & E RIVER RD,32.294819,-110.96121,,,,,0
12782,,1st Av/Bromley,N 1ST AVE & E BROMLEY ST,32.291508,-110.961178,,,,,0
12783,,1st Av/Wetmore,N 1ST AVE & E WETMORE RD,32.286271,-110.961174,,,,,0
12786,,1st Av/Roger,N 1ST AVE & E ROGER RD,32.278948,-110.961163,,,,,0
12790,,Fort Lowell/Park,E FORT LOWELL RD & E NAVAJO RD,32.264655,-110.95653,,,,,0
12792,,Fort Lowell/Mountain,E FORT LOWELL RD & N MOUNTAIN AVE,32.264704,-110.951998,,,,,0
12793,,Fort Lowell/Cherry,E FORT LOWELL RD & N CHERRY AVE,32.264735,-110.947668,,,,,0
12794,,Fort Lowell/Campbell,E FORT LOWELL RD & N CAMPBELL AVE,32.264908,-110.944174,,,,,0
12795,,Fort Lowell/Wilson,E FORT LOWELL RD & N WILSON AVE,32.264772,-110.93924,,,,,0
12796,,Fort Lowell/Tucson,E FORT LOWELL RD & N TUCSON BLVD,32.264828,-110.93475,,,,,0
12797,,Fort Lowell/2828 E Fort Lowell,E FORT LOWELL RD & N CHRISTMAS AVE,32.26486,-110.929421,,,,,0
12798,,Fort Lowell/Country Club,E FORT LOWELL RD & N COUNTRY CLUB RD,32.264823,-110.926324,,,,,0
12799,,Fort Lowell/Edith,E FORT LOWELL RD & N EDITH BLVD,32.264948,-110.92199,,,,,0
12800,,Fort Lowell/Palo Verde,E FORT LOWELL RD & N PALO VERDE AVE,32.264943,-110.917382,,,,,0
12805,,Glenn/Columbus,E GLENN ST & N COLUMBUS BLVD,32.257764,-110.900688,,,,,0
12806,,Glenn/Desert Av,E GLENN ST & N DESERT AVE,32.257836,-110.895586,,,,,0
12807,,Glenn/Swan,E GLENN ST & N SWAN RD,32.257833,-110.892059,,,,,0
12808,,Glenn/Arcadia,E GLENN ST & N ARCADIA AVE,32.257855,-110.887856,,,,,0
12811,,Craycroft/Glenn,N CRAYCROFT RD & E GLENN ST,32.257641,-110.875348,,,,,0
12812,,Craycroft/Silver,N CRAYCROFT RD & E COPPER ST,32.254142,-110.875398,,,,,0
12813,,Craycroft/Grant,N CRAYCROFT RD & E GRANT RD,32.250039,-110.875454,,,,,0
12814,,Craycroft/Waverly,N CRAYCROFT RD & E LINDEN ST,32.246596,-110.87561,,,,,0
12816,,Craycroft/Pima,N CRAYCROFT RD & E PIMA ST,32.243154,-110.875631,,,,,0
12819,,Craycroft/Speedway,N CRAYCROFT RD & E SPEEDWAY BLVD,32.23544,-110.875617,,,,,0
12822,,Craycroft/5th St,N CRAYCROFT RD & E 5TH ST,32.228649,-110.875573,,,,,0
12823,,Craycroft/8th St,N CRAYCROFT RD & E 8TH ST,32.22538,-110.875427,,,,,0
12828,,Craycroft/16th St,S CRAYCROFT RD & E 16TH ST,32.213938,-110.875279,,,,,0
12831,,Craycroft/22nd St,S CRAYCROFT RD & E 22ND ST,32.206371,-110.875204,,,,,0
12832,,Craycroft/26th St,S CRAYCROFT RD & E 26TH ST,32.20224,-110.875186,,,,,0
12834,,Craycroft/32nd St,S CRAYCROFT RD & E 32ND ST,32.195958,-110.875213,,,,,0
12847,,Craycroft/Golf Links,S CRAYCROFT RD & E GOLF LINKS RD,32.192959,-110.875002,,,,,0
12848,,Craycroft/32nd St,S CRAYCROFT RD & E 32ND ST,32.196844,-110.874958,,,,,0
12849,,Craycroft/25th St,S CRAYCROFT RD & E 25TH ST,32.203871,-110.874998,,,,,0
12850,,Craycroft/Juarez,S CRAYCROFT RD & E JUAREZ ST,32.205664,-110.874894,,,,,0
12851,,Craycroft/22nd St,S CRAYCROFT RD & E BEVERLY ST,32.207261,-110.874961,,,,,0
12852,,Craycroft/20th St,S CRAYCROFT RD & E 20TH ST,32.21003,-110.874994,,,,,0
12853,,Craycroft/Wilshire,S CRAYCROFT RD & E SOUTH WILSHIRE DR,32.214783,-110.875026,,,,,0
12854,,Craycroft/St Joseph Church,S CRAYCROFT RD & E 14TH ST,32.218704,-110.874994,,,,,0
12857,,Broadway/Chantilly,E BROADWAY BLVD & N CHANTILLY DR,32.22169,-110.868142,,,,,0
12860,,Craycroft/Holmes,N CRAYCROFT RD & HOLMES,32.227523,-110.875287,,,,,0
12861,,Craycroft/5th St,N CRAYCROFT RD & E 5TH ST,32.229218,-110.87535,,,,,0
12862,,Craycroft/Rosewood,N CRAYCROFT RD & E ROSEWOOD ST,32.232925,-110.875313,,,,,0
12864,,Craycroft/Speedway,N CRAYCROFT RD & E SPEEDWAY BLVD,32.236832,-110.87535,,,,,0
12866,,Craycroft/Fairmount,N CRAYCROFT RD & E FAIRMOUNT ST,32.240022,-110.875375,,,,,0
12867,,Craycroft/Lee,N CRAYCROFT RD & E LEE ST,32.241862,-110.875387,,,,,0
12868,,Craycroft/Pima,N CRAYCROFT RD & E PIMA ST,32.243836,-110.875441,,,,,0
12869,,Craycroft/Waverly,N CRAYCROFT RD & E WAVERLY ST,32.246885,-110.875301,,,,,0
12871,,Glenn/Sidney,E GLENN ST & N SIDNEY BLVD,32.258001,-110.876439,,,,,0
12872,,Glenn/Beverly,E GLENN ST & N BEVERLY AVE,32.257992,-110.879896,,,,,0
12873,,Glenn/Rosemont,E GLENN ST & N ROSEMONT AVE,32.257938,-110.883353,,,,,0
12880,,Fort Lowell/Riverhaven,E FORT LOWELL RD & N RIVERHAVEN DR,32.265186,-110.902383,,,,,0
12881,,Fort Lowell/Sycamore,E FORT LOWELL RD & N SYCAMORE AVE,32.265182,-110.906576,,,,,0
12882,,Fort Lowell/Dodge,E FORT LOWELL RD & N DODGE BLVD,32.265243,-110.914689,,,,,0
12883,,Fort Lowell/Palo Verde,E FORT LOWELL RD & N PALO VERDE AVE,32.265128,-110.918867,,,,,0
12884,,Fort Lowell/Edith,E FORT LOWELL RD & N EDITH BLVD,32.265102,-110.922042,,,,,0
12885,,Fort Lowell/Country Club,E FORT LOWELL RD & N COUNTRY CLUB RD,32.265033,-110.927275,,,,,0
12886,,Fort Lowell/Christmas,E FORT LOWELL RD & N CHRISTMAS AVE,32.265003,-110.930438,,,,,0
12887,,Fort Lowell/Tucson,E FORT LOWELL RD & N TUCSON BLVD,32.264972,-110.935958,,,,,0
12888,,Fort Lowell/Wilson,E FORT LOWELL RD & N WILSON AVE,32.264921,-110.939865,,,,,0
12889,,Fort Lowell/Campbell,E FORT LOWELL RD & N CAMPBELL AVE,32.264768,-110.943538,,,,,0
12891,,Fort Lowell/Mountain,E FORT LOWELL RD & E NAVAJO RD,32.264919,-110.952728,,,,,0
12895,,1st Av/Prince,N 1ST AV & E PRINCE RD,32.271674,-110.960896,,,,,0
12896,,1st Av/Rillito Apts,N 1ST AV & E PASTIME RD,32.274851,-110.960933,,,,,0
12897,,1st Av/Roger,N 1ST AVE & E ROGER RD,32.27962,-110.960974,,,,,0
12899,,1st Av/Wetmore,N 1ST AV & E WETMORE RD,32.286998,-110.960931,,,,,0
12900,,1st Av/Rillito Park,N 1ST AVE & E BROMLEY ST,32.291282,-110.960978,,,,,0
12902,,Stone/River,W RIVER RD & N STONE AVE,32.295683,-110.971248,,,,,0
12907,,1st Av/Limberlost,N 1ST AVE & E LIMBERLOST DR,32.283421,-110.961171,,,,,0
12910,,1st Av/Pastime Rd,N 1ST AVE & E PASTIME RD,32.275315,-110.961177,,,,,0
12911,,1st Av/Prince,N 1ST AVE & E YAVAPAI RD,32.27176,-110.961172,,,,,0
12912,,1st Av/Yavapai,N 1ST AVE & E YAVAPAI RD,32.270074,-110.961114,,,,,0
12913,,1st Av/Halcyon,N 1ST AVE & E HALCYON RD,32.267233,-110.96109,,,,,0
12914,,1st Av/Blacklidge,N 1ST AVE & E BLACKLIDGE DR,32.261001,-110.961068,,,,,0
12915,,1st Av/Glenn,N 1ST AVE & E GLENN ST,32.257389,-110.961064,,,,,0
12916,,1st Av/Jacinto,N 1ST AVE & E JACINTO ST,32.253732,-110.961046,,,,,0
12918,,Euclid/Linden,N EUCLID AVE & E LINDEN ST,32.244812,-110.959651,,,,,0
12919,,Euclid/Elm,N EUCLID AVE & E ELM ST,32.242378,-110.959653,,,,,0
12920,,Euclid/Drachman,N EUCLID AVE & E DRACHMAN ST,32.239356,-110.9596,,,,,0
12921,,Euclid/Speedway,N EUCLID AVE & E SPEEDWAY BLVD,32.235649,-110.959574,,,,,0
12922,,Euclid/1st St,N EUCLID AVE & E 2ND ST,32.234089,-110.959558,,,,,0
12923,,Euclid/University,N EUCLID AVE & E UNIVERSITY BLVD,32.231528,-110.959563,,,,,0
12938,,Park/20th St,S PARK AVE & E 20TH ST,32.209221,-110.956374,,,,,0
12939,,Park/25th St,S PARK AVE & E 25TH ST,32.203307,-110.956272,,,,,0
12940,,Park/Silverlake,S PARK AVE & E SILVERLAKE RD,32.199368,-110.956257,,,,,0
12941,,Park/31st St,S PARK AV & E 31ST ST,32.197355,-110.95627,,,,,0
12942,,Park/34th St,S PARK AVE & E 34TH ST,32.194791,-110.956206,,,,,0
12943,,Park/35th St,S PARK AVE & E 35TH ST,32.193203,-110.956126,,,,,0
12944,,Park/37th St,S PARK AVE & E 37TH ST,32.19168,-110.95645,,,,,0
12945,,Park/39th St,S PARK AVE & E 39TH ST,32.189645,-110.956447,,,,,0
12946,,Park/Ajo,S PARK AVE & E AJO WAY,32.176291,-110.956452,,,,,0
12947,,Park/Police Station,S PARK AVE & S SANTA CRUZ SUBSTATION RD,32.171993,-110.956359,,,,,0
12948,,Park/Ohio,S PARK AVE & E OHIO ST,32.167411,-110.95632,,,,,0
12950,,Park/Wyoming,S PARK AVE & E WYOMING ST,32.159824,-110.956304,,,,,0
12951,,Park/Bantam,S PARK AVE & E BANTAM RD,32.156181,-110.956287,,,,,0
12952,,Park/Minorka,S PARK AVE & E MINORKA RD,32.151909,-110.956222,,,,,0
12956,,Pima/Desmond,E PIMA ST & N DESMOND LN,32.24342,-110.905334,,,,,0
12957,,Pima/Columbus,E PIMA ST & COLUMBUS,32.243345,-110.900724,,,,,0
12958,,Pima/Belvedere,E PIMA ST & N BELVEDERE AVE,32.243278,-110.896523,,,,,0
12959,,Pima/Swan,E PIMA ST & N SWAN RD,32.24338,-110.89217,,,,,0
12960,,Pima/Arcadia,E PIMA ST & N ARCADIA AVE,32.243326,-110.888622,,,,,0
12962,,Pima/Rosemont,E PIMA ST & N ROSEMONT BLVD,32.243289,-110.883745,,,,,0
12963,,Pima/Beverly,E PIMA ST & N BEVERLY AVE,32.243495,-110.880137,,,,,0
12964,,Pima/Woodland,E PIMA ST & N WOODLAND AVE,32.243309,-110.878145,,,,,0
12965,,Pima/Craycroft,E PIMA ST & N CRAYCROFT RD,32.243362,-110.875029,,,,,0
12966,,Pima/Van Buren,E PIMA ST & N VAN BUREN AVE,32.243337,-110.870731,,,,,0
12967,,Pima/Sahuara,E PIMA ST & N SAHUARA AVE,32.243255,-110.866413,,,,,0
12968,,Pima/Ridgeway,,32.243302,-110.863463,,,,,0
12969,,Pima/Rook,E PIMA ST & N ROOK AVE,32.243274,-110.859608,,,,,0
12973,,Pima/Sahuara,E PIMA ST & N SAHUARA AVE,32.243522,-110.86722,,,,,0
12974,,Pima/Van Buren,E PIMA ST & N VAN BUREN AVE,32.243496,-110.871515,,,,,0
12975,,Pima/Craycroft,E PIMA ST & N CRAYCROFT RD,32.243508,-110.875945,,,,,0
12976,,Pima/Beverly,E PIMA ST & N BEVERLY AVE,32.243349,-110.880133,,,,,0
12977,,Pima/Rosemont,E PIMA ST & N ROSEMONT BLVD,32.243496,-110.883774,,,,,0
12978,,Pima/Santa Rosa,E PIMA ST & N SANTA ROSA AVE,32.243485,-110.885957,,,,,0
12979,,Pima/Arcadia,E PIMA ST & N ARCADIA AVE,32.243479,-110.888684,,,,,0
12980,,Pima/Swan,E PIMA ST & N SWAN RD,32.243478,-110.893035,,,,,0
12981,,Pima/Belvedere,E PIMA ST & N CATALINA AVE,32.243505,-110.897249,,,,,0
12982,,Pima/Columbus,E PIMA ST & N COLUMBUS BLVD,32.243454,-110.901525,,,,,0
12983,,Pima/Desmond,E PIMA ST & N DESMOND LN,32.243474,-110.90596,,,,,0
12984,,Pima/Dodge,E PIMA ST & N DODGE BLVD,32.243411,-110.914483,,,,,0
12985,,Pima/Palo Verde,E PIMA ST & N PALO VERDE BL,32.243425,-110.918613,,,,,0
12986,,Pima/Howard,E PIMA ST & N HOWARD BL,32.243371,-110.922805,,,,,0
12987,,Elm/Country Club,E ELM ST & N COUNTRY CLUB RD,32.243315,-110.927219,,,,,0
12988,,Elm/Treat,E ELM ST & N TREAT AV,32.243293,-110.93151,,,,,0
12989,,Tucson Bl/Elm,N TUCSON BL & E ELM ST,32.242599,-110.935379,,,,,0
12991,,Tucson Bl/Drachman,N TUCSON BLVD & E DRACHMAN ST,32.239462,-110.935386,,,,,0
13010,,Ajo/Plaza Del Sol,W AJO WAY & S VIA CANTO,32.177737,-111.00043,,,,,0
13011,,Ajo/School@1573 W Ajo,W AJO WAY & S PHOEBE AVE,32.177793,-110.997973,,,,,0
13012,,Ajo/Holiday Isle Blvd,W AJO WAY & S HOLIDAY BLVD,32.177786,-110.994421,,,,,0
13013,,Ajo/Valley Rd,W AJO WAY & S VALLEY RD,32.177715,-110.991692,,,,,0
13014,,Ajo/16th Av,W AJO WAY & N I19 RAMP,32.177752,-110.982004,,,,,0
13016,,Ajo/12th Av,W AJO WAY & S 12TH AVE,32.177679,-110.976974,,,,,0
13017,,Ajo/Liberty,W AJO WAY & S LIBERTY AVE,32.177735,-110.973426,,,,,0
13030,,Ajo/Liberty,W AJO WAY & S LIBERTY AVE,32.177884,-110.974071,,,,,0
13031,,Ajo/12th Av,W AJO WAY & S 12TH AVE,32.177938,-110.978155,,,,,0
13032,,Ajo/16th Av,W AJO WAY & S 16TH AVE,32.177901,-110.98143,,,,,0
13033,,Ajo/Cottonwood,W AJO WAY & COTTONWOOD,32.17794,-110.991732,,,,,0
13034,,Ajo/Holiday Isle Blvd,W AJO WAY & S HOLIDAY BLVD,32.177938,-110.994218,,,,,0
13035,,Ajo/Phoebe,W AJO WAY & S PHOEBE AVE,32.177953,-110.996517,,,,,0
13036,,Ajo/Freedom Drive,W AJO WAY & S FREEDOM DR,32.177946,-110.999244,,,,,0
13038,,Ajo/Cook,W AJO WY & S COOK ST,32.177795,-111.006449,,,,,0
13050,,Park/Drexel,S PARK AVE & E DREXEL RD,32.148884,-110.956039,,,,,0
13051,,Park/Minorka,S PARK AVE & E MINORKA RD,32.152617,-110.956087,,,,,0
13052,,Park/Bantam,S PARK AVE & E BANTAM RD,32.156242,-110.95602,,,,,0
13053,,Park/Wyoming,S PARK AVE & E WYOMING ST,32.160083,-110.956025,,,,,0
13054,,Park/Irvington,S PARK AV & E IRVINGTON RD,32.163866,-110.956064,,,,,0
13055,,Park/Ohio,S PARK AVE & E OHIO ST,32.167951,-110.956145,,,,,0
13057,,Park/Palmdale,S PARK AVE & E PALMDALE ST,32.175473,-110.956207,,,,,0
13058,,Park/Tucson Marketplace,S PARK AVE & E 39TH ST,32.188298,-110.956228,,,,,0
13060,,Park/35th St,S PARK AVE & E 35TH ST,32.193418,-110.95606,,,,,0
13061,,Park/34rd St,S PARK AVE & E 34TH ST,32.194882,-110.956023,,,,,0
13062,,Park/31st St,S PARK AVE & E 31ST ST,32.197437,-110.956042,,,,,0
13063,,Park/Silverlake,S PARK AVE & E SILVERLAKE RD,32.199857,-110.956129,,,,,0
13064,,Park/25th St,S PARK AVE & E 25TH ST,32.203135,-110.956135,,,,,0
13069,,4th Av/20th St,S 4TH AVE & E 20TH ST,32.209702,-110.965501,,,,,0
13079,,Euclid/9th St,N EUCLID AVE & E 9TH ST,32.224077,-110.959362,,,,,0
13080,,Euclid/University,N EUCLID AVE & E 2ND ST,32.23195,-110.959389,,,,,0
13081,,Euclid/1st St,N EUCLID AVE & E 1ST ST,32.234487,-110.959325,,,,,0
13082,,Euclid/Speedway,N EUCLID AV & E SPEEDWAY BL,32.236402,-110.959386,,,,,0
13084,,Euclid/Lester,N EUCLID AVE & E LESTER ST,32.243713,-110.959469,,,,,0
13085,,Euclid/Seneca,N EUCLID AVE & E SENECA ST,32.246894,-110.959481,,,,,0
13087,,1st Av/Copper,N 1ST AVE & E COPPER ST,32.254624,-110.960807,,,,,0
13088,,1st Av/Glenn,N 1ST AVE & E GLENN ST,32.257899,-110.960812,,,,,0
13089,,1st Av/Blacklidge,N 1ST AVE & E BLACKLIDGE DR,32.261559,-110.960893,,,,,0
13090,,1st Av/Halcyon,N 1ST AVE & E HALCYON RD,32.267673,-110.960916,,,,,0
13091,,1st Av/Graybill,N 1ST AVE & E GRAYBILL DR,32.270045,-110.960924,,,,,0
13095,,1st Av/Limberlost,N 1ST AVE & E LIMBERLOST DR,32.283275,-110.960992,,,,,0
13096,,Wetmore/Carls Jr,E WETMORE RD & E WETMORE RD,32.286662,-110.962879,,,,,0
13098,,Wetmore/Stanley Pl,E WETMORE RD & N RADIN AVE,32.286629,-110.966988,,,,,0
13099,,Wetmore/Radin Av,E WETMORE RD & N RADIN AVE,32.286486,-110.966044,,,,,0
13114,,Cloud Rd/C Poco,E CLOUD RD & N C POCO,32.2689,-110.836097,,,,,0
13115,,Cloud Rd/Cmo Suerte,E CLOUD RD & N CAMINO SUERTE,32.268983,-110.831494,,,,,0
13116,,Cloud Rd/Manor Dr,E CLOUD RD & N MANOR DR,32.268943,-110.827098,,,,,0
13118,,Wrightstown/Pantano,E WRIGHTSTOWN RD & N PANTANO RD,32.250651,-110.824518,,,,,0
13119,,Pantano/Wrightstown,N PANTANO RD & E WRIGHTSTOWN RD,32.25051,-110.823894,,,,,0
13120,,Pantano/Hampton,N PANTANO RD & E HAMPTON ST,32.247778,-110.823957,,,,,0
13121,,Pantano/Pima,N PANTANO RD & E PIMA ST,32.243044,-110.823953,,,,,0
13123,,Pantano/Fairmount,N PANTANO RD & E FAIRMOUNT ST,32.239022,-110.823985,,,,,0
13124,,Pantano/Speedway,N PANTANO RD & E SPEEDWAY BLVD,32.236095,-110.823633,,,,,0
13127,,Pantano/5th St(Entrada),N PANTANO RD & E 5TH ST,32.227835,-110.823904,,,,,0
13128,,Pantano/CentrePark Dr,N PANTANO RD & E 5TH ST,32.22507,-110.823924,,,,,0
13129,,Pantano/Scarlett,S PANTANO RD & E SCARLETT ST,32.217769,-110.823956,,,,,0
13130,,Pantano/Kenyon,S PANTANO RD & E KENYON DR,32.21358,-110.8239,,,,,0
13131,,Pantano/19th St,S PANTANO RD & E 19TH PL,32.210729,-110.823687,,,,,0
13135,,Pantano/19th St,S PANTANO RD & E 19TH PL,32.210307,-110.823893,,,,,0
13136,,Pantano/Kenyon,S PANTANO RD & E KENYON DR,32.213885,-110.823682,,,,,0
13137,,Pantano/Scarlett,S PANTANO RD & E SCARLETT ST,32.217763,-110.823743,,,,,0
13139,,Pantano/5th St,N PANTANO RD & E 5TH ST,32.228324,-110.823727,,,,,0
13142,,Pantano/Speedway,N PANTANO RD & E SPEEDWAY BLVD,32.23518,-110.823976,,,,,0
13143,,Pantano/Pima,N PANTANO RD & E PIMA ST,32.24306,-110.823726,,,,,0
13153,,Wilmot/20th St,S WILMOT RD & E EASTLAND ST,32.210382,-110.858209,,,,,0
13154,,Wilmot/22nd St,S WILMOT RD & E 22ND ST,32.206332,-110.858085,,,,,0
13155,,Wilmot/26th St,S WILMOT RD & E C CASTOR,32.202743,-110.858146,,,,,0
13159,,Wilmot/Golf Links,S WILMOT RD & E GOLF LINKS RD,32.191622,-110.857963,,,,,0
13160,,Stella/Wilmot,E STELLA RD & S WILMOT RD,32.184582,-110.857393,,,,,0
13162,,Stella/Mann,E STELLA RD & S MANN AVE,32.184609,-110.84902,,,,,0
13163,,Stella/Jessica,E STELLA RD & S JESSICA AVE,32.184584,-110.844715,,,,,0
13166,,Stella/Marc,E STELLA RD & S MARC DR,32.184587,-110.828269,,,,,0
13168,,Stella/Lakeside,E STELLA RD & S LAKESIDE DR,32.184412,-110.822228,,,,,0
13169,,Stella/Sarnoff,E STELLA RD & E MORMON DR,32.184417,-110.814334,,,,,0
13170,,Stella/Magda,E STELLA RD & S MAGDA AVE,32.184371,-110.809598,,,,,0
13172,,Cmo Seco/Magda,S CMO SECO & S MAGDA AVE,32.182324,-110.806954,,,,,0
13173,,Cmo Seco/Escalante,S CMO SECO & S FRICK AVE,32.178041,-110.806965,,,,,0
13188,,Cmo Seco/Escalante,S CMO SECO & S FRICK AVE,32.177634,-110.806882,,,,,0
13189,,Cmo Seco/Magda,S CMO SECO & S MAGDA AVE,32.182287,-110.806869,,,,,0
13191,,Stella/Morman Dr,E STELLA RD & S MORMON DR,32.184527,-110.811035,,,,,0
13192,,Stella/Sarnoff,E STELLA RD & S SARNOFF DR,32.184551,-110.815138,,,,,0
13193,,Stella/Lakeside,E STELLA RD & S LAKESIDE DR,32.184576,-110.822535,,,,,0
13194,,Stella/Pantano,E STELLA RD & S PANTANO RD,32.184699,-110.824463,,,,,0
13196,,Stella/Marc,E STELLA RD & S MARC DR,32.184755,-110.829098,,,,,0
13198,,Stella/Charlotte,E STELLA RD & S CHARLOTTE AVE,32.184646,-110.837511,,,,,0
13199,,Stella/Langley,E STELLA RD & S LANGLEY AVE,32.184711,-110.845992,,,,,0
13201,,Stella/Wilmot,E STELLA RD & S WILMOT RD,32.184756,-110.857616,,,,,0
13206,,Wilmot/22nd St,S WILMOT RD & E 22ND ST,32.207114,-110.857789,,,,,0
13209,,Wilmot/Malvern,S WILMOT RD & E MALVERN ST,32.214712,-110.857802,,,,,0
13217,,Wilmot/Fairmount,N WILMOT RD & E FAIRMOUNT ST,32.239177,-110.858087,,,,,0
13230,,Cloud Rd/Manor Dr,E CLOUD RD & N MANOR DR,32.26901,-110.827553,,,,,0
13231,,Cloud Rd/Cmo Suerte,E CLOUD RD & N LODGE RD,32.269011,-110.83199,,,,,0
13232,,Cloud Rd/C Poco,E CLOUD RD & N CALLE POCO,32.269075,-110.836518,,,,,0
13240,,Wrightstown/Pantano,E WRIGHTSTOWN RD & N PANTANO RD,32.250812,-110.824421,,,,,0
13252,,Tucson Bl/Speedway,N TUCSON BLVD & E HELEN ST,32.236619,-110.93525,,,,,0
13253,,Tucson Bl/Drachman,WILSON AVENUE WASH & N TUCSON BLVD,32.239977,-110.93521,,,,,0
13255,,Lee/Tucson,E LEE ST & N FORGEUS AVE,32.241623,-110.935019,,,,,0
13256,,Forgeus/Elm,N FORGEUS AVE & E LEE ST,32.242708,-110.933849,,,,,0
13257,,Elm/Treat,E ELM ST & N TREAT AV,32.243143,-110.930786,,,,,0
13258,,Pima/Country Club,E PIMA ST & N COUNTRY CLUB RD,32.24316,-110.926434,,,,,0
13259,,Pima/Howard,E PIMA ST & N HOWARD BL,32.243214,-110.92221,,,,,0
13261,,Pima/Dodge,E PIMA ST & N DODGE BLVD,32.243307,-110.913748,,,,,0
13278,,Main/Simpson,S MAIN AVE & W SIMPSON ST,32.216088,-110.974411,,,,,0
13282,,22nd St/10th Av,W 22ND ST & S 10TH AVE,32.206696,-110.974202,,,,,0
13283,,22nd St/8th Av,W 22ND ST & S 8TH AVE,32.206661,-110.971003,,,,,0
13284,,22nd St/6th Av,E 22ND ST & S 6TH AVE,32.206745,-110.968204,,,,,0
13285,,22nd St/4th Av,E 22ND ST & S 4TH AVE,32.206698,-110.964584,,,,,0
13286,,22nd St/Euclid,E 22ND ST & EUCLID,32.20679,-110.959005,,,,,0
13288,,22nd St/Mountain,E 22ND ST & S SANTA RITA AVE,32.206759,-110.952419,,,,,0
13291,,22nd St/Treat,E 22ND ST & S COUNTRY CLUB RD,32.206704,-110.929925,,,,,0
13296,,22nd St/Dodge,E 22ND ST & S DODGE AVE,32.206814,-110.913462,,,,,0
13297,,22nd St/Irving,E 22ND ST & IRVING,32.206862,-110.904559,,,,,0
13298,,22nd St/Columbus,E 22ND ST & S BELVEDERE AVE,32.206872,-110.900564,,,,,0
13299,,22nd St/Belvedere,E 22ND ST & S BELVEDERE AVE,32.206844,-110.896318,,,,,0
13300,,22nd St/Swan,E 22ND ST & S SWAN RD,32.206826,-110.892014,,,,,0
13301,,22nd St/Mountain View,E 22ND ST & S MOUNTAIN VIEW,32.206795,-110.888311,,,,,0
13302,,22nd St/Rosemont,S 22ND ST & ROSEMONT,32.206773,-110.883267,,,,,0
13303,,22nd St/Magnolia,E 22ND ST & MAGNOLIA,32.206762,-110.880907,,,,,0
13304,,22nd St/Beverly,E 22ND ST & S BEVERLY AVE,32.20679,-110.879008,,,,,0
13306,,22nd St/Van Buren,E 22ND ST & S VAN BUREN AVE,32.206805,-110.870543,,,,,0
13307,,22nd St/Sahuara Av,E 22ND ST & S SAHUARA AVE,32.206812,-110.866758,,,,,0
13308,,22nd St/Alamo,E 22ND ST & S ALAMO AVE,32.206847,-110.86265,,,,,0
13309,,22nd St/Av Polar,E 22ND ST & S AMHERST DR,32.206384,-110.85453,,,,,0
13310,,22nd St/Av Sirio,E 22ND ST & S AVE SIRIO,32.206375,-110.850139,,,,,0
13313,,22nd St/Turquoise,E 22ND ST & S TURQUOISE VISTA,32.206338,-110.83624,,,,,0
13316,,22nd St/Pantano Pkwy,E 22ND ST & PANTANO PKWY,32.206317,-110.822994,,,,,0
13317,,22nd St/Sherwood Village Dr,E 22ND ST & S SHERWOOD VILLAGE DR,32.206294,-110.819631,,,,,0
13319,,22nd St/Lusk,E 22ND ST & LUSK,32.206277,-110.811506,,,,,0
13335,,22nd St/Lusk,E 22ND ST & S SARNOFF DR,32.206514,-110.811538,,,,,0
13337,,22nd St/Sherwood Village Dr,E 22ND ST & S SHERWOOD VILLAGE DR,32.206514,-110.817934,,,,,0
13338,,22nd St/Pantano Rd,E 22ND ST & S PANTANO RD,32.20662,-110.828408,,,,,0
13341,,22nd St/Turquoise,E 22ND ST & S TURQUOISE VISTA,32.206633,-110.837175,,,,,0
13344,,22nd St/Carnegie Dr,E 22ND ST & S CARNEGIE DR,32.20667,-110.845267,,,,,0
13345,,22nd St/Fordham,E 22ND ST & FORDHAM,32.206658,-110.850646,,,,,0
13346,,22nd St/Amherst,E 22ND ST & S AMHERST DR,32.206633,-110.855121,,,,,0
13347,,22nd St/Alamo,E 22ND ST & S ALAMO AVE,32.207081,-110.862595,,,,,0
13348,,22nd St/Colonia,E 22ND ST & S COLONIA AVE,32.207051,-110.867512,,,,,0
13349,,22nd St/Van Buren,E 22ND ST & S VAN BUREN AVE,32.207028,-110.870285,,,,,0
13352,,22nd St/Magnolia,E 22ND ST & S MAGNOLIA AVE,32.207059,-110.881415,,,,,0
13354,,22nd St/Mountain View,E 22ND ST & S MOUNTAIN VIEW AVE,32.207089,-110.890093,,,,,0
13355,,22nd St/Swan,E 22ND ST & S SWAN RD,32.207056,-110.892801,,,,,0
13356,,22nd St/Belvedere,E 22ND ST & S BELVEDERE AVE,32.207141,-110.897391,,,,,0
13357,,22nd St/Columbus,E 22ND ST & S BRYANT AVE,32.207085,-110.901521,,,,,0
13358,,22nd St/Irving,E 22ND ST & S IRVING AVE,32.207123,-110.905476,,,,,0
13359,,22nd St/Dodge,E 22ND ST & S DODGE AVE,32.20714,-110.913877,,,,,0
13362,,22nd St/Country Club,E 22ND ST & S COUNTRY CLUB RD,32.207021,-110.927024,,,,,0
13363,,22nd St/Treat,E 22ND ST & S TREAT AVE,32.206962,-110.93131,,,,,0
13364,,22nd St/Tucson,E 22ND ST & S TUCSON BL,32.206996,-110.935357,,,,,0
13367,,22nd St/Euclid,E 22ND ST & EUCLID,32.206934,-110.959653,,,,,0
13369,,22nd St/6th Av,W 22ND ST & S 6TH AVE,32.20693,-110.968775,,,,,0
13370,,22nd St/Meyer Av,E 22ND ST & MEYER AV,32.206859,-110.972695,,,,,0
13384,,Broadway/Fellowship Square,E BROADWAY BLVD & N MAGUIRE AVE,32.221122,-110.818095,,,,,0
13385,,Broadway/Pantano,E BROADWAY BLVD & N PANTANO RD,32.221116,-110.822915,,,,,0
13386,,Broadway/Pantano,E BROADWAY BLVD & N PANTANO RD,32.221121,-110.82461,,,,,0
13387,,Broadway/River Oaks Apts,E BROADWAY BLVD,32.221126,-110.827576,,,,,0
13388,,Broadway/Prudence,E BROADWAY BLVD & N PRUDENCE RD,32.221142,-110.832821,,,,,0
13389,,Broadway/Montego,E BROADWAY BLVD & N KOLB RD,32.221126,-110.837706,,,,,0
13390,,Broadway/Kolb,E BROADWAY BL & N KOLB RD,32.221066,-110.84147,,,,,0
13391,,Broadway/Langley,E BROADWAY BLVD & N JESSICA AVE,32.221195,-110.846054,,,,,0
13392,,Broadway/Jessica,E BROADWAY BLVD & N JESSICA AVE,32.221127,-110.847606,,,,,0
13393,,Broadway/Natachee,E BROADWAY BLVD & N AVE NATACHEE,32.221127,-110.852104,,,,,0
13395,,Tanque Verde/Indian Ruins,E TANQUE VERDE RD & N INDIAN RUINS RD,32.25072,-110.845711,,,,,0
13396,,Tanque Verde/Grant,E TANQUE VERDE RD & E GRANT RD,32.247988,-110.850368,,,,,0
13399,,Wilmot/Lee,N WILMOT RD & E 4TH ST,32.241756,-110.85809,,,,,0
13401,,Wilmot/Speedway,N WILMOT RD & E SPEEDWAY BLVD,32.235344,-110.85813,,,,,0
13402,,Wilmot/Rosewood,N WILMOT RD & E ROSEWOOD ST,32.232116,-110.858113,,,,,0
13403,,Wilmot/5th St,N WILMOT RD & E 5TH ST,32.22849,-110.858132,,,,,0
13404,,Wilmot/Carondelet,N WILMOT RD & E 5TH ST,32.226055,-110.858117,,,,,0
13405,,Broadway/McDonalds,E BROADWAY BLVD & N WILMOT RD,32.221641,-110.86184,,,,,0
13408,,Broadway/Leonora,E BROADWAY BLVD & N LEONORA AVE,32.221714,-110.872439,,,,,0
13409,,Broadway/Craycroft,E BROADWAY BLVD & N CRAYCROFT RD,32.22174,-110.875723,,,,,0
13410,,Broadway/Beverly,E BROADWAY BLVD & N BEVERLY AVE,32.221768,-110.879422,,,,,0
13411,,Broadway/Rosemont,E BROADWAY BLVD & N ROSEMONT BLVD,32.221831,-110.88422,,,,,0
13412,,Broadway/Niven,E BROADWAY BLVD & S NIVEN AVE,32.221742,-110.88662,,,,,0
13413,,Broadway/Mountain View,E BROADWAY BLVD & N MOUNTAIN VIEW AVE,32.221684,-110.889596,,,,,0
13415,,Broadway/Belvedere,E BROADWAY BL & N BELVEDERE AV,32.221724,-110.896345,,,,,0
13416,,Broadway/Columbus,E BROADWAY BL & N COLUMBUS BL,32.221714,-110.901325,,,,,0
13417,,Broadway/Irving,E BROADWAY BLVD & N IRVING AVE,32.221704,-110.905526,,,,,0
13419,,Broadway/Dodge,E BROADWAY BLVD & N DODGE BLVD,32.221733,-110.914323,,,,,0
13421,,Broadway/Country Club,E BROADWAY BLVD & N COUNTRY CLUB RD,32.221659,-110.926331,,,,,0
13422,,Broadway/Treat,E BROADWAY BLVD & N TREAT AVE,32.221597,-110.931418,,,,,0
13423,,Broadway/Tucson,E BROADWAY BLVD & N TUCSON BLVD,32.221617,-110.935512,,,,,0
13424,,Broadway/Plumer,E BROADWAY BLVD & N PLUMER AVE,32.221548,-110.939757,,,,,0
13425,,Broadway/Campbell,E BROADWAY BLVD & N MARTIN AVE,32.221509,-110.944332,,,,,0
13426,,Broadway/Cherry,E BROADWAY BLVD & N VINE AVE,32.22152,-110.948394,,,,,0
13427,,Broadway/Highland,E BROADWAY BLVD & N HIGHLAND AVE,32.221454,-110.950591,,,,,0
13428,,Broadway/Santa Rita,E BROADWAY BL & S FREMONT AV,32.221421,-110.955338,,,,,0
13429,,Broadway/Park Av,E BROADWAY BLVD & N PARK AVE,32.2215,-110.957159,,,,,0
13434,,Cushing/Main,W CUSHING ST & S MEYER AVE,32.216808,-110.97415,,,,,0
13438,,6th Av/18th St,S 6TH AVE & E 18TH ST,32.211405,-110.968624,,,,,0
13439,,6th Av/20th St,S 6TH AV & E 20TH ST,32.209211,-110.968691,,,,,0
13440,,6th Av/22nd St,S 6TH AV & E 22ND ST,32.2066,-110.968657,,,,,0
13441,,6th Av/27th St,S 6TH AV & E 27TH ST,32.201252,-110.968612,,,,,0
13442,,6th Av/32nd St,S 6TH AVE & W 32ND ST,32.196635,-110.968575,,,,,0
13443,,6th Av/34th St,S 6TH AV & E 34TH ST,32.194431,-110.968445,,,,,0
13444,,6th Av/37th St,S 6TH AVE & E OLD VAIL RD,32.191727,-110.968462,,,,,0
13445,,6th Av/39th St,S 6TH AVE & E 39TH ST,32.189044,-110.968509,,,,,0
13446,,6th Av/44th St,S 6TH AVE & W 44TH ST,32.185302,-110.968471,,,,,0
13447,,6th Av/Veterans,S 6TH AVE & W VETERANS BLVD,32.180878,-110.96845,,,,,0
13461,,6th Av/Veterans,S 6TH AVE & W VETERANS BLVD,32.181792,-110.9682,,,,,0
13462,,6th Av/44th St,S 6TH AV & W 44TH ST,32.185403,-110.968208,,,,,0
13463,,6th Av/39th St,S 6TH AVE & E 39TH ST,32.189814,-110.968214,,,,,0
13464,,6th Av/36th St,S 6TH AVE & E 36TH ST,32.192723,-110.968292,,,,,0
13465,,6th Av/33rd St,S 6TH AV & E 33RD ST,32.195417,-110.968274,,,,,0
13466,,6th Av/31st St,S 6TH AVE & E 31ST ST,32.197907,-110.968275,,,,,0
13467,,6th Av/26th St,S 6TH AVE & E 26TH ST,32.202761,-110.968371,,,,,0
13469,,6th Av/22nd St,S 6TH AV & E 22ND ST,32.2072,-110.968533,,,,,0
13470,,6th Av/20th St,S 6TH AVE & E 20TH ST,32.209752,-110.968363,,,,,0
13472,,6th Av/17th St,S 6TH AVE & E 17TH ST,32.213638,-110.968453,,,,,0
13474,,6th Av/12th St,S 6TH AVE & E 12TH ST,32.219596,-110.968502,,,,,0
13481,,Broadway/Euclid,E BROADWAY BL & N EUCLID AV,32.22122,-110.959211,,,,,0
13482,,Broadway/Fremont,E BROADWAY BLVD & N FREMONT AVE,32.221257,-110.954744,,,,,0
13483,,Broadway/Highland,E BROADWAY BLVD & S HIGHLAND AVE,32.221289,-110.950649,,,,,0
13484,,Broadway/Cherry,E BROADWAY BLVD & N CHERRY AVE,32.221303,-110.947657,,,,,0
13485,,Broadway/Campbell,E BROADWAY BLVD & S KINO PW,32.221345,-110.943487,,,,,0
13486,,Broadway/Plumer,E BROADWAY BLVD & N PLUMER AVE,32.221366,-110.939084,,,,,0
13487,,Broadway/Tucson,E BROADWAY BLVD & N TUCSON BLVD,32.221397,-110.934766,,,,,0
13488,,Broadway/Treat,E BROADWAY BLVD & S TREAT AVE,32.221375,-110.930524,,,,,0
13490,,Broadway/Country Club,E BROADWAY BLVD & N CMO ESPANOL,32.221425,-110.926237,,,,,0
13491,,Broadway/Dodge,E BROADWAY BLVD & N DODGE BLVD,32.221399,-110.914103,,,,,0
13493,,Broadway/Irving,E BROADWAY BLVD & S IRVING AVE,32.221444,-110.905615,,,,,0
13494,,Broadway/Columbus,E BROADWAY BLVD & N CATALINA AVE,32.221378,-110.900553,,,,,0
13495,,Broadway/Belvedere,E BROADWAY BLVD & N BELVEDERE AVE,32.221321,-110.895722,,,,,0
13498,,Broadway/Niven,E BROADWAY BLVD & S NIVEN AVE,32.221506,-110.886898,,,,,0
13499,,Broadway/Rosemont,E BROADWAY BLVD & N ROSEMONT BLVD,32.221483,-110.883275,,,,,0
13500,,Broadway/Williams,E BROADWAY BLVD & S WILLIAMS BLVD,32.221451,-110.879031,,,,,0
13501,,Broadway/Craycroft,E BROADWAY BLVD & S CRAYCROFT RD,32.221418,-110.874756,,,,,0
13502,,Broadway/Leonora,E BROADWAY BLVD & N LEONORA AVE,32.221412,-110.871631,,,,,0
13503,,Broadway/Chantilly,E BROADWAY BLVD & N CHANTILLY DR,32.221394,-110.868113,,,,,0
13505,,Broadway/Park Place,E BROADWAY BL & N INDIAN HOUSE RD,32.221428,-110.86518,,,,,0
13506,,Broadway/O'Reilly Chevrolet,E BROADWAY BLVD & E BROADWAY BLVD,32.221346,-110.860576,,,,,0
13508,,Wilmot/Carondelet,N WILMOT RD & E CARONDELET DR,32.225963,-110.8578,,,,,0
13510,,Wilmot/5th St,N WILMOT RD & E 4TH ST,32.229344,-110.857815,,,,,0
13511,,Wilmot/Rosewood,N WILMOT RD & E 4TH ST,32.232148,-110.857731,,,,,0
13512,,Wilmot/Speedway,N WILMOT RD & E SPEEDWAY BLVD,32.23636,-110.857779,,,,,0
13517,,Tanque Verde/6534 E Tanque Verde,E TANQUE VERDE RD & N CMO SERNA,32.24557,-110.853537,,,,,0
13519,,Tanque Verde/Kolb,E TANQUE VERDE RD & N KOLB RD,32.248134,-110.849549,,,,,0
13520,,Tanque Verde/Cmo Principal,E TANQUE VERDE RD & E CMO PRINCIPAL,32.249637,-110.846964,,,,,0
13521,,Tanque Verde/Indian Ruins,E TANQUE VERDE RD & N INDIAN RUINS RD,32.250473,-110.845448,,,,,0
13522,,Tanque Verde/Indian Ridge,E TANQUE VERDE RD & S IRVING AVE,32.25063,-110.843536,,,,,0
13525,,Broadway/Wilmot,E BROADWAY BLVD & S WILMOT RD,32.221117,-110.857494,,,,,0
13526,,Broadway/Mann,E BROADWAY BLVD & N JESSICA AVE,32.220873,-110.849108,,,,,0
13527,,Broadway/Jessica,E BROADWAY BLVD & N JESSICA AVE,32.220888,-110.84708,,,,,0
13528,,Broadway/Langley,E BROADWAY BLVD & S KOLB RD,32.22085,-110.843692,,,,,0
13530,,Broadway/Kolb,E BROADWAY BLVD & S KOLB RD,32.22087,-110.840522,,,,,0
13531,,Broadway/Montego,E BROADWAY BLVD & S MONTEGO DR,32.220878,-110.836748,,,,,0
13532,,Broadway/Prudence,E BROADWAY BLVD & S PRUDENCE RD,32.220812,-110.831865,,,,,0
13533,,Broadway/River Oaks Apts,,32.220837,-110.827358,,,,,0
13545,,Cmo LosBrazos/Pla Brazos,E CMO LOS BRAZOS & N PLA BRAZOS,32.26671,-110.82534,,,,,0
13546,,Cmo LosBrazos/Cloud Rd,N CMO LOS BRAZOS & E CLOUD RD,32.268787,-110.825613,,,,,0
13550,,Cloud Rd/Sabino Vista,E CLOUD RD & E SABINO VISTA DR,32.269044,-110.839542,,,,,0
13551,,Sabino Canyon/Cloud,N SABINO CANYON RD & E C CIPRES,32.268568,-110.841242,,,,,0
13552,,Sabino Canyon/Indian Ruins,N SABINO CANYON RD & N INDIAN RUINS RD,32.261971,-110.841297,,,,,0
13553,,Sabino Canyon/Arrowhead,N SABINO CANYON RD & E ARROWHEAD DR,32.25831,-110.841316,,,,,0
13555,,Tanque Verde/Lutheran Church,E TANQUE VERDE RD,32.258221,-110.807137,,,,,0
13556,,Tanque Verde/Woodland,E TANQUE VERDE RD & E WOODLAND RD,32.258267,-110.815857,,,,,0
13557,,Tanque Verde/Dos Hombres,E TANQUE VERDE RD & N DOS HOMBRES RD,32.250942,-110.830623,,,,,0
13559,,Grant/Tanque Verde,E GRANT RD & E TANQUE VERDE RD,32.248726,-110.850243,,,,,0
13560,,Grant/6400 E Grant,E GRANT RD & N WILMOT RD,32.250769,-110.855272,,,,,0
13561,,Grant/Wilmot,E GRANT RD & N WILMOT RD,32.250738,-110.858405,,,,,0
13564,,Grant/Sahuara,E GRANT RD & N SAHUARA AVE,32.25077,-110.866842,,,,,0
13565,,Grant/Rainbow Vista,E GRANT RD & N RAINBOW VISTA DR,32.250855,-110.870936,,,,,0
13567,,Grant/Beverly,E GRANT RD & N BEVERLY AVE,32.250763,-110.880272,,,,,0
13568,,Grant/Rosemont,N ROSEMONT BLVD & E GRANT RD,32.250763,-110.88407,,,,,0
13570,,Grant/Arcadia,E GRANT RD & N ARCADIA AVE,32.250806,-110.888859,,,,,0
13571,,Grant/Swan,E GRANT RD & N SWAN RD,32.250735,-110.893052,,,,,0
13572,,Grant/Belvedere,E GRANT RD & N BELVEDERE AVE,32.250755,-110.897329,,,,,0
13573,,Grant/Columbus,E GRANT RD & N ORCHARD AVE,32.250743,-110.901063,,,,,0
13574,,Grant/Walnut,E GRANT RD & N SYCAMORE BLVD,32.250758,-110.905874,,,,,0
13575,,Grant/3767 E Grant SAAVI,E GRANT RD & N DODGE BLVD,32.250715,-110.912264,,,,,0
13577,,Grant/Palo Verde,E GRANT RD & N PALO VERDE AV,32.25063,-110.918696,,,,,0
13578,,Grant/Edith,E GRANT RD & N EDITH BL,32.250554,-110.922345,,,,,0
13580,,Grant/Doolen School,E GRANT RD & N COUNTRY CLUB RD,32.250474,-110.925642,,,,,0
13581,,Grant/Country Club,E GRANT RD & N COUNTRY CLUB RD,32.250448,-110.927317,,,,,0
13582,,Grant/Treat,E GRANT RD & N FORGEUS AVE,32.250483,-110.931329,,,,,0
13583,,Grant/Tucson,E GRANT RD & N WILSON AVE,32.25041,-110.935776,,,,,0
13584,,Grant/Plumer,E GRANT RD & N PLUMER AV,32.250433,-110.939841,,,,,0
13604,,Euclid/Broadway,N EUCLID AVE & S EUCLID AVE,32.221759,-110.959343,,,,,0
13616,,Grant/Campbell@Norris,E GRANT RD & N NORRIS AV,32.250275,-110.942328,,,,,0
13617,,Grant/Plumer,E GRANT RD & N PLUMER AV,32.250276,-110.93932,,,,,0
13618,,Grant/Tucson,E GRANT RD & N TUCSON BLVD,32.250235,-110.935074,,,,,0
13619,,Grant/Loretta,E GRANT RD & N LORETTA DR,32.250233,-110.929805,,,,,0
13620,,Grant/Country Club,E GRANT RD & N COUNTRY CLUB RD,32.25029,-110.926508,,,,,0
13621,,Grant/Rita,E GRANT RD & N RITA AV,32.25041,-110.921312,,,,,0
13622,,Grant/Palo Verde,E GRANT RD & N PALO VERDE AV,32.250488,-110.917866,,,,,0
13623,,Grant/Dodge,E GRANT RD & N DODGE BL,32.250579,-110.9138,,,,,0
13624,,Grant/Walnut,E GRANT RD & N WALNUT AVE,32.250684,-110.905255,,,,,0
13625,,Grant/Columbus,E GRANT RD & N COLUMBUS BLVD,32.250519,-110.901076,,,,,0
13626,,Grant/Belvedere,E GRANT RD & N BELVEDERE AVE,32.250471,-110.89664,,,,,0
13627,,Grant/Swan,E GRANT RD & N SWAN RD,32.250523,-110.892318,,,,,0
13628,,Grant/Arcadia,E GRANT RD & N ARCADIA AVE,32.250477,-110.888223,,,,,0
13630,,Grant/Rosemont,E GRANT RD & N ROSEMONT BLVD,32.250538,-110.883987,,,,,0
13631,,Grant/Beverly,E GRANT RD & N BEVERLY AVE,32.250543,-110.879635,,,,,0
13633,,Grant/Rainbow Vista,E GRANT RD & N RAINBOW VISTA DR,32.250548,-110.87028,,,,,0
13634,,Grant/Sahuara,E GRANT RD & N SAHUARA AVE,32.250527,-110.866813,,,,,0
13635,,Grant/Ridgeway,E GRANT RD & N RIDGEWAY RD,32.250523,-110.864178,,,,,0
13636,,Grant/Devon Gables,E GRANT RD & UNNAMED,32.250466,-110.861107,,,,,0
13637,,Grant/Wilmot,E GRANT RD & N WILMOT RD,32.250517,-110.857503,,,,,0
13642,,Sabino Canyon/Acoma,N SABINO CANYON RD & E ACOMA PL,32.25473,-110.840805,,,,,0
13646,,Sabino Canyon/Shoreline,N SABINO CANYON RD & E SHORELINE DR,32.263547,-110.840916,,,,,0
13647,,Sabino Canyon/Sabino Vista Cir,N SABINO CANYON RD & SABINO VISTA,32.267431,-110.840862,,,,,0
13648,,Cloud Rd/Sabino Canyon,E CLOUD RD & N SABINO VISTA CIR,32.268989,-110.840191,,,,,0
13652,,Tanque Verde/Cmo Pio Decimo,E TANQUE VERDE RD & N CMO PIO DECIMO,32.250615,-110.829973,,,,,0
13653,,Pantano/Wrightstown,N PANTANO RD & E WRIGHTSTOWN RD,32.251067,-110.823633,,,,,0
13655,,Tanque Verde/Woodland,E TANQUE VERDE RD & E BEARS PATH RD,32.257923,-110.815264,,,,,0
13656,,Tanque Verde/Lutheran Church,,32.257971,-110.807389,,,,,0
13670,,St Mary's/Granada,W SAINT MARYS RD & N GRANADA AVE,32.227713,-110.978264,,,,,0
13671,,St Mary's/I-10 Interstate,W SAINT MARYS RD & N FREEWAY,32.229538,-110.983773,,,,,0
13672,,St Mary's/Columbia,W SAINT MARYS RD & N COLUMBIA AVE,32.229838,-110.987844,,,,,0
13674,,St Mary's/Cuesta,W SAINT MARYS RD & N CUESTA AVE,32.229186,-110.995129,,,,,0
13675,,St Mary's/Cherokee,W SAINT MARYS RD & N CHEROKEE AVE,32.229018,-110.99763,,,,,0
13676,,St Mary's/Silverbell,W SAINT MARYS RD & N SILVERBELL RD,32.228918,-110.999376,,,,,0
13677,,St Mary's/San Rafael,W SAINT MARYS RD & N SAN RAFAEL AVE,32.228483,-111.002743,,,,,0
13678,,St Mary's/Anklam,W SAINT MARYS RD & W ANKLAM RD,32.226662,-111.005479,,,,,0
13680,,Anklam/La Cholla,W ANKLAM RD & N LA CHOLLA BLVD,32.224889,-111.011361,,,,,0
13686,,St Mary's/Silverbell,W SAINT MARYS RD & N SILVERBELL RD,32.228707,-110.998645,,,,,0
13688,,St Mary's/Grande,W SAINT MARYS RD & N GRANDE AVE,32.229486,-110.990415,,,,,0
13689,,St Mary's/Furr's Cafeterias,W SAINT MARYS RD & N COLUMBIA AVE,32.22959,-110.987183,,,,,0
13690,,St Mary's/I-10 Interstate,W SAINT MARYS RD & N FREEWAY,32.22934,-110.983934,,,,,0
13692,,Granada/Ashbury Ln,N GRANADA AVE & N ASHBURY LN,32.224568,-110.977361,,,,,0
13697,,6th St/4th Av,E 6TH ST & N 4TH AVE,32.227601,-110.965323,,,,,0
13698,,6th St/Tucson High School,E 6TH ST & N 1ST AVE,32.227631,-110.961399,,,,,0
13707,,6th St/Country Club,E 6TH ST & N COUNTRY CLUB RD,32.228175,-110.927319,,,,,0
13708,,5th St/Jones,E 5TH ST & N JONES BLVD,32.228752,-110.919636,,,,,0
13709,,5th St/Palo Verde,E 5TH ST & N PALO VERDE AVE,32.228712,-110.917834,,,,,0
13710,,5th St/Dodge,E 5TH ST & N DODGE BLVD,32.228785,-110.913714,,,,,0
13711,,5th St/Irving,E 5TH ST & N COLUMBUS BLVD,32.228781,-110.905056,,,,,0
13712,,5th St/Columbus,E 5TH ST & N COLUMBUS BLVD,32.228749,-110.900929,,,,,0
13713,,5th St/Belvedere,E 5TH ST & N BELVEDERE AVE,32.228716,-110.896442,,,,,0
13714,,5th St/Swan,E 5TH ST & N SWAN RD,32.228737,-110.892112,,,,,0
13715,,5th St/Arcadia,E 5TH ST & N ARCADIA AVE,32.228749,-110.888891,,,,,0
13716,,5th St/Rosemont,E 5TH ST & N ROSEMONT BLVD,32.228856,-110.88356,,,,,0
13730,,Stone/Drachman,N STONE AVE & E ADAMS ST,32.239777,-110.971671,,,,,0
13732,,Stone/Flores,N STONE AVE & E RILLITO ST,32.247796,-110.971745,,,,,0
13733,,Stone/Jacinto,N STONE AVE & E MAC IVER PL,32.253879,-110.971793,,,,,0
13735,,Stone/Blacklidge,N STONE AVE & E BLACKLIDGE DR,32.261766,-110.971862,,,,,0
13736,,Stone/Navajo,N STONE AVE & E NAVAJO RD,32.266067,-110.971896,,,,,0
13737,,Stone/Yavapai,N STONE AVE & E YAVAPAI RD,32.269295,-110.971917,,,,,0
13739,,Stone/Pastime,N STONE AVE & E PASTIME RD,32.27605,-110.971988,,,,,0
13741,,Stone/C Arizona,N STONE AVE & E LIMBERLOST DR,32.281492,-110.969969,,,,,0
13746,,Stone/Pastime,N STONE AVE & W PASTIME RD,32.275185,-110.972296,,,,,0
13747,,Stone/Prince,N STONE AVE & W WINDSOR ST,32.271651,-110.972244,,,,,0
13748,,Stone/Yavapai,N STONE AVE & E YAVAPAI RD,32.269298,-110.972236,,,,,0
13749,,Stone/Ft Lowell,N STONE AVE & W FORT LOWELL RD,32.264256,-110.97219,,,,,0
13750,,Stone/Blacklidge,N STONE AVE & W BLACKLIDGE DR,32.26193,-110.97217,,,,,0
13751,,Stone/Glenn,N STONE AVE & W GLENN ST,32.257934,-110.972137,,,,,0
13752,,Stone/Jacinto,N STONE AVE & W JACINTO ST,32.253695,-110.972105,,,,,0
13753,,Stone/Flores,N STONE AVE & W FLORES ST,32.246886,-110.972046,,,,,0
13754,,Stone/Lester,N STONE AVE & W LESTER ST,32.24354,-110.972015,,,,,0
13755,,Stone/Drachman,N STONE AVE & W DRACHMAN ST,32.239552,-110.971915,,,,,0
13823,,5th St/Wilmot,E 5TH ST & N WILMOT RD,32.228967,-110.858557,,,,,0
13825,,5th St/Indian House,E 5TH ST & N INDIAN HOUSE RD,32.22896,-110.863839,,,,,0
13826,,5th St/McKinley,E 5TH ST & N CHANTILLY DR,32.229016,-110.868669,,,,,0
13827,,5th St/Van Buren,E 5TH ST & N VAN BUREN AVE,32.228976,-110.871336,,,,,0
13828,,5th St/Craycroft,E 5TH ST & N CRAYCROFT RD,32.229003,-110.875888,,,,,0
13830,,5th St/Beverly,E 5TH ST & N BEVERLY AVE,32.228991,-110.880068,,,,,0
13831,,5th St/Rosemont,E 5TH ST & N ROSEMONT BLVD,32.229002,-110.883654,,,,,0
13832,,5th St/Arcadia,E 5TH ST & N ARCADIA AVE,32.228981,-110.888718,,,,,0
13833,,5th St/Swan,E 5TH ST & N SWAN RD,32.228902,-110.892822,,,,,0
13834,,5th St/Belvedere,E 5TH ST & N BELVEDERE AVE,32.228909,-110.897176,,,,,0
13835,,5th St/Catalina,E 5TH ST & N CATALINA AVE,32.228972,-110.898581,,,,,0
13836,,5th St/Columbus,E 5TH ST & N COLUMBUS BLVD,32.228925,-110.901479,,,,,0
13837,,5th St/Irving,E 5TH ST & N IRVING AV,32.228939,-110.905619,,,,,0
13838,,5th St/Dodge,E 5TH ST & N DODGE BLVD,32.228923,-110.913556,,,,,0
13839,,5th St/Palo Verde,E 5TH ST & N PALO VERDE AVE,32.228896,-110.918472,,,,,0
13840,,5th St/Jones,E 5TH ST & N JONES AVE,32.228935,-110.920135,,,,,0
13856,,Granada/Pso Redondo,N GRANADA AVE & E AJO WAY,32.223298,-110.976772,,,,,0
13857,,Granada/405 Granada,N GRANADA AVE & W SAINT MARYS RD,32.226583,-110.97784,,,,,0
13858,,5th St/Beverly,E 5TH ST & N CLOVERLAND AVE,32.228852,-110.87991,,,,,0
13860,,5th St/Craycroft,E 5TH ST & N CRAYCROFT RD,32.228814,-110.875091,,,,,0
13861,,5th St/Van Buren,E 5TH ST & N VAN BUREN AV,32.228827,-110.870801,,,,,0
13862,,5th St/Chantilly,E 5TH ST & N CHANTILLY DR,32.228828,-110.867541,,,,,0
13863,,5th St/Indian House,E 5TH ST & N INDIAN HOUSE RD,32.228822,-110.863382,,,,,0
13864,,5th St/Ruston,E 5TH ST & N RUSTON AVE,32.228821,-110.860951,,,,,0
13868,,Country Club/5th St,N COUNTRY CLUB RD & E 5TH ST,32.228829,-110.926604,,,,,0
13869,,Country Club/3rd St,N COUNTRY CLUB RD & E 3RD ST,32.232203,-110.926575,,,,,0
13870,,Country Club/Speedway,N COUNTRY CLUB RD & E SPEEDWAY BL,32.236343,-110.926677,,,,,0
13871,,Country Club/Adams,N COUNTRY CLUB RD & E ADAMS ST,32.240516,-110.926712,,,,,0
13872,,Country Club/Pima,N COUNTRY CLUB RD & E PIMA ST,32.243499,-110.926652,,,,,0
13873,,Country Club/Seneca,N COUNTRY CLUB RD & E SENECA ST,32.247331,-110.926677,,,,,0
13874,,Country Club/Flower,N COUNTRY CLUB RD & E FLOWER ST,32.253747,-110.926725,,,,,0
13875,,Country Club/Glenn,N COUNTRY CLUB RD & E GLENN ST,32.258222,-110.926659,,,,,0
13876,,Country Club/Blacklidge,N COUNTRY CLUB RD & E BLACKLIDGE DR,32.261542,-110.926692,,,,,0
13877,,Country Club/Ft Lowell,N COUNTRY CLUB RD & E FORT LOWELL RD,32.265337,-110.926696,,,,,0
13878,,Country Club/Kleindale,N COUNTRY CLUB RD & E KLEINDALE RD,32.268989,-110.926712,,,,,0
13879,,Prince/Country Club,E PRINCE RD & N COUNTRY CLUB RD,32.272283,-110.927157,,,,,0
13880,,Prince/Cactus,E PRINCE RD & N CACTUS BLVD,32.272275,-110.930765,,,,,0
13881,,Prince/Tucson,E PRINCE RD & N TUCSON BLVD,32.272302,-110.935595,,,,,0
13882,,Prince/Wilson,E PRINCE RD & N WILSON AVE,32.27228,-110.939884,,,,,0
13883,,Prince/Campbell,E PRINCE RD & N CAMPBELL AVE,32.272271,-110.944199,,,,,0
13884,,Prince/Cherry,E PRINCE RD & N CHERRY AVE,32.272254,-110.948609,,,,,0
13886,,Prince/Park,E PRINCE RD & N PARK AVE,32.272172,-110.957081,,,,,0
13890,,Prince/226 W Prince,W PRINCE RD & N ORACLE RD,32.272013,-110.975602,,,,,0
13894,,Prince/Fairview,W PRINCE RD & N FAIRVIEW AVE,32.272128,-110.987121,,,,,0
13895,,Prince/1120 W Prince,W PRINCE RD & N CRESCENT MANOR DR,32.272164,-110.991382,,,,,0
13896,,Prince/Flowing Wells,W PRINCE RD & N CRESCENT MANOR DR,32.272184,-110.993025,,,,,0
13900,,Romero/Prince,N ROMERO RD & W PRINCE RD,32.273221,-111.003397,,,,,0
13909,,Ruthrauff/Sullinger,W RUTHRAUFF RD & N SULLINGER AVE,32.294412,-111.016072,,,,,0
13910,,Ruthrauff/Kain,W RUTHRAUFF RD & KAIN,32.294373,-111.019669,,,,,0
13911,,Kain/C Comodo,N KAIN AVE & W C COMODO,32.296684,-111.020524,,,,,0
13912,,Kain/Kimberly Pl,N KAIN AVE & W KIMBERLEY PL,32.299473,-111.020466,,,,,0
13913,,Curtis/Plane,W CURTIS RD & N PLANE AVE,32.301499,-111.02302,,,,,0
13915,,Davis/Diamond,N DAVIS AV & W DIAMOND ST,32.298091,-111.026998,,,,,0
13917,,Ruthrauff/Plane,W RUTHRAUFF RD & PLANE,32.294191,-111.023566,,,,,0
13918,,Ruthrauff/Kain,W RUTHRAUFF RD & N KAIN AVE,32.294213,-111.020002,,,,,0
13919,,Ruthrauff/Sullinger,W RUTHRAUFF RD & SULLINGER,32.294246,-111.016767,,,,,0
13920,,Ruthrauff/La Cholla,W RUTHRAUFF RD & N LA CHOLLA BLVD,32.294199,-111.011374,,,,,0
13930,,Prince/1103 W Prince,W PRINCE RD & E RIVER RD,32.272009,-110.991063,,,,,0
13931,,Prince/Fairview,W PRINCE RD & N FAIRVIEW AVE,32.271941,-110.986252,,,,,0
13934,,Prince/120 W Prince,W PRINCE RD & N STONE AVE,32.271818,-110.974499,,,,,0
13936,,Prince/218 E Prince Rd,E PRINCE RD & N STONE AVE,32.271914,-110.968707,,,,,0
13938,,Prince/Park,E PRINCE RD & N TYNDALL AVE,32.271953,-110.956978,,,,,0
13939,,Prince/Mountain,E PRINCE RD & N MOUNTAIN AVE,32.272028,-110.952104,,,,,0
13940,,Prince/Cherry,E PRINCE RD & N CHERRY AVE,32.272044,-110.947615,,,,,0
13941,,Prince/Campbell,E PRINCE RD & N CAMPBELL AVE,32.272133,-110.943272,,,,,0
13942,,Prince/Wilson,E PRINCE RD & N JACKSON AVE,32.272164,-110.939263,,,,,0
13943,,Prince/Tucson,E PRINCE RD & N TUCSON BLVD,32.272232,-110.934831,,,,,0
13944,,Prince/Treat,E PRINCE RD & N TREAT AVE,32.272167,-110.930766,,,,,0
13945,,Prince/Country Club,E PRINCE RD & N COUNTRY CLUB RD,32.27221,-110.927073,,,,,0
13946,,Country Club/Kleindale,N COUNTRY CLUB RD & E KLEINDALE RD,32.268469,-110.926771,,,,,0
13947,,Country Club/Ft Lowell,N COUNTRY CLUB RD & E FORT LOWELL RD,32.264769,-110.926853,,,,,0
13948,,Country Club/Blacklidge,N COUNTRY CLUB RD & E BLACKLIDGE DR,32.26108,-110.926892,,,,,0
13949,,Country Club/Glenn,N COUNTRY CLUB RD & E GLENN ST,32.257318,-110.926927,,,,,0
13950,,Country Club/Flower,N COUNTRY CLUB RD & E FLOWER ST,32.25376,-110.926883,,,,,0
13951,,Country Club/Seneca,N COUNTRY CLUB RD & E SENECA ST,32.246641,-110.926897,,,,,0
13952,,Country Club/Elm,N COUNTRY CLUB RD & E ELM ST,32.242837,-110.926925,,,,,0
13953,,Country Club/Drachman,N COUNTRY CLUB RD & E DRACHMAN ST,32.239472,-110.926853,,,,,0
13954,,Country Club/Speedway,N COUNTRY CLUB RD & E SPEEDWAY BLVD,32.235658,-110.926915,,,,,0
13955,,Country Club/3rd St,N COUNTRY CLUB RD & E 3RD ST,32.231909,-110.92687,,,,,0
13956,,Country Club/5th St,N COUNTRY CLUB RD & E 6TH ST,32.228251,-110.926785,,,,,0
13965,,Country Club/23rd St,S COUNTRY CLUB RD & E 23RD ST,32.206023,-110.926809,,,,,0
13966,,Country Club/27th St,S COUNTRY CLUB RD & E 27TH ST,32.20255,-110.926717,,,,,0
13967,,Country Club/30th St,S COUNTRY CLUB RD & E 30TH ST,32.20045,-110.926706,,,,,0
13969,,Silverlake/Howard Strav,E SILVERLAKE RD & S RANDOLPH PW,32.199498,-110.922485,,,,,0
13970,,Silverlake/Kelvin,E SILVERLAKE RD & S HOLLY STRAV,32.199504,-110.920022,,,,,0
13974,,Nogales Hy/Irvington,S NOGALES HWY & W IRVINGTON RD,32.160603,-110.967553,,,,,0
13979,,6th Av/Delta,S 6TH AVE & W DELTA ST,32.144681,-110.968052,,,,,0
13980,,6th Av/Bilby,S 6TH AVE & E BILBY RD,32.140962,-110.968083,,,,,0
13981,,6th Av/Valeska,S 6TH AV & E VALESKA RD,32.137438,-110.967962,,,,,0
13982,,Valencia/Fiesta,W VALENCIA RD & S FIESTA AVE,32.134188,-110.972656,,,,,0
13983,,Valencia/12th Av,W VALENCIA RD & S 12TH AVE,32.134156,-110.978664,,,,,0
13984,,Valencia/Midvale Medical Ctr,W VALENCIA RD & S COMMERCE CT,32.133924,-110.994784,,,,,0
13987,,Valencia/Mission,W VALENCIA RD & S MISSION RD,32.133945,-111.016674,,,,,0
13988,,Valencia/Westover (old Cir. K),W VALENCIA RD & S HILDRETH AVE,32.133979,-111.02091,,,,,0
13989,,Valencia/Hildreth,W VALENCIA RD & S CARDINAL AVE,32.133958,-111.024503,,,,,0
13996,,Cardinal/Christopher Dr,S CARDINAL AVE & W CHRISTOPHER DR,32.124141,-111.029046,,,,,0
14000,,Los Reales/Cmo de la Tierra,W LOS REALES RD & S CMO DE LA TIERRA,32.119179,-111.037994,,,,,0
14001,,Los Reales/Bolingbroke,W LOS REALES RD & S BOLINGBROKE AVE,32.119136,-111.043738,,,,,0
14002,,Tetakusim Rd/Beehive Av,W TETAKUSIM RD & S SORREL LN,32.115655,-111.047808,,,,,0
14014,,Quincie Douglas Center,S QUINCIE DOUGLAS PARK DR,32.193483,-110.948757,,,,,0
14017,,Park/22nd St,S PARK AV & E 22ND ST,32.206479,-110.956121,,,,,0
14018,,Park/22nd St,S PARK AV & E 22ND ST,32.206669,-110.956257,,,,,0
14031,,Campbell Av/Grant@Water,N CAMPBELL AVE & E WATER ST,32.25164,-110.943865,,,,,0
14053,,36th St/Campbell,E 36TH ST & S CAMPBELL AVE,32.192469,-110.943704,,,,,0
14056,,Wilmot/Timrod,S WILMOT RD & E TIMROD ST,32.216226,-110.858196,,,,,0
14058,,Wilmot/Eli,S WILMOT RD & E ELI ST,32.212195,-110.858209,,,,,0
14067,,Stella/C Polar,E STELLA RD & S C POLAR,32.184628,-110.854065,,,,,0
14077,,Stella/Cmo Seco,E STELLA RD & S STEARN LAKE DR,32.184404,-110.807374,,,,,0
14084,,Escalante/Manitoba,E ESCALANTE RD & S MANITOBA AVE,32.177477,-110.819269,,,,,0
14096,,Escalante/Manitoba,E ESCALANTE RD & S MANITOBA AVE,32.177204,-110.818965,,,,,0
14097,,Escalante/Le Breque,E ESCALANTE RD & S MANITOBA AVE,32.177166,-110.816565,,,,,0
14101,,Stella/Cmo Seco,E STELLA RD & S CMO SECO,32.184483,-110.807437,,,,,0
14112,,Stella/C Polar,E STELLA RD & S C POLAR,32.184753,-110.853512,,,,,0
14115,,Wilmot/Golf Links,S WILMOT RD & E GOLF LINKS RD,32.192685,-110.85775,,,,,0
14116,,Wilmot/C Marte,S WILMOT RD & E C MARTE,32.196184,-110.857795,,,,,0
14117,,Wilmot/C Herculo,S WILMOT RD & E 29TH ST,32.200044,-110.857762,,,,,0
14118,,Wilmot/Bellatrix,S WILMOT RD & E C BELLATRIX,32.203588,-110.857765,,,,,0
14120,,Wilmot/Colgate,S WILMOT RD & E COLGATE DR,32.210979,-110.857819,,,,,0
14124,,Wilmot/Scarlett,S WILMOT RD & E SCARLETT ST,32.217575,-110.857778,,,,,0
14128,,Stella/Mead,E STELLA RD & S MEAD AV,32.184445,-110.820079,,,,,0
14129,,Roger/Park,E ROGER RD & N PARK AV,32.279456,-110.956974,,,,,0
14130,,Roger/1st Av,E ROGER RD & N 1ST AV,32.279421,-110.961328,,,,,0
14136,,Harrison/22nd St,S HARRISON RD & E 22ND ST,32.206557,-110.789654,,,,,0
14137,,Harrison/Thomas,S HARRISON RD & S THOMAS DR,32.195501,-110.78985,,,,,0
14138,,Harrison/Rosewood,N HARRISON RD & E ROSEWOOD ST,32.232146,-110.789696,,,,,0
14143,,Harrison/Broadway,S HARRISON RD & E BROADWAY BLVD,32.220223,-110.789816,,,,,0
14145,,Harrison/29th St,S HARRISON RD & E 29TH ST,32.198779,-110.78979,,,,,0
14155,,Thornydale/Ina Rd,N THORNYDALE RD & W INA RD,32.336829,-111.047084,,,,,0
14156,,Ina/Oracle,W INA RD & N ORACLE RD,32.337293,-110.97787,,,,,0
14179,,Stone/Grant,N STONE AVE & E ALTURAS ST,32.250716,-110.97186,,,,,0
14186,,Sunrise Dr/Campo Abierto,E SUNRISE DR & N CAMPO ABIERTO,32.320256,-110.918833,,,,,0
14189,,Stone/Grant,N STONE AVE & W GRANT RD,32.250096,-110.972014,,,,,0
14196,,Silverbell/St Mary's,N SILVERBELL RD & W SAINT MARYS RD,32.22844,-110.998937,,,,,0
14197,,Congress/Grande,W CONGRESS ST & S GRANDE AVE,32.220001,-110.988227,,,,,0
14198,,Fresno/Cuesta,W FRESNO ST & N CUESTA AV,32.224367,-110.994396,,,,,0
14200,,Downtown Ronstadt Center,W RONSTADT TRANSIT CENTER DR,32.222797,-110.968117,,,,,0
14201,,Downtown Ronstadt Center,W RONSTADT TRANSIT CENTER DR,32.222726,-110.968192,,,,,0
14202,,Downtown Ronstadt Center,W RONSTADT TRANSIT CENTER DR,32.223245,-110.968082,,,,,0
14203,,Downtown Ronstadt Center,W RONSTADT TRANSIT CENTER DR,32.222968,-110.968115,,,,,0
14204,,Downtown Ronstadt Center,W RONSTADT TRANSIT CENTER DR,32.222906,-110.96818,,,,,0
14205,,Downtown Ronstadt Center,W RONSTADT TRANSIT CENTER DR,32.222581,-110.968193,,,,,0
14206,,Downtown Ronstadt Center,W RONSTADT TRANSIT CENTER DR,32.222409,-110.9681,,,,,0
14210,,Downtown Ronstadt Center,W RONSTADT TRANSIT CENTER DR,32.22301,-110.967904,,,,,0
14211,,Downtown Ronstadt Center,W RONSTADT TRANSIT CENTER DR,32.223113,-110.968178,,,,,0
14212,,Downtown Ronstadt Center,W RONSTADT TRANSIT CENTER DR,32.223101,-110.968074,,,,,0
14215,,Flowing Wells/Mohave,N FLOWING WELLS RD & W MOHAVE RD,32.267893,-110.99519,,,,,0
14216,,Downtown Ronstadt Center,W RONSTADT TRANSIT CENTER DR,32.223354,-110.968252,,,,,0
14217,,Downtown Ronstadt Center,W RONSTADT TRANSIT CENTER DR,32.2226,-110.968239,,,,,0
14218,,Laos Transit Center,S ROY LAOS WAY & W PANAMA LN,32.16291,-110.971239,,,,,0
14219,,Laos Transit Center,S ROY LAOS WAY & W PANAMA LN,32.161933,-110.971378,,,,,0
14220,,Laos Transit Center,S ROY LAOS WAY & W RONSTADT TRANSIT CENTER DR,32.162552,-110.971329,,,,,0
14221,,Laos Transit Center,S ROY LAOS WAY & N ORACLE RD,32.162379,-110.971537,,,,,0
14222,,Laos Transit Center,S ROY LAOS WAY & W RONSTADT TRANSIT CENTER DR,32.162545,-110.971553,,,,,0
14223,,Laos Transit Center,S ROY LAOS WAY & W RONSTADT TRANSIT CENTER DR,32.162787,-110.97155,,,,,0
14224,,Laos Transit Center,S ROY LAOS WAY & W RONSTADT TRANSIT CENTER DR,32.162542,-110.971222,,,,,0
14225,,Laos Transit Center,S ROY LAOS WAY & W PANAMA LN,32.162093,-110.971217,,,,,0
14226,,Laos Transit Center,S ROY LAOS WAY & N ORACLE RD,32.162997,-110.971425,,,,,0
14227,,Laos Transit Center,S ROY LAOS WAY,32.162285,-110.971577,,,,,0
14228,,Laos Transit Center,S ROY LAOS WAY,32.162436,-110.971383,,,,,0
14229,,Laos Transit Center,S ROY LAOS WAY & 24 BUS BAY,32.162731,-110.9712,,,,,0
14230,,Laos Transit Center,S ROY LAOS WAY & W PANAMA LN,32.162427,-110.971405,,,,,0
14233,,Tohono Transit Center,N TOHONO TRANSIT CENTER DR & E ADAMS ST,32.288888,-110.968647,,,,,0
14234,,Tohono Transit Center,N TOHONO TRANSIT CENTER DR & E ADAMS ST,32.288619,-110.968608,,,,,0
14235,,Tohono Transit Center,N TOHONO TRANSIT CENTER DR & E ADAMS ST,32.288893,-110.968167,,,,,0
14236,,Tohono Transit Center,N TOHONO TRANSIT CENTER DR & E ADAMS ST,32.288886,-110.968402,,,,,0
14237,,Tohono Transit Center,N TOHONO TRANSIT CENTER DR & W ANKLAM RD,32.288709,-110.968756,,,,,0
14240,,Tohono Transit Center,N TOHONO TRANSIT CENTER DR & W GRANT RD,32.288566,-110.968051,,,,,0
14241,,Tohono Transit Center,N TOHONO TRANSIT CENTER DR & E ADAMS ST,32.288536,-110.968438,,,,,0
14242,,Tohono Transit Center,N TOHONO TRANSIT CENTER DR & E RIVER RD,32.288567,-110.9682,,,,,0
14284,,Golf Links/Wilmot,E GOLF LINKS RD & S WILMOT RD,32.192384,-110.858698,,,,,0
14293,,Irvington/9th Av,W IRVINGTON RD & S 9TH AV,32.163297,-110.972043,,,,,0
14294,,Irvington/Laos Transit Center,W IRVINGTON RD & S ROY LAOS WAY,32.163157,-110.9712,,,,,0
14295,,Park/Irvington,S PARK AVE & E C NEVADA,32.162877,-110.956312,,,,,0
14299,,Bilby/Park Av,E BILBY RD & S JEANETTE BLVD,32.14126,-110.955222,,,,,0
14307,,Craycroft/Broadway,N CRAYCROFT RD & E BROADWAY BLVD,32.221908,-110.875032,,,,,0
14310,,Craycroft/Burns,N CRAYCROFT DR & E BURNS ST,32.225,-110.875211,,,,,0
14311,,Craycroft/Copper,N CRAYCROFT RD & E COPPER ST,32.254667,-110.875156,,,,,0
14312,,Oracle/Magee,N ORACLE RD & W MAGEE RD,32.350899,-110.974952,,,,,0
14313,,Palo Verde/Hemisphere,S PALO VERDE RD & E HEMISPHERE LOOP,32.138877,-110.917816,,,,,0
14315,,Pantano/Broadway,N PANTANO RD & E BROADWAY BLVD,32.221443,-110.823647,,,,,0
14320,,Grant/Campbell@Martin,E GRANT RD & N MARTIN AVE,32.250062,-110.945208,,,,,0
14324,,Campbell Av/Irvington,S CAMPBELL AV & E IRVINGTON RD,32.162774,-110.943472,,,,,0
14328,,31st St/Amalia,E 31ST ST & S AMALIA AV,32.197241,-110.940505,,,,,0
14336,,Broadway/Alvernon,E BROADWAY BLVD & N ALVERNON WAY,32.221743,-110.910219,,,,,0
14344,,29th St/Craycroft,E 29TH ST & S CRAYCROFT RD,32.199744,-110.875426,,,,,0
14345,,Prince/414 E Prince,E PRINCE RD & N GERONIMO AVE,32.271953,-110.96531,,,,,0
14349,,Nebraska/6th Av,W NEBRASKA ST & S 6TH AV,32.156025,-110.968302,,,,,0
14351,,Midvale Park/Bufkin,S MIDVALE PARK RD & S BUFKIN DR,32.140236,-110.99886,,,,,0
14353,,Midvale Park/Walmart,S MIDVALE PARK RD & S COMMERCE CT,32.136941,-110.998805,,,,,0
14354,,Midvale Park/Houchin,S MIDVALE PARK RD & W HOUCHIN WAY,32.144086,-110.998846,,,,,0
14361,,Pantano/Canyon Creek Apts,N PANTANO RD & E 19TH PL,32.224964,-110.823706,,,,,0
14364,,Euclid/9th St,N EUCLID AVE & E 9TH ST,32.223654,-110.959526,,,,,0
14365,,Ina/3220 W Ina Road WB,W INA RD & N SHANNON RD,32.337523,-111.034777,,,,,0
14366,,Oracle/Rudasill,N ORACLE RD & N 6TH AVE,32.316043,-110.976234,,,,,0
14367,,Stella/Manitoba,E STELLA RD & S MANITOBA AV,32.184547,-110.818564,,,,,0
14368,,Euclid/Drachman,N EUCLID AVE & E DRACHMAN ST,32.239787,-110.959426,,,,,0
14369,,36th St/Plumer,E 36TH ST & S PLUMER AV,32.192478,-110.938558,,,,,0
14370,,Park/19th St,S PARK AV & E 19TH ST,32.211181,-110.956162,,,,,0
14372,,Speedway/Rook,E SPEEDWAY BLVD & N ROOK AVE,32.235963,-110.859927,,,,,0
14373,,Palo Verde/Milton,S PALO VERDE RD & E MILTON RD,32.14642,-110.917671,,,,,0
14376,,Prince/541 W Prince,W PRINCE RD & N ORACLE RD,32.271836,-110.981232,,,,,0
14377,,Valle del Oro Rd/El Conquistador,N VALLE DEL ORO RD & E EL CONQUISTADOR WAY,32.387863,-110.96667,,,,,0
14378,,Drexel/Country Club MHP,E DREXEL RD & UNKNOWN,32.148838,-110.929032,,,,,0
14379,,33rd St/Plumer,E 33RD ST & S PLUMER AVE,32.196281,-110.938802,,,,,0
14380,,Drexel/Tucson,E DREXEL RD & S TUCSON BL,32.148652,-110.934178,,,,,0
14381,,Drexel/Tucson,E DREXEL RD & S TUCSON BL,32.148799,-110.9357,,,,,0
14386,,Speedway/Prudence,E SPEEDWAY BLVD & N PRUDENCE RD,32.235729,-110.83146,,,,,0
14387,,Benson Hy/3562 E Benson,E BENSON HWY & E DREXEL RD,32.150565,-110.915467,,,,,0
14388,,Valencia/Alvernon,E VALENCIA RD & S ALVERNON WAY,32.134415,-110.906901,,,,,0
14415,,Country Club/Rickey Vista,S COUNTRY CLUB RD & E RICKEY VISTA,32.18895,-110.926566,,,,,0
14419,,Bombardier/Aeropark Blvd,E AERO PARK PARKING LOOP & S RAYTHEON WAY,32.114012,-110.953484,,,,,0
14421,,Speedway/Columbus,E SPEEDWAY BL & N COLUMBUS BL,32.236066,-110.900913,,,,,0
14422,,Speedway/Greasewood,W SPEEDWAY BLVD & N GREASEWOOD RD,32.235878,-111.02124,,,,,0
14423,,Alvernon/Antrim Loop,S ALVERNON WAY & S ANTRIM LOOP,32.138204,-110.90924,,,,,0
14424,,Alvernon/White River,S ALVERNON WY & E WHITE RIVER DR,32.142855,-110.909182,,,,,0
14425,,Drexel/Rex Strav,E DREXEL RD & S REX SV,32.14887,-110.907425,,,,,0
14435,,Irvington/Campbell,E IRVINGTON RD & S CAMPBELL AVE,32.163211,-110.942739,,,,,0
14436,,Drexel/Oak Tree,W DREXEL RD & S OAK TREE DR,32.148344,-111.006336,,,,,0
14437,,Drexel/Wood Crest Dr,W DREXEL RD & S WOOD CREST DR,32.148288,-111.000501,,,,,0
14443,,Valencia/Benson Hwy,E VALENCIA RD & E MESQUITE DESERT TRL,32.134526,-110.893063,,,,,0
14444,,Prince/Geronimo,E PRINCE RD & N FONTANA AVE,32.272163,-110.966216,,,,,0
14452,,Broadway/Pantano,E BROADWAY BLVD & S PANTANO RD,32.220836,-110.823389,,,,,0
14455,,Pantano/Golf Links,S PANTANO RD & E GOLF LINKS RD,32.192446,-110.823766,,,,,0
14456,,Pantano/Golf Links,S PANTANO RD & E GOLF LINKS RD,32.191523,-110.824057,,,,,0
14457,,St Mary's/Melrose Av,W SAINT MARYS RD & N MELROSE AVE,32.229446,-110.9924,,,,,0
14482,,Speedway/Palo Verde,E SPEEDWAY BLVD & N PALO VERDE BLVD,32.236276,-110.917831,,,,,0
14483,,River/La Canada,W RIVER RD & N LA CANADA DR,32.297305,-110.9947,,,,,0
14484,,La Canada/River Rd,N LA CANADA DR & W RIVER RD,32.29713,-110.995352,,,,,0
14486,,Wetmore/Romero,W WETMORE RD & N ROMERO RD,32.286945,-111.003877,,,,,0
14490,,3rd Av/29th St,S 3RD AVE & E 29TH ST,32.199779,-110.963872,,,,,0
14491,,Sunrise Dr/Hacienda Del Sol,E SUNRISE DR & N HACIENDA DEL SOL RD,32.308728,-110.907818,,,,,0
14493,,Wilmot/David Dr,S WILMOT RD & E DAVID DR,32.187184,-110.857822,,,,,0
14494,,Stone/River,N STONE AVE & E RIVER RD,32.29272,-110.970462,,,,,0
14495,,Irvington/Mission,W IRVINGTON RD & S MISSION RD,32.159208,-111.006496,,,,,0
14496,,Campbell Av/Greenlee Rd,N CAMPBELL AVE & E GREENLEE RD,32.270908,-110.943631,,,,,0
14497,,Santa Clara/Drexel,S SANTA CLARA AV & W DREXEL RD,32.148185,-110.981869,,,,,0
14498,,Santa Clara/Drexel,S SANTA CLARA AVE & W DREXEL RD,32.148441,-110.98176,,,,,0
14499,,Tanque Verde/Sabino Canyon,E TANQUE VERDE RD & N CMO VALLE VERDE,32.250594,-110.840501,,,,,0
14501,,Swan/Camp Lowell,N SWAN RD & E CAMP LOWELL DR,32.264982,-110.892504,,,,,0
14503,,Silverbell/Ironwood Hill,N SILVERBELL RD & W IRONWOOD RIDGE DR,32.250127,-111.013352,,,,,0
14505,,Ironwood Hill Dr/Sterling Villa,W IRONCREST DR & W IRONWOOD HILL DR,32.251137,-111.022109,,,,,0
14506,,Silverbell/Speedway,N SILVERBELL RD & W SPEEDWAY BLVD,32.236012,-111.004274,,,,,0
14507,,Silverbell/Albertson,N SILVERBELL RD & W C CAMPANA DE PLA,32.238692,-111.005573,,,,,0
14508,,Silverbell/C Campana de Plata,N SILVERBELL RD & W C CAMPANA DE PLA,32.241074,-111.007099,,,,,0
14511,,Silverbell/Lester,N SILVERBELL RD & W LESTER ST,32.243615,-111.008982,,,,,0
14512,,Silverbell/C Campana de Plata,N SILVERBELL RD & W CALLE CAMPANA DE PLA,32.24078,-111.007278,,,,,0
14513,,Silverbell/Albertson,N SILVERBELL RD & W CALLE CAMPANA DE PLA,32.238246,-111.005642,,,,,0
14516,,Congress/6th Av,E CONGRESS ST & N 6TH AVE,32.222081,-110.968373,,,,,0
14518,,Cmo de Oeste/Los Reales,S CMO DE OESTE & W LOS REALES RD,32.118297,-111.06323,,,,,0
14523,,Golf Links/Harrison,E GOLF LINKS RD & S HARRISON RD,32.191892,-110.790207,,,,,0
14525,,Irvington/Country Club,E IRVINGTON RD & S COUNTRY CLUB RD,32.16331,-110.927301,,,,,0
14526,,Irvington/Treat,E IRVINGTON RD & S TREAT AV,32.163303,-110.930764,,,,,0
14527,,Irvington/Greenway,E IRVINGTON RD & S GREENWAY DR,32.163322,-110.940418,,,,,0
14529,,Irvington/Treat,E IRVINGTON RD & S TREAT AVE,32.163103,-110.930156,,,,,0
14530,,Country Club/Irvington,S COUNTRY CLUB RD & E MISSOURI ST,32.163787,-110.926204,,,,,0
14531,,Harrison/Palm Tree,S HARRISON RD & E PALM TREE DR,32.201682,-110.789712,,,,,0
14533,,22nd St/Harrison,E 22ND ST & S HARRISON RD,32.206469,-110.790115,,,,,0
14534,,22nd St/Brown,E 22ND ST & E C MARIA,32.206388,-110.795301,,,,,0
14535,,22nd St/Oak Park,E 22ND ST & N C DON JUAN,32.206449,-110.800083,,,,,0
14536,,22nd St/Cmo Seco,E 22ND ST & S CMO SECO,32.206513,-110.80721,,,,,0
14537,,22nd St/Cmo Seco,E 22ND ST & N CMO SECO,32.206231,-110.806376,,,,,0
14538,,22nd St/Oak Park,E 22ND ST & S OAK PARK DR,32.206262,-110.799492,,,,,0
14539,,22nd St/Brown,E 22ND ST & S BROWN AVE,32.206253,-110.794792,,,,,0
14540,,Harrison/22nd St,S HARRISON RD & E 22ND ST,32.205892,-110.789867,,,,,0
14541,,Harrison/Pikes Peak,S HARRISON RD & E PIKES PEAK DR,32.203496,-110.789786,,,,,0
14542,,Harrison/Palm Tree,S HARRISON RD & E PALM TREE DR,32.201147,-110.789787,,,,,0
14544,,Broadway/Sarnoff,E BROADWAY BLVD & N SARNOFF DR,32.220833,-110.816851,,,,,0
14545,,Broadway/Old Spanish Trail,E BROADWAY BLVD,32.220776,-110.811948,,,,,0
14546,,Broadway/Cmo Seco,E BROADWAY BLVD & N CMO SECO,32.220792,-110.8065,,,,,0
14550,,Harrison/Broadway,N HARRISON RD & E BROADWAY BL,32.221156,-110.789623,,,,,0
14551,,Harrison/Harrison Park Apts,N HARRISON RD & E GOLDEN WEST ST,32.225211,-110.789704,,,,,0
14552,,Harrison/5th St,N HARRISON RD & E 5TH ST,32.228449,-110.789686,,,,,0
14553,,Harrison/Rosewood,N HARRISON RD & E ROSEWOOD ST,32.231555,-110.789777,,,,,0
14554,,Harrison/Harrison Park Apts,N HARRISON RD & E SHILOH ST,32.224942,-110.789792,,,,,0
14555,,Broadway/Harrison,E BROADWAY BLVD & N HARRISON RD,32.220975,-110.790725,,,,,0
14558,,Broadway/Cmo Seco,E BROADWAY BL & N CAMINO SECO,32.22102,-110.807134,,,,,0
14559,,Broadway/Old Spanish Trail,E BROADWAY BLVD & N CMO SECO,32.221103,-110.811421,,,,,0
14560,,Flowing Wells/Delano,N FLOWING WELLS RD & W DELANO DR,32.264068,-110.994859,,,,,0
14563,,Flowing Wells/Roger,N FLOWING WELLS RD & W ROGER RD,32.279126,-110.994881,,,,,0
14565,,Flowing Wells/Talisman,N FLOWING WELLS RD & W TALISMAN ST,32.28415,-110.994933,,,,,0
14567,,Flowing Wells/Wabash,N FLOWING WELLS RD & W WABASH ST,32.291019,-110.994941,,,,,0
14568,,La Canada/Edgewater,N LA CANADA DR & W EDGEWATER DR,32.295739,-110.995064,,,,,0
14569,,River/Hansen,W RIVER RD & N HANSEN AV,32.297464,-110.990449,,,,,0
14570,,River/Oracle,W RIVER RD & N OLD ORACLE RD,32.297458,-110.978902,,,,,0
14571,,River/Hansen,W RIVER RD & N HANSEN AV,32.297626,-110.990447,,,,,0
14572,,La Canada/Edgewater,N LA CANADA DR & W EDGEWATER DR,32.295794,-110.995244,,,,,0
14573,,Flowing Wells/Wabash,N FLOWING WELLS RD & W WABASH ST,32.290582,-110.995178,,,,,0
14574,,Flowing Wells/Wetmore,N FLOWING WELLS RD & W WETMORE RD,32.286325,-110.995145,,,,,0
14575,,Flowing Wells/Talisman,N FLOWING WELLS RD & W TALISMAN ST,32.283718,-110.995107,,,,,0
14576,,Pantano/Escalante,S PANTANO RD & E ESCALANTE RD,32.177709,-110.823687,,,,,0
14577,,Pantano/Victoria,S PANTANO RD & E VICTORIA DR,32.180545,-110.82366,,,,,0
14579,,Pantano/Stella,S PANTANO RD & E SHIMMERING WAY,32.184906,-110.823677,,,,,0
14580,,Pantano/Lurlene,S PANTANO RD & E LURLENE DR,32.188517,-110.823702,,,,,0
14584,,Pantano/Lurlene,S PANTANO RD & E LURLENE DR,32.188059,-110.824029,,,,,0
14585,,Pantano/Stella,S PANTANO RD & E STELLA RD,32.184208,-110.823984,,,,,0
14587,,Pantano/Victoria,S PANTANO RD & E VICTORIA DR,32.180006,-110.824001,,,,,0
14588,,Grant/Silverbell,W GRANT RD & N SILVERBELL RD,32.250814,-111.012287,,,,,0
14590,,Ironwood Hill Dr/Palo Santo,W IRONWOOD HILL DR & N PALO SANTO DR,32.250789,-111.0184,,,,,0
14591,,Ironwood Hill Dr/Palo Santo,W IRONWOOD HILL DR & N PALO SANTO DR,32.250646,-111.018086,,,,,0
14595,,C Torim/Cmo Tetaviecti,W CALLE TORIM & S CAMINO BENEM,32.111715,-111.06843,,,,,0
14597,,Cmo Benem/C Tetakusim,S CAMINO BENEM & W CALLE TETAKUSIM,32.115254,-111.068872,,,,,0
14598,,Cmo Benem/C Vicam,S CAMINO BENEM & W LOS REALES RD,32.11652,-111.06887,,,,,0
14599,,Los Reales/Cmo Tetaviecti,W LOS REALES RD & S CAMINO TETAVIECTI,32.118852,-111.067568,,,,,0
14600,,Los Reales/Cmo Rahum,W LOS REALES RD & S CAMINO RAHUM,32.118863,-111.065278,,,,,0
14603,,Swan/Ft. Lowell,N SWAN RD & E FORT LOWELL RD,32.261752,-110.892348,,,,,0
14605,,Camp Lowell/Swan,E CAMP LOWELL DR & N SWAN RD,32.265384,-110.893776,,,,,0
14606,,Golf Links/Jaguar,E GOLF LINKS RD & S SARNOFF DR,32.192082,-110.813955,,,,,0
14607,,Camp Lowell/Laurel,E FORT LOWELL RD & N LAUREL AVE,32.265135,-110.897035,,,,,0
14609,,Fort Lowell/Columbus,E FORT LOWELL RD & N COLUMBUS BLVD,32.265038,-110.900815,,,,,0
14610,,Camp Lowell/Laurel,E CAMP LOWELL DR & N LAUREL AVE,32.265002,-110.896262,,,,,0
14611,,Palo Verde/44th St,S PALO VERDE RD & E 44TH ST,32.185883,-110.917928,,,,,0
14613,,La Cholla/Ina,N LA CHOLLA BLVD & W INA RD,32.336618,-111.01288,,,,,0
14614,,La Cholla/Labriego,N LA CHOLLA BLVD & W LABRIEGO DR,32.329357,-111.013005,,,,,0
14615,,La Cholla/Labriego,N LA CHOLLA BLVD & W LABRIEGO DR,32.329754,-111.012948,,,,,0
14616,,La Cholla/Curtis,N LA CHOLLA BLVD & W CURTIS RD,32.301121,-111.01213,,,,,0
14617,,La Cholla/Curtis,N LA CHOLLA BLVD & W CURTIS RD,32.30094,-111.01194,,,,,0
14618,,La Cholla/Ruthrauff,N LA CHOLLA BLVD & W RUTHRAUFF RD,32.293657,-111.012148,,,,,0
14620,,La Cholla/Wetmore,N LA CHOLLA BLVD & W WETMORE RD,32.287442,-111.011898,,,,,0
14621,,Golf Links/Cathy,E GOLF LINKS RD & S CATHY AV,32.191901,-110.793906,,,,,0
14624,,Pantano/22nd St,S PANTANO RD & S EASTSIDE LOOP,32.205456,-110.826911,,,,,0
14627,,Pantano/34th St,S PANTANO RD & E 34TH ST,32.193758,-110.823922,,,,,0
14631,,La Cholla/Foothills Mall Dr,N LA CHOLLA BLVD & W ZARRAGOZA DR,32.343308,-111.012926,,,,,0
14633,,Silverlake/Mission,W SILVERLAKE RD & S MISSION RD,32.199313,-110.99567,,,,,0
14688,,Wilmot/Pima,N WILMOT RD & E PIMA ST,32.243694,-110.858015,,,,,0
14689,,Wilmot/Sunny Dr,N WILMOT RD & E GRANT RD,32.247301,-110.8579,,,,,0
14692,,Drexel/Wood Crest Dr,W DREXEL RD & S WOOD CREST DR,32.148434,-111.00115,,,,,0
14693,,Drexel/Oak Tree,W DREXEL RD & S PIN OAK DR,32.148462,-111.005923,,,,,0
14694,,Irvington/Benson Hwy,E IRVINGTON RD & E BENSON HY,32.163152,-110.935135,,,,,0
14696,,Country Club/Pennsylvania,S COUNTRY CLUB RD & E PENNSYLVANIA ST,32.17185,-110.926443,,,,,0
14697,,Irvington/Benson Hwy,E IRVINGTON RD & E BENSON HWY,32.163321,-110.935492,,,,,0
14698,,Harrison/Harrison Circle,S HARRISON RD & E 32ND ST,32.196804,-110.789739,,,,,0
14699,,Cmo Benem/Liogue Senior Center,S CAMINO BENEM & W CALLE TORIM,32.113442,-111.068891,,,,,0
14700,,Magee/Northern,W MAGEE RD & N NORTHERN AVE,32.351887,-110.979198,,,,,0
14702,,Magee/La Oesta Av,W MAGEE RD & N LA OESTA AV,32.351875,-110.987368,,,,,0
14704,,Magee/La Canada,W MAGEE RD & N LA CANADA DR,32.351888,-110.996234,,,,,0
14711,,Magee/La Oesta Av,W MAGEE RD & N PASEO DEL NORTE,32.351718,-110.986867,,,,,0
14713,,Magee/Northern,W MAGEE RD & N NORTHERN AVE,32.351791,-110.978105,,,,,0
14714,,Swan/Camp Lowell,N SWAN RD & E CAMP LOWELL DR,32.265638,-110.89219,,,,,0
14715,,Golf Links/Cathy,E GOLF LINKS RD & S CATHY AVE,32.191645,-110.793916,,,,,0
14716,,La Cholla/Hospital Dr.,N LA CHOLLA BLVD & W HOSPITAL DR,32.319657,-111.01211,,,,,0
14717,,La Cholla/Hospital Dr.,N LA CHOLLA BLVD & W HOSPITAL DR,32.319062,-111.012169,,,,,0
14718,,Irvington/Midvale Park,W IRVINGTON RD & S MIDVALE PARK RD,32.160279,-111.001811,,,,,0
14719,,Irvington/Midvale Park,W IRVINGTON RD & S MIDVALE PARK RD,32.16051,-111.000867,,,,,0
14726,,Euclid/12th St,S EUCLID AVE & E 18TH ST,32.219387,-110.959293,,,,,0
14727,,32nd St/Dodge,E 32ND ST & S DODGE BLVD,32.199276,-110.913529,,,,,0
14729,,Carondolet/San Rafael MC,E CARONDELET DR & SAN RAFAEL MC,32.225571,-110.854154,,,,,0
14730,,Carondolet/Professional Office,E CARONDELET DR & N LA CHOLLA BLVD,32.225557,-110.851063,,,,,0
14731,,Jessica/CasCades Apt,N JESSICA AVE & E BROADWAY BLVD,32.223444,-110.847537,,,,,0
14733,,Pantano/2121 S Pantano,S PANTANO RD & E ARIZONA,32.196976,-110.823878,,,,,0
14735,,Drexel/12th Av,W DREXEL RD & S 12TH AVE,32.148711,-110.977892,,,,,0
14736,,Swan/29th St,S SWAN RD & E 29TH ST,32.200048,-110.89218,,,,,0
14737,,Irvington/C Santa Cruz,W IRVINGTON RD & S MIDVALE PARK RD,32.163283,-110.9903,,,,,0
14738,,Irvington/C Santa Cruz,W IRVINGTON RD & S MIDVALE PARK RD,32.163127,-110.989962,,,,,0
14739,,32nd St/Winstel,E 32ND ST & S WINSTEL AV,32.19941,-110.910801,,,,,0
14740,,32nd St/Winstel,E 32ND ST & S WINSTEL AVE,32.199323,-110.910272,,,,,0
14741,,Pantano/2121 S Pantano,S PANTANO RD & E ARIZONA,32.196709,-110.82402,,,,,0
14747,,La Cholla/Omar,N LA CHOLLA BL & W OMAR DR,32.333076,-111.01292,,,,,0
14748,,La Cholla/Jay Av,N LA CHOLLA BLVD & N JAY AVE,32.297686,-111.012157,,,,,0
14749,,La Cholla/Jay Av,N LA CHOLLA BLVD & N JAY AVE,32.297837,-111.011963,,,,,0
14750,,La Cholla/River Rd,N LA CHOLLA BLVD & W RIVER RD,32.30484,-111.012092,,,,,0
14751,,Wetmore/Record Pl,W WETMORE RD & N RECORD PL,32.286925,-111.006138,,,,,0
14752,,La Cholla/River Rd,N LA CHOLLA BLVD & W RIVER RD,32.30548,-111.012044,,,,,0
14753,,La Cholla/Omar,N LA CHOLLA BLVD & W OMAR DR,32.33246,-111.013018,,,,,0
14754,,Tohono Transit Center,N TOHONO TRANSIT CENTER DR & E ADAMS ST,32.288792,-110.968915,,,,,0
14755,,Laos Transit Center,S ROY LAOS WAY,32.162015,-110.971527,,,,,0
14756,,Tohono Transit Center,N TOHONO TRANSIT CENTER DR & E ADAMS ST,32.288883,-110.967996,,,,,0
14757,,Magee/Oracle,W MAGEE RD & N NORTHERN AVE,32.351864,-110.975279,,,,,0
14758,,Greasewood/Anklam,N GREASEWOOD RD & W ANKLAM RD,32.226321,-111.020344,,,,,0
14760,,Speedway/El Dorado,E SPEEDWAY BLVD & N EL DORADO PL,32.235736,-110.855937,,,,,0
14761,,Toole/7th Av,E TOOLE AVE & E COUNCIL ST,32.225663,-110.970401,,,,,0
14780,,La Cholla/OracleJaynesStation,N LA CHOLLA BLVD & N FOUNTAINS AVE,32.312508,-111.012075,,,,,0
14781,,La Cholla/OracleJaynesStation,N LA CHOLLA BLVD & W ORACLE JAYNES STATION RD,32.311962,-111.012166,,,,,0
14782,,Wetmore/Frey Av,W WETMORE RD & W SCHAFER ST,32.286791,-111.007176,,,,,0
14783,,La Cholla/Wetmore,N LA CHOLLA BL & W WETMORE RD,32.287255,-111.012036,,,,,0
14784,,Glenn/Swan,E GLENN ST & N VENICE AVE,32.257941,-110.89325,,,,,0
14785,,Tanque Verde/Pso Rancho Esperanza,E TANQUE VERDE RD & N AVE VALIENTE,32.250578,-110.835269,,,,,0
14786,,Tanque Verde/Pso Rancho Esperanza,E TANQUE VERDE RD & N PASEO RANCHO ESPERAN,32.25095,-110.835338,,,,,0
14787,,Pima/Wilmot,E PIMA ST & N WILMOT RD,32.243422,-110.858594,,,,,0
14788,,Magee/La Cholla,W MAGEE RD & N LA CHOLLA BLVD,32.347113,-111.014195,,,,,0
14794,,Grant/IHOP (1500 W Grant),W GRANT RD & N DRAGOON ST,32.25057,-110.998776,,,,,0
14796,,Church/Ochoa,S CHURCH AVE & W OCHOA ST,32.219827,-110.972603,,,,,0
14797,,Church/Ochoa,S CHURCH AVE & W OCHOA ST,32.219744,-110.972391,,,,,0
14799,,La Cholla/Rudasill,N LA CHOLLA BLVD & W RUDASILL RD,32.316004,-111.012113,,,,,0
14800,,La Cholla/Rudasill,N LA CHOLLA BLVD & W RUDASILL RD,32.315373,-111.012172,,,,,0
14802,,Benson Hy/Hartford Strav,E BENSON HY & E HARTFORD SV,32.144719,-110.90575,,,,,0
14803,,Alvernon/Benson Hwy,S ALVERNON WAY & E BENSON HWY,32.146406,-110.909363,,,,,0
14804,,Alvernon/White River,S ALVERNON WAY & E WHITE RIVER DR,32.141554,-110.909519,,,,,0
14805,,Alvernon/Transcon Wy,S ALVERNON WAY & E TRANSCON WAY,32.137238,-110.909625,,,,,0
14806,,Silverbell/Introspect Dr,N SILVERBELL RD & W SILVERBELL TREE DR,32.261304,-111.01995,,,,,0
14807,,Masterson/Drexel,S MASTERSON AV & E DREXEL RD,32.149149,-110.921963,,,,,0
14808,,Silverbell/Grant,N SILVERBELL RD & W GRANT RD,32.251144,-111.01364,,,,,0
14810,,Silverbell/Frostwood Pl,N SILVERBELL RD & W FROSTWOOD LN,32.255478,-111.016362,,,,,0
14811,,Silverbell/Silver Arrow Dr,N SILVERBELL RD & N XOCHIPILLI DR,32.2599,-111.018914,,,,,0
14813,,Silverbell/Frostwood Pl,N SILVERBELL RD & W FROSTWOOD LN,32.25556,-111.016489,,,,,0
14816,,River/15th Av,W RIVER RD & N 15TH AV,32.29763,-110.983157,,,,,0
14817,,River/15th Av,W RIVER RD & N 15TH AV,32.297453,-110.982326,,,,,0
14819,,Liberty/Nebraska,S LIBERTY AVE & W NEBRASKA ST,32.156172,-110.97328,,,,,0
14820,,La Cholla/Brittain,N LA CHOLLA BLVD & W BRITTAIN DR,32.291852,-111.011922,,,,,0
14821,,La Cholla/Brittain,N LA CHOLLA BLVD & W BRITTAIN DR,32.291289,-111.01211,,,,,0
14822,,Stella/Mann,E STELLA RD & S MANN AVE,32.18472,-110.849843,,,,,0
14823,,Liberty/Irvington,S LIBERTY AVE & W IRVINGTON RD,32.162953,-110.973202,,,,,0
14824,,Liberty/Wyoming,S LIBERTY AV & W WYOMING ST,32.159627,-110.97313,,,,,0
14825,,Swan/River Road,N SWAN RD & E RIVER RD,32.279065,-110.89273,,,,,0
14826,,Swan/River Road,N SWAN RD & E SUNRISE DR,32.279538,-110.892468,,,,,0
14827,,Kolb/Timrod,S KOLB RD & E TIMROD ST,32.215517,-110.841052,,,,,0
14828,,Kolb/Timrod,S KOLB RD & E TIMROD ST,32.215876,-110.840813,,,,,0
14829,,Shannon/Ina,N SHANNON RD & W INA RD,32.337865,-111.029441,,,,,0
14830,,Shannon/Pima College Northwest,N SHANNON RD & W CAMPUS PARK WAY,32.344751,-111.028846,,,,,0
14831,,Shannon/YMCA,N SHANNON RD & W CAMPUS PARK WAY,32.346474,-111.026216,,,,,0
14832,,12th Av/Marcus,S 12TH AVE & W MARCUS DR,32.122544,-110.977486,,,,,0
14833,,12th Av/C Rita,S 12TH AVE & W DOCE PL,32.127751,-110.97781,,,,,0
14835,,Kolb/Sylvane,S KOLB RD & E SYLVANE DR,32.201772,-110.840844,,,,,0
14837,,Craycroft/AF Base Gate,N DAVIS MONTHAN DR & S CRAYCROFT RD,32.191203,-110.875329,,,,,0
14838,,Harrison/Deer Trail,S HARRISON RD & E DEER TRL,32.197701,-110.789775,,,,,0
14839,,Harrison/Topout Peak,S HARRISON RD & E TOPOUT PEAK PL,32.204888,-110.7897,,,,,0
14841,,Oracle/Honeywell,N ORACLE PARK N RIDE DR,32.40678,-110.944957,,,,,0
14842,,30th St/Craycroft,E 30TH ST & S CRAYCROFT RD,32.198717,-110.874661,,,,,0
14843,,Oracle/Plata,N ORACLE RD & W PLATA ST,32.244723,-110.977818,,,,,0
14846,,UA Technology Park,UNNAMED,32.090865,-110.80829,,,,,0
14847,,Houghton/Rita,S HOUGHTON RD & E RITA RD,32.103046,-110.772636,,,,,0
14849,,34th St/Layton,E 34TH ST & LAYTON,32.194056,-110.918424,,,,,0
14851,,34th St/34th Pl,E 34TH ST & S 34TH PL,32.194092,-110.913179,,,,,0
14853,,Winstel/33rd St,S WINSTEL AV & E 33RD ST,32.196491,-110.910464,,,,,0
14855,,Speedway/Falcon Ridge Dr.,W SPEEDWAY BLVD & UNNAMED,32.236067,-111.015469,,,,,0
14856,,Speedway/Falcon Ridge Dr.,W SPEEDWAY BLVD & N FALCON RIDGE DR,32.235865,-111.015479,,,,,0
14861,,La Cholla/Foothills Mall Dr,N LA CHOLLA BLVD & W ZARRAGOZA DR,32.344185,-111.012574,,,,,0
14862,,12th Av/Leary Dr,S 12TH AVE & W ELVIRA RD,32.126088,-110.977509,,,,,0
14864,,Park/22nd St,S PARK AV & E 22ND ST,32.207152,-110.956123,,,,,0
14865,,Valencia/Columbus,E VALENCIA RD & S COLUMBUS BLVD,32.134449,-110.901424,,,,,0
14866,,Harrison/Sierra,N HARRISON RD & E VIA DEL SOL CALIENTE,32.234192,-110.789914,,,,,0
14867,,Park/18th St,S PARK AVE & E 19TH ST,32.211296,-110.956428,,,,,0
14868,,River/Hillcrest Dr.,E RIVER RD & N HILLCREST DR,32.29631,-110.966466,,,,,0
14869,,River/Hillcrest Dr.,E RIVER RD & N HILLCREST DR,32.296063,-110.96599,,,,,0
14870,,Tetakusim Rd/Gila Ave,W TETAKUSIM RD & S GILA AVE,32.115548,-111.049469,,,,,0
14871,,10th Av/37th St,S 10TH AVE & W 37TH ST,32.191091,-110.974629,,,,,0
14872,,10th Av/34th St,S 10TH AVE & W 34TH ST,32.194121,-110.974662,,,,,0
14873,,Craycroft/3rd St,N CRAYCROFT RD & E 3RD ST,32.231741,-110.875563,,,,,0
14874,,Flowing Wells/Schafer,N FLOWING WELLS RD & W WETMORE RD,32.287394,-110.995006,,,,,0
14875,,Pima/Alamo,E PIMA ST & N ALAMO AVE,32.243448,-110.862103,,,,,0
14876,,10th Av/20th St,S 10TH AVE & W 20TH ST,32.209145,-110.974576,,,,,0
14877,,Ruthrauff/Shamrock,W RUTHRAUFF RD & N SHAMROCK PL,32.294108,-111.006502,,,,,0
14878,,Ruthrauff/Laird Wy,W RUTHRAUFF RD & W SCOTS PINE ST,32.291904,-111.003797,,,,,0
14879,,Wetmore/Iroquois,W WETMORE RD & N IROQUOIS AVE,32.286888,-110.998304,,,,,0
14880,,Prince/Pomona,W PRINCE RD & N POMONA RD,32.272284,-110.99912,,,,,0
14881,,Ruthrauff/Romero,W RUTHRAUFF RD & N ROMERO RD,32.28856,-111.002695,,,,,0
14882,,Ruthrauff/Seabrooke,W RUTHRAUFF RD & W SEABROOKE DR,32.292153,-111.00383,,,,,0
14883,,Ruthrauff/Shamrock,W RUTHRAUFF RD & N SHAMROCK PL,32.294237,-111.006895,,,,,0
14884,,Ruthrauff/Romero,W RUTHRAUFF RD & N ROMERO RD,32.287927,-111.002311,,,,,0
14885,,Pima/Palo Verde,E PIMA ST & N PALO VERDE BL,32.243267,-110.918039,,,,,0
14886,,Pantano/Seneca,N PANTANO RD & E SENECA ST,32.247026,-110.823737,,,,,0
14887,,Pantano/Poinciana,S PANTANO RD & E POINCIANA DR,32.167638,-110.82403,,,,,0
14889,,Grant/Chrysler,E GRANT RD & N CHRYSLER DR,32.250613,-110.91539,,,,,0
14890,,Irvington/C Ole,E IRVINGTON RD & S C OLE,32.163369,-110.948664,,,,,0
14891,,Sabino Canyon/Vactor Ranch,N SABINO CANYON RD & E ARROWHEAD DR,32.259026,-110.841031,,,,,0
14892,,Fort Lowell/Vine,E FORT LOWELL RD & N VINE AVE,32.264869,-110.949874,,,,,0
14897,,Pantano/Constant,S PANTANO RD & E CONSTANT PL,32.164488,-110.824023,,,,,0
14898,,Pantano/Constant,S PANTANO RD & E CONSTANT PL,32.164878,-110.823762,,,,,0
14899,,Miracle Mile/800 Block,W MIRACLE MILE & N 15TH AVE,32.261096,-110.983847,,,,,0
14900,,Congress/Central,W CONGRESS ST & S FREEWAY,32.220902,-110.978608,,,,,0
14901,,Via Ponte/Ina,N VIA PONTE & W INA RD,32.336828,-110.979391,,,,,0
14902,,12th Av/Jetty Av,S 12TH AVE & S JETTY AVE,32.183068,-110.977744,,,,,0
14903,,Aero Park Bl/Flight Safety,E AERO PARK BLVD,32.110931,-110.956954,,,,,0
14904,,Fort Lowell/Cherry,E FORT LOWELL RD & N CHERRY AVE,32.264676,-110.948272,,,,,0
14905,,Nexus/LaPalma Dr,S NEXUS RD & E LA PALMA DR,32.116974,-110.797309,,,,,0
14906,,Valencia/Headley,W VALENCIA RD & S HEADLEY RD,32.133944,-111.008121,,,,,0
14908,,Pantano/PantanoPkwy,S PANTANO RD & PANTANO PKWY,32.20867,-110.823879,,,,,0
14909,,Fort Lowell/Navajo,E FORT LOWELL RD & E NAVAJO RD,32.26487,-110.954525,,,,,0
14913,,Kino Pw/Silverlake,S KINO PW & E SILVERLAKE RD,32.200165,-110.949352,,,,,0
14914,,Grant/1st Av,E GRANT RD & N 1ST AVE,32.250248,-110.960026,,,,,0
14917,,Arizona Pavilions/Cortaro Road,N CORTARO RD & N COURTNEY PAGE WAY,32.353352,-111.092355,,,,,0
14918,,C Concordia/Shadow Mountain Dr,W C CONCORDIA & E C CONCORDIA,32.373521,-110.970105,,,,,0
14919,,Midvale Park/Denning,S MIDVALE PARK RD & W THORNE ST,32.146538,-110.998636,,,,,0
14920,,Pantano/S Eastside Loop,S PANTANO RD & S EASTSIDE LOOP,32.202701,-110.826755,,,,,0
14921,,Pantano/S Eastside Loop,S PANTANO RD & S EASTSIDE LOOP,32.202268,-110.826639,,,,,0
14923,,Escalante/Av de las Palmas,E ESCALANTE RD & S AVE DE LAS PALMA,32.177454,-110.810808,,,,,0
14924,,Escalante/Av de las Palmas,E ESCALANTE RD & S AVE DE LAS PALMA,32.177174,-110.810588,,,,,0
14925,,Stone/Dorothy,N STONE AVE & E DOROTHY LN,32.284801,-110.969504,,,,,0
14926,,Alvernon/Fort Lowell,N ALVERNON WAY & E FORT LOWELL RD,32.265339,-110.909754,,,,,0
14927,,Alvernon/Kleindale,N ALVERNON WAY,32.269081,-110.9098,,,,,0
14928,,Alvernon/Kleindale,N ALVERNON WAY,32.269081,-110.909864,,,,,0
14929,,Alvernon/Hardy,N ALVERNON WAY,32.267278,-110.909872,,,,,0
14930,,Alvernon/Fort Lowell,N ALVERNON WAY & E PRESIDIO RD,32.264883,-110.909929,,,,,0
14931,,Benson Hy/Columbus Blvd,E BENSON HWY & E PRISER LOOP,32.142022,-110.901576,,,,,0
14932,,Pantano/Rosewood,N PANTANO RD & E ROSEWOOD ST,32.232473,-110.823744,,,,,0
14933,,Fort Lowell/Av Laurel Real,E FORT LOWELL RD & N AVE LAUREL REAL,32.265068,-110.90455,,,,,0
14934,,Broadway/Gollob,E BROADWAY BLVD & N GOLLOB RD,32.220705,-110.798065,,,,,0
14935,,Broadway/Gollob,E BROADWAY BLVD & N GOLLOB RD,32.220975,-110.798168,,,,,0
14936,,Broadway/Rayburn,E BROADWAY BLVD & N RAYBURN PL,32.220934,-110.802934,,,,,0
14937,,Broadway/Rayburn,E BROADWAY BLVD & N RAYBURN PL,32.220772,-110.802947,,,,,0
14938,,Broadway/Elster,E BROADWAY BLVD & N ELSTER DR,32.220755,-110.793329,,,,,0
14939,,Broadway/Dixie,E BROADWAY BLVD & N DIXIE AVE,32.220907,-110.79434,,,,,0
14940,,Pantano/Villa Rica,N PANTANO RD & E C VILLA RICA,32.239265,-110.823762,,,,,0
14941,,Tanque Verde/6390 E Tanque Verde,E TANQUE VERDE RD & E TANQUE VERDE RD,32.243743,-110.856456,,,,,0
14942,,Drexel/Ray Strav,E DREXEL RD & S BRYANT AVE,32.148831,-110.903731,,,,,0
14943,,Valencia/Swan,E VALENCIA RD & E BENSON HWY,32.134274,-110.891496,,,,,0
14944,,Craycroft/Fairmount,N CRAYCROFT RD & E FAIRMOUNT ST,32.239602,-110.875593,,,,,0
14945,,Stone/Alameda,N STONE AVE & W ALAMEDA ST,32.223932,-110.971606,,,,,0
14949,,Valencia/Oak Tree,W VALENCIA RD & S OAK TREE RD,32.133906,-111.003755,,,,,0
14950,,Valencia/Sandpiper,W VALENCIA RD & S SANDPIPER AVE,32.133752,-111.008975,,,,,0
14951,,4th Av/25th St,S 4TH AVE & E 25TH ST,32.203505,-110.965449,,,,,0
14952,,12th Av/C Alvord,S 12TH AVE & W C ALVORD,32.144797,-110.977661,,,,,0
14953,,Country Club/46th St,S COUNTRY CLUB RD & E 46TH ST,32.181551,-110.926388,,,,,0
14954,,Country Club/44th St,S COUNTRY CLUB RD & E 44TH ST,32.184504,-110.926422,,,,,0
14955,,Country Club/Kaibab Vista,S COUNTRY CLUB RD & E COCONINO VISTA,32.187169,-110.926437,,,,,0
14957,,Country Club/Kaibab Vista,S COUNTRY CLUB RD & E COCONINO VISTA,32.187062,-110.926502,,,,,0
14958,,Country Club/44th St,S COUNTRY CLUB RD & E 44TH ST,32.184397,-110.926487,,,,,0
14959,,Country Club/46th St,S COUNTRY CLUB RD & E 46TH ST,32.181444,-110.926453,,,,,0
14961,,Escalante/Le Beaux,E ESCALANTE RD & S LE BRECQUE PL,32.177418,-110.81521,,,,,0
14962,,Stone/Lester,N STONE AVE & E LESTER ST,32.244237,-110.971773,,,,,0
14963,,Glenn/C de Romy,E GLENN ST & N C DE ROMY,32.257799,-110.905648,,,,,0
14964,,Shannon/Master Pieces Dr,N SHANNON RD & W SANDBROOK LN,32.312812,-111.028687,,,,,0
14965,,Orange Grove/Cmo de la Tierra,W ORANGE GROVE RD & N CMO DE LA TIERRA,32.32335,-111.03768,,,,,0
14977,,6th St/Fremont,E 6TH ST & N PARK AVE,32.227635,-110.955288,,,,,0
14981,,La Canada/Magee,N LA CANADA DR & W MAGEE RD,32.351194,-110.995761,,,,,0
14983,,Orange Grove/Thornydale,W ORANGE GROVE RD & N THORNYDALE RD,32.323136,-111.043865,,,,,0
14984,,Thornydale/Horizon Hills Dr,N THORNYDALE RD & W HORIZON HILLS DR,32.330688,-111.046048,,,,,0
14985,,Orange Grove/Cmo de la Tierra,W ORANGE GROVE RD & N CMO DE LA TIERRA,32.323085,-111.037032,,,,,0
14988,,La Canada/Magee,N LA CANADA DR & W COOL DR,32.352251,-110.995567,,,,,0
14989,,Valle del Oro Rd/El Conquistador,N VALLE DEL ORO RD & E EL CONQUISTADOR WAY,32.387933,-110.966498,,,,,0
14991,,Innovation Mrkt Dr/Tangerine Rd,N INNOVATION MARKET DR,32.422988,-110.940692,,,,,0
14993,,Prince/Santa Rita,E PRINCE RD,32.272212,-110.953653,,,,,0
14994,,Campbell Av/Valencia,S CAMPBELL AVE & E VALENCIA RD,32.134608,-110.943354,,,,,0
14995,,Valencia/Campbell,E VALENCIA RD & S CAMPBELL AVE,32.133976,-110.942913,,,,,0
14996,,Littletown/Empire Vista,E LITTLETOWN RD & S EMPIRE VISTA DR,32.13423,-110.881004,,,,,0
14997,,Speedway/Electra,E SPEEDWAY BLVD & N KEESAL AVE,32.235607,-110.812073,,,,,0
14999,,Prince/680 W Prince,W PRINCE RD & N FAIRVIEW AVE,32.272075,-110.983497,,,,,0
15000,,Swan/17th St,S SWAN RD & E 17TH ST,32.213351,-110.892393,,,,,0
15001,,Swan/19th St,S SWAN RD & E 19TH ST,32.21013,-110.892416,,,,,0
15002,,Swan/Glenn,N SWAN RD & E GLENN ST,32.258257,-110.892428,,,,,0
15003,,Goret/Dales Crossing,W GORET RD & N DALES CROSSING DR,32.263556,-111.018848,,,,,0
15005,,Cardinal/Pajarito,S CARDINAL AVE & W C PAJARITO,32.127696,-111.02903,,,,,0
15006,,Komelic/Pantak,S KOMELIC DR & E LOS REALES RD,32.118396,-110.962965,,,,,0
15007,,Territory Dr/Kolb,E TERRITORY DR & N GRANADA AVE,32.305835,-110.844969,,,,,0
15008,,Skyline/Campbell,E SKYLINE DR,32.322574,-110.927948,,,,,0
15009,,Country Club/Michigan,S COUNTRY CLUB RD & E MICHIGAN ST,32.170092,-110.926323,,,,,0
15010,,Skyline/Campbell,E SKYLINE DR & E C CIPRES,32.322822,-110.93007,,,,,0
15011,,Swan/Fairmount,N SWAN RD & E FAIRMOUNT ST,32.240038,-110.892739,,,,,0
15013,,Swan/Sunrise Dr,N SWAN RD & E SUNRISE DR,32.307774,-110.892702,,,,,0
15014,,Cortaro Rd/Arizona Pavilions Dr,W ARIZONA PAVILLIONS DR & N ARIZONA PAVILLIONS DR,32.355611,-111.089694,,,,,0
15015,,River/Shannon,W RIVER RD & W RIVER RD,32.309764,-111.02888,,,,,0
15016,,Lambert/LaCanada,W LAMBERT LN & N LA CANADA DR,32.39523,-110.994861,,,,,0
15026,,Old Vail Rd Park & Ride,E OLD VAIL RD,32.091881,-110.782619,,,,,0
15047,,Tanque Verde/6445 Tanque Verde Rd,E TANQUE VERDE RD & N CMO SERNA,32.245182,-110.854659,,,,,0
15296,,Glenn/Cherry,E GLENN ST & N HIGHLAND AVE,32.257464,-110.948399,,,,,0
15587,,Sandario Rd/Grier Rd,N SANDARIO RD & W DENNY ST,32.454405,-111.216946,,,,,0
15679,,Grant/Alvernon,E GRANT RD & N HASKELL DR,32.250729,-110.910428,,,,,0
15925,,Rancho Vistoso/Pusch Mountain View,E RANCHO VISTOSO BLVD & N PUSCH MOUNTAIN VIEW LN,32.441468,-110.938846,,,,,0
15926,,Craycroft/20th St,S CRAYCROFT RD & E 19TH ST,32.209749,-110.875255,,,,,0
15928,,Los Reales/Cmo Alegre,W LOS REALES RD & S CMO ALEGRE,32.119235,-111.033849,,,,,0
15929,,Irvington/Greenway,E IRVINGTON RD & S GREENWAY DR,32.163179,-110.9395,,,,,0
15930,,Pantano/3rd St,N PANTANO RD & E 3RD ST,32.231317,-110.823928,,,,,0
15931,,Los Reales/Cardinal,W LOS REALES RD & S CARDINAL AVE,32.119255,-111.029395,,,,,0
15933,,6th Av/Pennington,N 6TH AVE & E ALAMEDA ST,32.223679,-110.968525,,,,,0
15934,,Mission/Mission Pl,S MISSION RD & W IRVINGTON PL,32.165268,-111.006438,,,,,0
15935,,Mission/Mission Pl,S MISSION RD & W MISSION PL,32.166773,-111.006062,,,,,0
15937,,Oracle/11085(SteamPump),N ORACLE PARK N RIDE DR & N ORACLE RD,32.407204,-110.947367,,,,,0
15938,,Craycroft/Williams Blvd,S CRAYCROFT RD & E WILLIAMS BLVD,32.217546,-110.875277,,,,,0
15939,,Lambert/Riverfront Park,W LAMBERT LN & N C MIRA MESA,32.398083,-110.977876,,,,,0
15940,,Lambert/Riverfront Park,W LAMBERT LN & N C MIRA MESA,32.398335,-110.97798,,,,,0
15942,,6th St/Highland,E 6TH ST & N MOUNTAIN AVE,32.227844,-110.95134,,,,,0
15944,,Old Vail Rd/Rita Rd,E OLD VAIL RD & S RITA RD,32.100648,-110.800032,,,,,0
15945,,Glenn/Wyatt,E GLENN ST & N WYATT DR,32.25788,-110.884036,,,,,0
15946,,Magee/La Canada,W MAGEE RD & N EL TOVAR PL,32.351699,-110.99505,,,,,0
15947,,Old Vail Rd/Rita Rd,E OLD VAIL RD & S RITA RD,32.100772,-110.80085,,,,,0
15948,,Romero/Roger,N ROMERO RD & W ROGER RD,32.279232,-111.003395,,,,,0
15949,,Romero/Smoot,N ROMERO RD & W SMOOT DR,32.27648,-111.003342,,,,,0
15950,,Romero/Smoot,N ROMERO RD & W SMOOT DR,32.276603,-111.00344,,,,,0
15951,,Casino del Sol Park & Ride,S VIVIANA RD,32.13118,-111.082599,,,,,0
15952,,Davis/Ruthrauff,N DAVIS AVE & W DIAMOND ST,32.294822,-111.027099,,,,,0
15953,,Valencia/Cmo de la Tierra,W VALENCIA RD & S CMO DE LA TIERRA,32.133881,-111.038699,,,,,0
15955,,Valencia/Caballo Rd,W VALENCIA RD & S CABALLO RD,32.132767,-111.052845,,,,,0
15956,,Valencia/Cmo de Oeste,W VALENCIA RD & S CMO DE OESTE,32.133563,-111.063499,,,,,0
15957,,Valencia/Mark,W VALENCIA RD & S MARK RD,32.133512,-111.072542,,,,,0
15958,,Grant/Sunny Dr,E GRANT RD & N PSO DEL NORTE,32.250744,-110.862619,,,,,0
15959,,Valencia/Mark,W VALENCIA RD & UNKNOWN,32.133357,-111.070893,,,,,0
15960,,Valencia/Cmo de Oeste,W VALENCIA RD & S CMO DE OESTE,32.133366,-111.062318,,,,,0
15962,,Valencia/Cmo de la Tierra,W VALENCIA RD & S CMO DE LA TIERRA,32.133597,-111.036784,,,,,0
15963,,Silverbell/Rainbow Ridge,N SILVERBELL RD & W RAINBOW RIDGE RD,32.246643,-111.011055,,,,,0
15964,,Oracle/Golder Ranch Dr,N ORACLE RD & E GOLDER RANCH DR,32.48258,-110.921869,,,,,0
15968,,C Concordia/Shadow Mountain Dr,W C CONCORDIA & E C CONCORDIA,32.37369,-110.969964,,,,,0
15970,,Coachline/Rivulet Dr,N COACHLINE BLVD & W RIVULET DR,32.367874,-111.121984,,,,,0
15971,,Pantano/22nd St,S PANTANO RD & N MAIN AVE,32.205674,-110.827046,,,,,0
15972,,Innovation Pk Dr/Tangerine Rd,E INNOVATION PARK DR & N NORTHERN AVE,32.432194,-110.947457,,,,,0
15974,,Innovation Pk Dr/Vistoso Commerce Pl,E INNOVATION PARK DR,32.438323,-110.944604,,,,,0
15976,,River/River Crossing Ln,W RIVER RD & N BREEDEN DR,32.29767,-110.984001,,,,,0
15977,,Thornydale/Horizon Hills Dr,N THORNYDALE RD & W COSTCO DR,32.330278,-111.046362,,,,,0
15978,,Nogales Hy/Abrego Dr,S NOGALES HWY & N ABREGO DR,31.91139,-110.98241,,,,,0
15979,,Sahuarita Rd/Desert Gem,W SAHUARITA RD & UNKNOWN,31.956824,-110.974133,,,,,0
15982,,Trader Ln/Front St,W CMO ALAMEDA & S LA CANADA DR,31.867585,-110.993655,,,,,0
15983,,Park Centre Av/Continental Rd,S PARK CENTRE AVE & E CONTINENTAL RD,31.85856,-110.977676,,,,,0
15989,,Rancho Sahuarita Bl/Sahuarita Rd,S RANCHO SAHUARITA BLVD,31.96004,-110.983321,,,,,0
15999,,Pima Mine Rd/I-19,UNKNOWN,32.004595,-110.98827,,,,,0
16013,,Tohono Transit Center,N TOHONO TRANSIT CENTER DR & E ADAMS ST,32.288622,-110.967882,,,,,0
16023,,Silverbell/Cortaro Rd,N SILVERBELL RD & N CORTARO RD,32.350322,-111.100385,,,,,0
16024,,Silverbell/Nueva Vista,N SILVERBELL RD & W NUEVA VISTA DR,32.354622,-111.11005,,,,,0
16025,,Silverbell/Wade Rd,N SILVERBELL RD & N WADE RD,32.356212,-111.112099,,,,,0
16026,,Silverbell/Somerton Dr,N SILVERBELL RD & W SOMERTON DR,32.359565,-111.114945,,,,,0
16027,,Coachline/Twin Peaks,N COACHLINE BLVD & W TWIN PEAKS RD,32.374753,-111.127279,,,,,0
16028,,Silverbell/Twin Peaks,N SILVERBELL RD & W TWIN PEAKS RD,32.372593,-111.136818,,,,,0
16029,,Silverbell/Continental Reserve Lp,N SILVERBELL RD,32.358719,-111.114647,,,,,0
16030,,Cortaro Rd/Silverbell,N SILVERBELL RD & N CORTARO RD,32.34795,-111.099177,,,,,0
16031,,Schisler Dr/Mamie Kai Dr,N SCHISLER DR & W MAMIE KAI DR,32.348453,-111.09614,,,,,0
16032,,Tangerine/Thornydale,W TANGERINE RD & N THORNYDALE RD,32.42587,-111.045136,,,,,0
16033,,Thornydale/Linda Vista Bl,N THORNYDALE RD & W LINDA VISTA BLVD,32.380633,-111.046946,,,,,0
16034,,Thornydale/Cortaro Farms Rd,N THORNYDALE RD & W CORTARO FARMS RD,32.358882,-111.047028,,,,,0
16035,,Thornydale/Massingale Rd,N THORNYDALE RD & W MASSINGALE RD,32.344529,-111.047014,,,,,0
16036,,Thornydale/Ina Rd,N THORNYDALE RD & W INA RD,32.337872,-111.046784,,,,,0
16037,,Thornydale/Massingale Rd,N THORNYDALE RD & W MASSINGALE RD,32.344949,-111.046797,,,,,0
16038,,Thornydale/Cortaro Farms Rd,N THORNYDALE RD & W CORTARO FARMS RD,32.359293,-111.046811,,,,,0
16039,,Thornydale/Linda Vista Bl,N THORNYDALE RD & W LINDA VISTA BLVD,32.381046,-111.046889,,,,,0
16040,,Sunrise Dr/Kolb,E SUNRISE DR & UNNAMED,32.308931,-110.845131,,,,,0
16041,,Escalante/Pantano,E ESCALANTE RD & S CARSON AVE,32.177464,-110.824255,,,,,0
16042,,Sunflower Park/Sunflower Ridge,N SUNFLOWER PARK DR & N SUNFLOWER RIDGE RD,32.377224,-111.131828,,,,,0
16043,,Country Club/Winsett,S COUNTRY CLUB RD & E 17TH ST,32.213972,-110.926708,,,,,0
16044,,Oro Valley Marketplace,E TANGERINE RD & E INNOVATION PARK DR,32.424341,-110.94043,,,,,0
16045,,36th St/La Cholla,W 36TH ST & S LA CHOLLA BLVD,32.19231,-111.011183,,,,,0
16047,,Cardinal/Valencia,S CARDINAL AVE & W VALENCIA RD,32.134819,-111.028729,,,,,0
16048,,Cardinal/San Paulus,S CARDINAL AVE & W CMO ORO BLANCO,32.137869,-111.028611,,,,,0
16049,,Cardinal/Bilby,S CARDINAL AVE & W QUAIL RD,32.14145,-111.028637,,,,,0
16050,,Cardinal/Bilby,S CARDINAL AVE & W BILBY RD,32.140849,-111.028633,,,,,0
16051,,Cardinal/Alvaro,S CARDINAL AVE & W DOVE RD,32.145058,-111.028651,,,,,0
16052,,Cardinal/Alvaro,S CARDINAL AVE & W ALVARO RD,32.144367,-111.028712,,,,,0
16053,,Valencia/Settler Av,W VALENCIA RD & S SETTLER AVE,32.132721,-111.053953,,,,,0
16055,,6th St/Campbell,E 6TH ST & N MARTIN AVE,32.227934,-110.94447,,,,,0
16056,,Irvington/Mission,W IRVINGTON RD & S MISSION RD,32.159496,-111.007836,,,,,0
16058,,C Don Miguel/Cmo de Oeste,W C DON MIGUEL & S AVE DON FERNANDO,32.170073,-111.063121,,,,,0
16059,,Kinney Rd/Bopp Rd,S KINNEY RD & S AMBER ROCK AVE,32.177458,-111.079148,,,,,0
16060,,Western Way Ci/Kinney Rd,W WESTERN WAY CIR & S KINNEY RD,32.186743,-111.091524,,,,,0
16061,,Bopp Rd/Thornton(Donald),W BOPP RD & S THORNTON AVE,32.177349,-111.101699,,,,,0
16062,,Bopp Rd/San Joaquin Rd,W BOPP RD & S SAN JOAQUIN RD,32.177239,-111.145022,,,,,0
16063,,Cmo Verde/Old Ajo Hwy,N CMO VERDE & W OLD AJO HWY,32.161349,-111.105544,,,,,0
16064,,Branding Iron Ci/Lightning L Pl,S BRANDING IRON CIR & W LIGHTNING L,32.144938,-111.109508,,,,,0
16066,,Sunset Bl/Louisiana(Irvington),S SUNSET BLVD & W LOUISIANA ST,32.159552,-111.084721,,,,,0
16067,,Irvington/Butts(Sheridan),W IRVINGTON RD & S BUTTS RD,32.162634,-111.07542,,,,,0
16069,,Anway Rd/Avra Valley Rd,N ANWAY RD & W AVRA VALLEY RD,32.378981,-111.321185,,,,,0
16070,,Cocio Rd/El Cerrito Ln,N COCIO RD & W EL CERRITO LN,32.462026,-111.344816,,,,,0
16071,,Trico Rd/El Tiro Rd,N TRICO RD & W SANDY ST,32.431401,-111.304218,,,,,0
16072,,Trico-Marana Rd/Sanders Rd,W MARANA RD & N SANDERS RD,32.460472,-111.234466,,,,,0
16073,,Swanson St/Sanders Rd,W SWANSON ST & N SANDERS RD,32.437212,-111.233685,,,,,0
16074,,Sandario Rd/Trico Marana Rd,N SANDARIO RD & W MARANA RD,32.460011,-111.216994,,,,,0
16075,,Grier Rd/Coach Spring Dr,W GRIER RD & N COACH SPRING DR,32.453419,-111.191834,,,,,0
16076,,Adonis Rd/Amole Ci,N ADONIS RD & N AMOLE CIR,32.45879,-111.209337,,,,,0
16077,,Marana Main/Civic Center,N MARANA MAIN ST,32.449121,-111.212168,,,,,0
16078,,Water St/Campbell St,W WATER ST & W CAMPBELL ST,32.415527,-111.154006,,,,,0
16081,,Orange Grove/Thornydale,W ORANGE GROVE RD & N THORNYDALE RD,32.323373,-111.043211,,,,,0
16082,,Mission/Valencia,S MISSION RD & W VALENCIA RD,32.133242,-111.016188,,,,,0
16083,,San Xavier/Mission Rd,W SAN XAVIER RD & S MISSION RD,32.106662,-111.01863,,,,,0
16084,,San Xavier/Little Nogales,W SAN XAVIER RD & N MARANA MAIN ST,32.10665,-111.008993,,,,,0
16085,,Stock Rd/Health Center,UNKNOWN & UNKNOWN,32.107316,-110.981003,,,,,0
16086,,Little Nogales Dr/Campus Dr,S LITTLE NOGALES DR & UNKNOWN,32.090495,-111.005392,,,,,0
16087,,Campus Dr/Mission Rd,W CAMPUS DR & S MISSION RD,32.091546,-111.021626,,,,,0
16098,,Lon Adams/Grier Rd,N LON ADAMS RD & W GRIER RD,32.453044,-111.208381,,,,,0
16100,,6th Av/15th St,S 6TH AVE & E 15TH ST,32.216097,-110.968495,,,,,0
16102,,6th St/Herbert Av,E 6TH ST & N HERBERT AVE,32.227844,-110.966515,,,,,0
16103,,River/Sunset,W RIVER RD & W RIVER RD,32.307933,-111.025228,,,,,0
16104,,River/Sunset,W RIVER RD & W RIVER RD,32.308426,-111.025244,,,,,0
16105,,River/La Cholla,W RIVER RD & N LA CHOLLA BLVD,32.305012,-111.011735,,,,,0
16106,,River/La Canada,W RIVER RD & N LA CANADA DR,32.297645,-110.995582,,,,,0
16107,,River/La Cholla,W RIVER RD & N LA CHOLLA BLVD,32.305403,-111.012392,,,,,0
16108,,River/River Crossing Ln,W RIVER RD & N RIVER CROSSING LN,32.297359,-110.983343,,,,,0
16109,,Mission/San Xavier,S MISSION RD & W SAN XAVIER RD,32.106987,-111.018828,,,,,0
16111,,6th St/Euclid,E 6TH ST & N EUCLID AVE,32.22788,-110.959924,,,,,0
16113,,Anklam/2002 W Anklam,W ANKLAM RD & N LA CHOLLA BLVD,32.225068,-111.009895,,,,,0
16116,,Silverlake/Kino Pw,E SILVERLAKE RD & S CHERRY AVE,32.199533,-110.948826,,,,,0
16117,,Silverlake/Cherrybell,E SILVERLAKE RD & S CAMPBELL AVE,32.201056,-110.944224,,,,,0
16118,,Silverlake/Campbell,E SILVERLAKE RD & S CAMPBELL AVE,32.201018,-110.943969,,,,,0
16119,,29th St/Columbus,E 29TH ST & S COLUMBUS BLVD,32.199637,-110.900235,,,,,0
16120,,Campbell Av/Ft Lowell,N CAMPBELL AVE & E FORT LOWELL RD,32.265158,-110.943625,,,,,0
16121,,Oracle/La Reserve,N ORACLE RD & N LA RESERVE DR,32.403111,-110.951349,,,,,0
16122,,La Canada/Overton Rd,N LA CANADA DR & W HARDY RD,32.365896,-110.995788,,,,,0
16123,,La Canada/Hardy Rd,N LA CANADA DR & W HARDY RD,32.366774,-110.99564,,,,,0
16124,,Glenn/Orlando,E GLENN ST & N ARCADIA AVE,32.257954,-110.88862,,,,,0
16126,,Palo Verde/Felix,S PALO VERDE RD,32.154018,-110.917793,,,,,0
16128,,Speedway/Harrison,E SPEEDWAY BLVD & E SH PARK N RIDE WAY,32.235513,-110.790077,,,,,0
16132,,Golf Links/Desert Cavern,E GOLF LINKS RD & S DESERT CAVERN PL,32.191629,-110.797716,,,,,0
16133,,Valencia/Alvernon,E VALENCIA RD & S ALVERNON WAY,32.134097,-110.908598,,,,,0
16134,,Alvernon/Valencia,S ALVERNON WAY & E VALENCIA RD,32.134965,-110.909312,,,,,0
16137,,Downtown Ronstadt Center,W RONSTADT TRANSIT CENTER DR,32.222356,-110.968029,,,,,0
16138,,Valencia/Casino del Sol,W VALENCIA RD,32.132244,-111.085773,,,,,0
16140,,Seven Generations/Thunder Sky,E SEVEN GENERATIONS WAY & S THUNDER SKY WAY,32.155304,-110.771949,,,,,0
16141,,Bilby/Courtland,E BILBY RD & S HOUGHTON RD,32.140799,-110.77066,,,,,0
16144,,Houghton/Valencia,S HOUGHTON RD & E MEADOW WILLOW TRL,32.118528,-110.772782,,,,,0
16145,,Rita Rd/Houghton,E RITA RD & E REES LOOP,32.102761,-110.773801,,,,,0
16146,,Flowing Wells/Mohave,N FLOWING WELLS RD & W PANAMA LN,32.267908,-110.994869,,,,,0
16147,,Houghton/Valencia,S HOUGHTON RD & E VALENCIA RD,32.119334,-110.77259,,,,,0
16148,,Bilby/Courtland,E BILBY RD & S COURTLAND DR,32.140641,-110.770172,,,,,0
16149,,Seven Generations/Thunder Sky,E SEVEN GENERATIONS WAY & S THUNDER SKY WAY,32.155466,-110.771947,,,,,0
16150,,Park/Speedway,N PARK AVE & E HELEN ST,32.236548,-110.956869,,,,,0
16151,,La Canada/Lambert,N LA CANADA DR & W LAMBERT LN,32.394772,-110.995945,,,,,0
16152,,Pima College West Campus,W PCC WEST DR & W ANKLAM RD,32.226583,-111.016596,,,,,0
16155,,Park/Tucson Marketplace,S PARK AVE & E 39TH ST,32.188066,-110.956454,,,,,0
16156,,Oracle/Rillito,N ORACLE RD & W RILLITO ST,32.248348,-110.977862,,,,,0
16157,,Auto Mall Dr/Auto Sprint Rd,W AUTO MALL DR & N AUTO SPRINT RD,32.290111,-110.983468,,,,,0
16158,,Auto Mall Dr/Auto Sprint Rd,W AUTO MALL DR & N AUTO SPRINT RD,32.289897,-110.983609,,,,,0
16159,,Menor Stv/Tucson Av,E MENOR STRAV & S TUCSON AVE,32.195689,-110.935547,,,,,0
16160,,Gas Rd/Palo Verde,E GAS RD & S PALO VERDE RD,32.167061,-110.917262,,,,,0
16161,,22nd St/3rd Av,E 22ND ST & S 3RD AVE,32.206955,-110.964198,,,,,0
16167,,Poinciana/Clements Center,E MANITOBA PL & S MANITOBA AVE,32.168305,-110.818889,,,,,0
16169,,Glenn/Mountain,E GLENN ST & N HIGHLAND AVE,32.257476,-110.952048,,,,,0
16190,,Trico Rd/El Tiro Rd,N TRICO RD & W SANDY ST,32.43142,-111.304325,,,,,0
16191,,Trico-Marana Rd/Sanders Rd,W MARANA RD & N SANDERS RD,32.460562,-111.234465,,,,,0
16192,,Sandario Rd/Trico Marana Rd,N SANDARIO RD & W MARANA RD,32.460011,-111.217059,,,,,0
16193,,Coachline/Twin Peaks,N COACHLINE BLVD & W TWIN PEAKS RD,32.374791,-111.127588,,,,,0
16194,,Tangarine/Innovation Park Dr,E TANGERINE RD & E INNOVATION PARK DR,32.428356,-110.949715,,,,,0
16195,,Innovation Pk Dr/Vistoso Commerce Pl,E INNOVATION PARK DR & E EL CONQUISTADOR WAY,32.438971,-110.943784,,,,,0
16198,,Marana Main/Civic Center,N MARANA MAIN ST & E INNOVATION PARK DR,32.448969,-111.212276,,,,,0
16200,,Oracle/Flores,N ORACLE RD & W RILLITO ST,32.247283,-110.978226,,,,,0
16201,,Tetakusim Rd/Caballo Rd,W TETAKUSIM RD & S GILA AVE,32.115627,-111.051693,,,,,0
16202,,Tetakusim Rd/Caballo Rd,W TETAKUSIM RD & S CABALLO RD,32.115455,-111.052749,,,,,0
16203,,6th Av/15th St,S 6TH AVE & E 15TH ST,32.215794,-110.968659,,,,,0
16204,,6th Av/12th St,S 6TH AVE & E 12TH ST,32.219715,-110.968688,,,,,0
16209,,Magee/Mona Lisa,W MAGEE RD & N MONA LISA RD,32.347086,-111.019976,,,,,0
